%time,field.transforms0.header.seq,field.transforms0.header.stamp,field.transforms0.transform.translation.x,field.transforms0.transform.translation.y,field.transforms0.transform.translation.z,field.transforms0.transform.rotation.x,field.transforms0.transform.rotation.y,field.transforms0.transform.rotation.z,field.transforms0.transform.rotation.w
1423458803684072223,0,1423458803683581780,5.90359115601,-0.859209775925,12.1411943436,-0.129102017251,0.984847562708,1.49380766328e-11,0.11579269135
1423458803703718651,0,1423458803703585439,5.90319347382,-0.85938256979,12.1413516998,-0.129114015474,0.98484702238,1.49380443159e-11,0.115783908719
1423458803703825768,0,1423458803703635523,5.90369987488,-0.859504640102,12.1409912109,-0.129090139121,0.984850626488,1.49378434526e-11,0.115779875141
1423458803723733511,0,1423458803723578825,5.90356683731,-0.859373092651,12.1409664154,-0.129098534074,0.984847708989,1.49379704906e-11,0.115795330643
1423458803743697042,0,1423458803743575269,5.90264940262,-0.859160959721,12.1414194107,-0.129123879762,0.984844796463,1.4938152058e-11,0.115791841488
1423458803763753997,0,1423458803763577504,5.9034705162,-0.859019398689,12.1411304474,-0.129098391446,0.98484717239,1.49381160199e-11,0.115800053378
1423458803783725213,0,1423458803783583096,5.90282964706,-0.858917713165,12.1415271759,-0.129120418683,0.984844011729,1.49384739707e-11,0.115802374936
1423458803803778284,0,1423458803803580836,5.90363788605,-0.858951508999,12.141207695,-0.129086467973,0.984847996165,1.4938163413e-11,0.115806339364
1423458803803801242,0,1423458803803629219,5.90328216553,-0.858662426472,12.1413583755,-0.129099326228,0.984845677629,1.49383888136e-11,0.115811723167
1423458803823726073,0,1423458803823589782,5.90290546417,-0.858880460262,12.141500473,-0.129121933354,0.984843365503,1.49383481435e-11,0.11580618184
1423458803843722917,0,1423458803843581239,5.90244102478,-0.859335005283,12.1416940689,-0.129142495876,0.984841871514,1.49383355763e-11,0.115795957926
1423458803863712603,0,1423458803863578117,5.90284919739,-0.859101176262,12.1415224075,-0.129121743018,0.984843160767,1.49384639799e-11,0.115808135166
1423458803883717078,0,1423458803883576461,5.90316963196,-0.859871327877,12.1412858963,-0.129112506684,0.984848721637,1.49379410397e-11,0.115771136767
1423458803903731425,0,1423458803903581629,5.90336894989,-0.860188543797,12.1411619186,-0.129108185131,0.984850613213,1.4937641092e-11,0.115759864312
1423458803903866330,0,1423458803903637387,5.90290927887,-0.859709739685,12.1414699554,-0.129134537094,0.984845092571,1.49380929626e-11,0.115777437215
1423458803923736652,0,1423458803923571098,5.90227508545,-0.858874797821,12.1418972015,-0.129152354417,0.984839222484,1.49386135503e-11,0.115807492009
1423458803943735887,0,1423458803943573756,5.90269470215,-0.858311355114,12.1416931152,-0.129131696325,0.984839540135,1.49389205047e-11,0.115827825632
1423458803963784619,0,1423458803963619922,5.9024181366,-0.858427882195,12.141828537,-0.129146824281,0.984837774561,1.49389173422e-11,0.115825971075
1423458803983706326,0,1423458803983575088,5.90229177475,-0.858699977398,12.1419792175,-0.129163667079,0.984837307327,1.49387394793e-11,0.115811161823
1423458804003767494,0,1423458804003571745,5.90277957916,-0.859105944633,12.1417427063,-0.129146545325,0.984840217646,1.49384910081e-11,0.115805507371
1423458804004021658,0,1423458804003630866,5.90280675888,-0.859455525875,12.1415576935,-0.129149949263,0.984842670935,1.49382829377e-11,0.115780845181
1423458804023741678,0,1423458804023582964,5.90288686752,-0.859398841858,12.1414928436,-0.129147225203,0.984842752014,1.49380949972e-11,0.115783194068
1423458804043762191,0,1423458804043577177,5.90277242661,-0.858868360519,12.1416444778,-0.129141102293,0.984840920115,1.49384292715e-11,0.115805603341
1423458804063771959,0,1423458804063583036,5.90326404572,-0.858604133129,12.1413698196,-0.129114731119,0.984844147434,1.49384771965e-11,0.115807562246
1423458804083772236,0,1423458804083583526,5.90321302414,-0.858419597149,12.1414136887,-0.129114736526,0.984842969327,1.4938718767e-11,0.11581757457
1423458804103781097,0,1423458804103577025,5.90325593948,-0.858301341534,12.1414661407,-0.129114655796,0.984843329984,1.49388489257e-11,0.115814597716
1423458804103819004,0,1423458804103622733,5.90334510803,-0.858304798603,12.1415109634,-0.129106965634,0.984843992698,1.49387419951e-11,0.115817535248
1423458804123767067,0,1423458804123581291,5.9038643837,-0.858404517174,12.141374588,-0.129090218387,0.984846563131,1.49386431171e-11,0.11581434542
1423458804143727540,0,1423458804143575046,5.90348291397,-0.859240174294,12.1414747238,-0.129111712811,0.984847921867,1.49382068138e-11,0.115778825391
1423458804163738430,0,1423458804163583582,5.90303468704,-0.859107673168,12.1416597366,-0.12912340823,0.984845512589,1.49383895555e-11,0.115786276305
1423458804183774827,0,1423458804183575887,5.90305948257,-0.859120905399,12.141658783,-0.12912672907,0.984845542356,1.4938367967e-11,0.115782319643
1423458804203780460,0,1423458804203609186,5.90270662308,-0.859128654003,12.1417570114,-0.129147706145,0.984842507544,1.49384263299e-11,0.115784737044
1423458804203955522,0,1423458804203657050,5.90303707123,-0.858544886112,12.1416578293,-0.129125507271,0.984841729735,1.49388097883e-11,0.115816107452
1423458804223729636,0,1423458804223582113,5.90274381638,-0.858583927155,12.1417579651,-0.129137652993,0.984840221995,1.49388062375e-11,0.115815386368
1423458804243720846,0,1423458804243583134,5.90244960785,-0.859163820744,12.1418085098,-0.129158019327,0.984838600846,1.49385384311e-11,0.115806460642
1423458804263703657,0,1423458804263579537,5.90266275406,-0.859008252621,12.141793251,-0.129146576819,0.984839754327,1.49387111686e-11,0.115809412369
1423458804283734179,0,1423458804283575920,5.90283203125,-0.859515547752,12.1416120529,-0.129152774803,0.984841091678,1.49381677397e-11,0.115791126188
1423458804303747769,0,1423458804303584829,5.90253591537,-0.859009206295,12.14179039,-0.129156372577,0.984838045728,1.49385433286e-11,0.115813017877
1423458804303819109,0,1423458804303648730,5.90225076675,-0.859418869019,12.1419057846,-0.129171988434,0.98483621961,1.493822931e-11,0.115811130503
1423458804323720631,0,1423458804323584381,5.90260696411,-0.859115302563,12.141828537,-0.129152541694,0.984838009434,1.49383783046e-11,0.115817598611
1423458804343718946,0,1423458804343578543,5.90278768539,-0.85875326395,12.1415939331,-0.129143108781,0.984839256264,1.49385954236e-11,0.115817514981
1423458804363787524,0,1423458804363585003,5.90271854401,-0.859753906727,12.1415452957,-0.129158902671,0.984841815833,1.49379982275e-11,0.115778131129
1423458804383763242,0,1423458804383576925,5.9027557373,-0.85928684473,12.1416397095,-0.129153325678,0.984840561472,1.49383466402e-11,0.115795021252
1423458804403735668,0,1423458804403600095,5.90312671661,-0.859402835369,12.1414413452,-0.129140341243,0.98484200359,1.49380270853e-11,0.11579723757
1423458804404104336,0,1423458804403657159,5.90292358398,-0.85924744606,12.1415567398,-0.129141003449,0.984841333125,1.49383032299e-11,0.115802201175
1423458804423732538,0,1423458804423576630,5.90313482285,-0.858856737614,12.1415643692,-0.129135157869,0.984841639767,1.49384130712e-11,0.115806112029
1423458804443715021,0,1423458804443578164,5.90294313431,-0.858807861805,12.1416816711,-0.129141840594,0.984841232544,1.49383699283e-11,0.115802122989
1423458804463723076,0,1423458804463591740,5.90363788605,-0.859815478325,12.1412057877,-0.129117695778,0.984849588563,1.4937741181e-11,0.115757973997
1423458804483696512,0,1423458804483577682,5.90350341797,-0.859932899475,12.1412363052,-0.129131507662,0.984848126286,1.49376118787e-11,0.115755008009
1423458804503715220,0,1423458804503597256,5.90360784531,-0.859761297703,12.1412601471,-0.129117565341,0.984849021792,1.49377867671e-11,0.115762941378
1423458804503731304,0,1423458804503648363,5.90307283401,-0.860040187836,12.1415014267,-0.129143686775,0.984846226938,1.49377322806e-11,0.11575758054
1423458804523736383,0,1423458804523581949,5.90309143066,-0.860153973103,12.1413936615,-0.129140325738,0.984847661388,1.4937559042e-11,0.115749125814
1423458804543719857,0,1423458804543577787,5.90356206894,-0.860181033611,12.1410551071,-0.12912148468,0.984850639532,1.49374892118e-11,0.115744805533
1423458804563778991,0,1423458804563592588,5.90284156799,-0.860111832619,12.141494751,-0.129147859403,0.984846644355,1.4937745325e-11,0.11574937371
1423458804583791025,0,1423458804583590599,5.90365934372,-0.8603104949,12.1410627365,-0.129114286217,0.984852804492,1.49376395613e-11,0.115734413978
1423458804603712793,0,1423458804603576845,5.90368366241,-0.860042095184,12.1410646439,-0.129104827881,0.984854222198,1.493779596e-11,0.11573290127
1423458804604102837,0,1423458804603620126,5.9030213356,-0.86014020443,12.1413831711,-0.129130020657,0.984850716211,1.49377557827e-11,0.115734629836
1423458804623724110,0,1423458804623575927,5.90336847305,-0.859392166138,12.1412992477,-0.129108497948,0.98484875791,1.49379457738e-11,0.115775298751
1423458804643753991,0,1423458804643580943,5.90406084061,-0.858760416508,12.1410017014,-0.129074799534,0.98485161664,1.49382247506e-11,0.115788554385
1423458804663761616,0,1423458804663577900,5.90412473679,-0.858749985695,12.1408786774,-0.129073737131,0.984852239177,1.49382382063e-11,0.115784443559
1423458804683725536,0,1423458804683575156,5.90420341492,-0.858747541904,12.1407232285,-0.129063334539,0.984853702026,1.49382741441e-11,0.11578359678
1423458804703745248,0,1423458804703590278,5.90427398682,-0.858806312084,12.1407413483,-0.129060430115,0.984852722702,1.49380476862e-11,0.115795163824
1423458804703867043,0,1423458804703647246,5.90405797958,-0.859248518944,12.1408290863,-0.129068653299,0.984853172693,1.49378048328e-11,0.115782170358
1423458804723755789,0,1423458804723576425,5.9036822319,-0.859449803829,12.141125679,-0.129088085591,0.984852071834,1.49379307372e-11,0.115769869836
1423458804743718433,0,1423458804743580336,5.90403604507,-0.859467983246,12.1409187317,-0.129068222814,0.984854317015,1.49379829918e-11,0.115772916161
1423458804763732608,0,1423458804763578769,5.90391206741,-0.858979821205,12.140879631,-0.129075993574,0.984851568055,1.49381109962e-11,0.115787636567
1423458804783721064,0,1423458804783572217,5.903819561,-0.858498454094,12.1409006119,-0.129074611607,0.984849623719,1.49385174293e-11,0.115805713585
1423458804803724147,0,1423458804803579202,5.90409183502,-0.858532607555,12.1407413483,-0.129069908537,0.98485069324,1.49384377958e-11,0.115801859804
1423458804803831429,0,1423458804803634827,5.90432834625,-0.85832041502,12.140666008,-0.129064487957,0.984850236522,1.49384042111e-11,0.11581178511
1423458804823788793,0,1423458804823592533,5.90363264084,-0.858773052692,12.1408891678,-0.129091462653,0.984848728202,1.49383812929e-11,0.115794545768
1423458804843724981,0,1423458804843575804,5.90311145782,-0.858987987041,12.1410102844,-0.129114547732,0.984847139975,1.49383085057e-11,0.115782314916
1423458804863735084,0,1423458804863576488,5.90313339233,-0.859665393829,12.1409215927,-0.129114066545,0.984850060803,1.49378907836e-11,0.115758004284
1423458804883756611,0,1423458804883594572,5.90235185623,-0.859269857407,12.1413841248,-0.129143674,0.98484441835,1.49380961435e-11,0.115772980921
1423458804903702995,0,1423458804903576727,5.90336561203,-0.859339177608,12.1408529282,-0.129104551772,0.98485055649,1.4937973097e-11,0.115764399073
1423458804903807868,0,1423458804903623502,5.90360593796,-0.859343290329,12.1407232285,-0.129102155977,0.984850137215,1.49379812179e-11,0.115770637681
1423458804923720335,0,1423458804923576167,5.9029135704,-0.859928786755,12.1410169601,-0.129141587796,0.984845752513,1.49375562892e-11,0.115763958379
1423458804943689996,0,1423458804943573937,5.90308189392,-0.859589934349,12.1409873962,-0.129131711129,0.984845605958,1.49378227245e-11,0.115776222108
1423458804963765986,0,1423458804963608145,5.90311193466,-0.859226286411,12.1410665512,-0.129129098608,0.984844593646,1.49379455255e-11,0.115787746588
1423458804983731415,0,1423458804983580870,5.9031624794,-0.858867585659,12.1411180496,-0.12912143399,0.984845603816,1.49381803246e-11,0.115787701974
1423458805003839776,0,1423458805003569892,5.90331935883,-0.859580636024,12.1409034729,-0.129116196888,0.98484931025,1.49377788691e-11,0.115762013634
1423458805003880861,0,1423458805003622495,5.90358734131,-0.859628617764,12.1408576965,-0.129099134748,0.984851881007,1.49379459615e-11,0.11575917192
1423458805023751378,0,1423458805023581047,5.90291118622,-0.859727323055,12.1411962509,-0.129137994149,0.984848118177,1.49378674065e-11,0.115747840545
1423458805043755330,0,1423458805043581246,5.90265989304,-0.859465122223,12.141500473,-0.129141579088,0.984845847069,1.49381114625e-11,0.115763163664
1423458805063730501,0,1423458805063590797,5.90268325806,-0.859427988529,12.1414766312,-0.12913965348,0.9848450968,1.49381475025e-11,0.115771694333
1423458805083772738,0,1423458805083583263,5.9026966095,-0.859095871449,12.1415205002,-0.129139502811,0.984842138291,1.49383315297e-11,0.115797026988
1423458805103777488,0,1423458805103584610,5.90269947052,-0.859500229359,12.1414957047,-0.129141869717,0.9848424472,1.49379005799e-11,0.115791759977
1423458805103915539,0,1423458805103641093,5.90233373642,-0.858996987343,12.1417541504,-0.129143725483,0.984840936274,1.49382810666e-11,0.115802540593
1423458805123759701,0,1423458805123572607,5.9022603035,-0.858647942543,12.1417236328,-0.129156555803,0.984837549023,1.49384081869e-11,0.115817037297
1423458805143715270,0,1423458805143580327,5.90197229385,-0.859434902668,12.1418418884,-0.12918431467,0.984837724807,1.49380743716e-11,0.115784578598
1423458805163737753,0,1423458805163585441,5.90196037292,-0.859213531017,12.1419258118,-0.129180576566,0.984837394341,1.49384739447e-11,0.115791559904
1423458805183725889,0,1423458805183581874,5.9018368721,-0.858938097954,12.1420822144,-0.129190031673,0.984834536251,1.49386969642e-11,0.115805319065
1423458805203763698,0,1423458805203605703,5.90183115005,-0.85955029726,12.1420764923,-0.12920513983,0.984835630766,1.49382611404e-11,0.115779152767
1423458805203835292,0,1423458805203661950,5.90161418915,-0.859082520008,12.1422510147,-0.129210935947,0.984832560437,1.49386053955e-11,0.11579879937
1423458805223730950,0,1423458805223581838,5.90138483047,-0.858855962753,12.1423406601,-0.129216383656,0.98483103716,1.49385756584e-11,0.115805675342
1423458805243752817,0,1423458805243576173,5.90109634399,-0.858656227589,12.1424798965,-0.129220575284,0.984830261877,1.49387811772e-11,0.11580759135
1423458805263730232,0,1423458805263584049,5.90170955658,-0.859139382839,12.1421670914,-0.129199101415,0.984833751023,1.4938458751e-11,0.115801878394
1423458805283730725,0,1423458805283581824,5.90197753906,-0.859055817127,12.1420125961,-0.129182949211,0.984836020608,1.49385212037e-11,0.115800596484
1423458805303721248,0,1423458805303579612,5.90155315399,-0.858949363232,12.1421537399,-0.12919236954,0.984833628779,1.49387072066e-11,0.115810428193
1423458805303772089,0,1423458805303621678,5.90197753906,-0.85963922739,12.1419334412,-0.129178794107,0.98483839661,1.4938131116e-11,0.115785023714
1423458805323725583,0,1423458805323590289,5.90131473541,-0.859378576279,12.1423788071,-0.129212066244,0.984833103875,1.49384016326e-11,0.115792916226
1423458805343758799,0,1423458805343582108,5.90099239349,-0.858859241009,12.1425256729,-0.129223185626,0.984830079101,1.49388279859e-11,0.115806232966
1423458805363745545,0,1423458805363590957,5.90114736557,-0.857741415501,12.1425361633,-0.129206360976,0.98482744803,1.4939371671e-11,0.115847373257
1423458805383731427,0,1423458805383581955,5.90200090408,-0.858141183853,12.1421689987,-0.129189292329,0.984830686136,1.49389103729e-11,0.11583888118
1423458805403741861,0,1423458805403588711,5.90173435211,-0.857989370823,12.1423425674,-0.129199518809,0.984828374709,1.4939248404e-11,0.115847126457
1423458805404033726,0,1423458805403647366,5.90152645111,-0.858437776566,12.1423177719,-0.129213987497,0.984827165657,1.49389303077e-11,0.115841267339
1423458805423722795,0,1423458805423581271,5.90197086334,-0.858823359013,12.1421413422,-0.12919599695,0.984831098337,1.49387508747e-11,0.115827898712
1423458805443726149,0,1423458805443578929,5.90172100067,-0.859220564365,12.1421413422,-0.129206548782,0.984831843874,1.49383767088e-11,0.115809788201
1423458805463760658,0,1423458805463599248,5.90182065964,-0.85933226347,12.1421451569,-0.129200735048,0.984834642845,1.49384540306e-11,0.115792470896
1423458805483719804,0,1423458805483581990,5.90193748474,-0.859684228897,12.1420316696,-0.129194746008,0.984837251049,1.4938160822e-11,0.115776969001
1423458805503723817,0,1423458805503582120,5.90193891525,-0.858999669552,12.1421346664,-0.129187436198,0.984836347257,1.49386236963e-11,0.115792812597
1423458805503867043,0,1423458805503641149,5.90156078339,-0.85872477293,12.1422767639,-0.129200542722,0.984833285412,1.49389449249e-11,0.115804230084
1423458805523719378,0,1423458805523575810,5.90152740479,-0.859020769596,12.1423206329,-0.129210800525,0.984832814524,1.49386860905e-11,0.115796789526
1423458805543711753,0,1423458805543576337,5.90167045593,-0.858953237534,12.1422519684,-0.129202208091,0.984833311056,1.49387384476e-11,0.115802153944
1423458805563732352,0,1423458805563583088,5.90202283859,-0.858852446079,12.1419963837,-0.129190456892,0.98483534913,1.49387269083e-11,0.115797931557
1423458805583729931,0,1423458805583584908,5.90177249908,-0.858763337135,12.1421384811,-0.129189897938,0.984834622888,1.49388066205e-11,0.115804731473
1423458805603704154,0,1423458805603583472,5.90145158768,-0.859206974506,12.1420679092,-0.129207009465,0.984832821787,1.49384429016e-11,0.115800957841
1423458805603821933,0,1423458805603641446,5.90144491196,-0.859420895576,12.1420974731,-0.129213217828,0.98483281546,1.49382598079e-11,0.115794084183
1423458805623720340,0,1423458805623582968,5.90208530426,-0.85972994566,12.1416883469,-0.129191577255,0.984837049918,1.49379789224e-11,0.115782215709
1423458805643723535,0,1423458805643576596,5.90232229233,-0.859452426434,12.141617775,-0.129169777931,0.984840162373,1.49381730284e-11,0.11578006325
1423458805663734341,0,1423458805663581939,5.90201854706,-0.859650194645,12.141749382,-0.129186930458,0.984838793556,1.49380229322e-11,0.115772568888
1423458805683723553,0,1423458805683581113,5.90156030655,-0.85951256752,12.1420249939,-0.129205064113,0.98483492654,1.4938100963e-11,0.115785227355
1423458805703726439,0,1423458805703588700,5.90167808533,-0.859517991543,12.1419763565,-0.129209406162,0.98483514391,1.49380184014e-11,0.115778532892
1423458805703834913,0,1423458805703631065,5.90202379227,-0.859256505966,12.1417951584,-0.129191759651,0.984836808502,1.49382291847e-11,0.115784065649
1423458805723734650,0,1423458805723582641,5.90237092972,-0.859162449837,12.1415872574,-0.129167979923,0.984839728611,1.49381514249e-11,0.115785758677
1423458805743771190,0,1423458805743580954,5.90243959427,-0.858657598495,12.1415777206,-0.129155627408,0.984838843761,1.49383251364e-11,0.115807062515
1423458805763712197,0,1423458805763581317,5.90245246887,-0.859075963497,12.1415271759,-0.129159717244,0.984839163886,1.49381089093e-11,0.115799778571
1423458805783770528,0,1423458805783580272,5.90290927887,-0.859351158142,12.1412506104,-0.129138996777,0.984844206607,1.49380641269e-11,0.115779999237
1423458805804004563,0,1423458805803584245,5.90264987946,-0.859555482864,12.1413793564,-0.129153211524,0.984843044941,1.49380658942e-11,0.115774024654
1423458805804291170,0,1423458805803640406,5.90270137787,-0.859625339508,12.1414346695,-0.129157934225,0.984842193275,1.49378797715e-11,0.115776000848
1423458805823727472,0,1423458805823587385,5.90226221085,-0.859984397888,12.1416282654,-0.129176522195,0.984841980231,1.49378424901e-11,0.115757073601
1423458805843749163,0,1423458805843582090,5.9027094841,-0.859981000423,12.1414003372,-0.129152941032,0.984843854673,1.49376432014e-11,0.11576743815
1423458805863736366,0,1423458805863581431,5.90204906464,-0.859308898449,12.1419029236,-0.129178519559,0.984838649596,1.49381713144e-11,0.115783178163
1423458805883719653,0,1423458805883575975,5.90223693848,-0.859470784664,12.141869545,-0.129180673484,0.984839947709,1.49380917359e-11,0.115769732638
1423458805903674317,0,1423458805903577510,5.90151643753,-0.859197974205,12.1422100067,-0.129206754049,0.984835550204,1.49383169669e-11,0.115778036617
1423458805903839669,0,1423458805903647957,5.90162467957,-0.859157621861,12.1421442032,-0.129200567006,0.984835602436,1.49384024849e-11,0.115784496627
1423458805923722013,0,1423458805923580451,5.90161037445,-0.859855115414,12.1421585083,-0.129219538301,0.984836155576,1.49380611837e-11,0.115758617784
1423458805943709236,0,1423458805943578895,5.90181446075,-0.859538078308,12.1420059204,-0.129202113776,0.98483609857,1.49382258617e-11,0.115778550474
1423458805963732245,0,1423458805963596888,5.90166187286,-0.859432280064,12.1421604156,-0.129207822169,0.984834788532,1.4938251017e-11,0.115783323446
1423458805983710714,0,1423458805983575797,5.90222167969,-0.859395503998,12.1419687271,-0.129186356666,0.984836782743,1.49381608796e-11,0.115790313098
1423458806003757435,0,1423458806003583570,5.90159511566,-0.858830988407,12.1422643661,-0.129202682689,0.984831744309,1.49387181773e-11,0.115814948033
1423458806003901075,0,1423458806003636281,5.90168476105,-0.85904955864,12.142165184,-0.12919632965,0.984834514679,1.49384912034e-11,0.115798476252
1423458806023731911,0,1423458806023582849,5.90210294724,-0.859588742256,12.1419200897,-0.129188637433,0.984838346407,1.49382551775e-11,0.115774467842
1423458806043713759,0,1423458806043571670,5.90246248245,-0.859595298767,12.1416130066,-0.129170951833,0.984839973285,1.49382181707e-11,0.11578036199
1423458806063720753,0,1423458806063586328,5.90261650085,-0.859359383583,12.1415176392,-0.129166437722,0.98483973358,1.49382693651e-11,0.115787436833
1423458806083725266,0,1423458806083587494,5.90244674683,-0.859176874161,12.1415433884,-0.129167500065,0.984840284658,1.49382504377e-11,0.11578156434
1423458806103690600,0,1423458806103574665,5.90252304077,-0.85974240303,12.1415567398,-0.129166695444,0.984841586764,1.49380862504e-11,0.115771385793
1423458806103835414,0,1423458806103616604,5.90265083313,-0.85994976759,12.1414852142,-0.129160602323,0.984843330907,1.49379364958e-11,0.115763346426
1423458806123711838,0,1423458806123576393,5.90256690979,-0.858505785465,12.1417102814,-0.129146790926,0.984838993898,1.49386786676e-11,0.1158156401
1423458806143699092,0,1423458806143575271,5.90244817734,-0.858510017395,12.1416759491,-0.129156549066,0.984838093078,1.49386905704e-11,0.115812418399
1423458806163718737,0,1423458806163580698,5.90246629715,-0.858485758305,12.1416606903,-0.129155768953,0.984837421103,1.49387025249e-11,0.115819002503
1423458806183728885,0,1423458806183581788,5.902364254,-0.858823537827,12.1417722702,-0.129161485333,0.98483795799,1.49385340908e-11,0.115808061932
1423458806203738407,0,1423458806203593854,5.90258646011,-0.859214127064,12.1416492462,-0.129158502227,0.98484014312,1.4938266676e-11,0.115792805482
1423458806203824470,0,1423458806203648109,5.90241765976,-0.859567344189,12.1417474747,-0.129163781381,0.984840995677,1.49381304445e-11,0.115779664937
1423458806223710378,0,1423458806223571653,5.9019241333,-0.859644472599,12.1419172287,-0.129195283681,0.98483815365,1.49380572983e-11,0.115768690884
1423458806243748853,0,1423458806243579276,5.90241622925,-0.859883189201,12.1415367126,-0.129177900735,0.984841348594,1.49378432635e-11,0.115760909041
1423458806263727563,0,1423458806263579198,5.90270376205,-0.859962821007,12.1413230896,-0.129165634596,0.984843132331,1.49376823403e-11,0.115759420955
1423458806283712096,0,1423458806283577083,5.90248155594,-0.860322535038,12.1414442062,-0.129174115733,0.984843070623,1.49375247483e-11,0.115750481947
1423458806303731721,0,1423458806303589179,5.90275907516,-0.859843432903,12.1414003372,-0.129158853103,0.984843563526,1.49378026224e-11,0.115763319085
1423458806303749997,0,1423458806303643556,5.90305376053,-0.859662771225,12.1412420273,-0.129142987667,0.984845166932,1.49378716576e-11,0.115767378423
1423458806323781179,0,1423458806323600566,5.90264701843,-0.85961586237,12.1415271759,-0.129159442876,0.98484348801,1.49380186611e-11,0.115763303511
1423458806343750495,0,1423458806343572259,5.90280294418,-0.860634386539,12.1412467957,-0.129158968873,0.98484811905,1.49373970962e-11,0.11572442769
1423458806363754455,0,1423458806363584972,5.90211343765,-0.860272347927,12.1416778564,-0.129181767136,0.984843800303,1.49378465893e-11,0.115735733651
1423458806383768271,0,1423458806383576616,5.90213489532,-0.859543740749,12.1416454315,-0.129166597835,0.984842011192,1.49382365793e-11,0.115767884129
1423458806403722488,0,1423458806403582851,5.90276145935,-0.859429836273,12.1414260864,-0.129145838225,0.984844637507,1.49380981036e-11,0.115768702343
1423458806403810340,0,1423458806403630457,5.9028544426,-0.858748733997,12.1414928436,-0.129138960125,0.984842313999,1.49384204585e-11,0.115796137828
1423458806423723810,0,1423458806423575362,5.90239667892,-0.858418762684,12.1417217255,-0.129153798077,0.984839519482,1.49387076852e-11,0.115803356205
1423458806443733337,0,1423458806443588541,5.90251016617,-0.858232736588,12.1416444778,-0.129151883627,0.98483832401,1.49388808248e-11,0.115815657475
1423458806463787406,0,1423458806463597200,5.90244579315,-0.858759880066,12.1415710449,-0.129160911145,0.984839552751,1.49384376822e-11,0.115795139659
1423458806483771902,0,1423458806483577455,5.90266370773,-0.858696162701,12.1415662766,-0.129155050243,0.984839157753,1.49384789022e-11,0.11580503596
1423458806503753843,0,1423458806503579179,5.90253305435,-0.858185470104,12.141705513,-0.129153609578,0.984838025702,1.49388959184e-11,0.115816269427
1423458806503794621,0,1423458806503621514,5.90212583542,-0.859003245831,12.141910553,-0.12917754947,0.984840330319,1.49385791318e-11,0.115769963675
1423458806523757103,0,1423458806523581012,5.90272521973,-0.859543502331,12.1415710449,-0.129153028379,0.984843777308,1.4938156948e-11,0.115767998853
1423458806543736274,0,1423458806543576951,5.90314388275,-0.859355509281,12.1413288116,-0.129136076831,0.984844157434,1.49380648727e-11,0.115783674276
1423458806563732417,0,1423458806563573482,5.90261650085,-0.859390556812,12.1415309906,-0.129151834581,0.984842039642,1.49379701729e-11,0.115784111938
1423458806583723261,0,1423458806583587208,5.90282440186,-0.858894705772,12.141500473,-0.129141107562,0.984842084643,1.49383834247e-11,0.115795693591
1423458806603740898,0,1423458806603578547,5.90329027176,-0.85871553421,12.1412792206,-0.12911489232,0.984845859424,1.49383737262e-11,0.115792822561
1423458806603844754,0,1423458806603632169,5.90304231644,-0.859313666821,12.1412706375,-0.129131465281,0.984846755061,1.49380976901e-11,0.115766721123
1423458806623726558,0,1423458806623570202,5.90241146088,-0.859418570995,12.1416559219,-0.129156880608,0.984842954565,1.49380637422e-11,0.115770700246
1423458806643729438,0,1423458806643573736,5.90250301361,-0.859329104424,12.141541481,-0.12915844363,0.98484153279,1.49380500791e-11,0.115781050826
1423458806663756665,0,1423458806663578405,5.90268659592,-0.859097123146,12.1415624619,-0.129145466043,0.984843335539,1.49382411513e-11,0.115780192797
1423458806683722172,0,1423458806683571757,5.9024105072,-0.858657300472,12.1415996552,-0.129145155294,0.984842985657,1.49385441386e-11,0.115783515525
1423458806703745823,0,1423458806703585792,5.90293598175,-0.858619511127,12.1412582397,-0.12912978356,0.984844068376,1.49385382839e-11,0.115791450381
1423458806703802483,0,1423458806703635476,5.90320491791,-0.859431505203,12.1411495209,-0.129128943998,0.984846475744,1.49378341917e-11,0.115771909534
1423458806723724523,0,1423458806723579028,5.90316963196,-0.859469413757,12.1411714554,-0.129124653616,0.984846162017,1.49377720164e-11,0.115779363402
1423458806743731730,0,1423458806743571399,5.90359354019,-0.858536660671,12.1410579681,-0.129092070659,0.984847326804,1.49382810121e-11,0.11580578647
1423458806763749999,0,1423458806763582577,5.90325832367,-0.859200119972,12.1412363052,-0.129114414749,0.984847119411,1.49379847175e-11,0.115782638131
1423458806783741113,0,1423458806783566365,5.90294933319,-0.858643293381,12.1414470673,-0.12913386584,0.984841526917,1.49383883616e-11,0.11580851244
1423458806803751632,0,1423458806803582331,5.90276002884,-0.858109533787,12.141749382,-0.129142470821,0.984838112255,1.49387484068e-11,0.115827953795
1423458806803769704,0,1423458806803635124,5.90236330032,-0.858602881432,12.1419353485,-0.129162442215,0.984837932532,1.49386524928e-11,0.115807211208
1423458806823734552,0,1423458806823587938,5.90248250961,-0.859211981297,12.1417808533,-0.129162822052,0.984841390883,1.49384133236e-11,0.11577737345
1423458806843769634,0,1423458806843579407,5.90256023407,-0.858575284481,12.1418170929,-0.129157181047,0.984839221956,1.4938694584e-11,0.115802113456
1423458806863727785,0,1423458806863585035,5.90298700333,-0.85845220089,12.1416120529,-0.129140213408,0.984840067246,1.49385020966e-11,0.115813847307
1423458806883721153,0,1423458806883576044,5.90349388123,-0.858990967274,12.1412992477,-0.129116369917,0.984844489685,1.49381320513e-11,0.115802824477
1423458806903723144,0,1423458806903578915,5.90324115753,-0.858568310738,12.1413574219,-0.129117503841,0.984843418893,1.49383808006e-11,0.115810666455
1423458806903847817,0,1423458806903623387,5.9033575058,-0.859432280064,12.1412525177,-0.12911522457,0.98484880045,1.49378429667e-11,0.115767435125
1423458806923723359,0,1423458806923577936,5.90291118622,-0.859928488731,12.1414422989,-0.129152353376,0.984845456039,1.49376206741e-11,0.115754470055
1423458806943729816,0,1423458806943581550,5.90247011185,-0.859968006611,12.1416759491,-0.129169132045,0.984843208684,1.49377534004e-11,0.115754868735
1423458806963774902,0,1423458806963592384,5.9023680687,-0.859867036343,12.1417665482,-0.129168244773,0.984841713462,1.49378095465e-11,0.11576857936
1423458806983712101,0,1423458806983573717,5.90200376511,-0.859574258327,12.1419439316,-0.129183686512,0.984838388839,1.4938103051e-11,0.115779631236
1423458807003723738,0,1423458807003580239,5.90191221237,-0.859561383724,12.1420354843,-0.12919468588,0.98483626754,1.49379062407e-11,0.115785401839
1423458807003794248,0,1423458807003641570,5.90198135376,-0.859439253807,12.1420564651,-0.129195551302,0.984836062035,1.49380731711e-11,0.115786184142
1423458807023713215,0,1423458807023575765,5.90205621719,-0.85829025507,12.1420383453,-0.129186133357,0.984833700019,1.49386127697e-11,0.115816778815
1423458807043717963,0,1423458807043575815,5.90123987198,-0.858907938004,12.1423530579,-0.129207275522,0.984832026913,1.49386029197e-11,0.115807420829
1423458807063729502,0,1423458807063584532,5.90146350861,-0.859263181686,12.1421995163,-0.129204191532,0.984833962024,1.4938466119e-11,0.115794404592
1423458807083743629,0,1423458807083588130,5.90180540085,-0.859728813171,12.141919136,-0.129197393093,0.984836954432,1.49381706054e-11,0.115776538227
1423458807103756360,0,1423458807103583254,5.90229606628,-0.859400093555,12.1416702271,-0.129179603762,0.984838303075,1.49382364591e-11,0.115784915982
1423458807103861901,0,1423458807103638027,5.90189695358,-0.860024929047,12.1418066025,-0.129205335261,0.984838059973,1.49379424648e-11,0.115758269546
1423458807123730916,0,1423458807123576073,5.90141487122,-0.85971736908,12.1421298981,-0.129222360936,0.984834166777,1.49382833466e-11,0.115772386101
1423458807143712351,0,1423458807143577033,5.90156507492,-0.859573364258,12.1420507431,-0.129209976295,0.984835614204,1.49383159961e-11,0.115773896113
1423458807163752986,0,1423458807163582388,5.90122127533,-0.859737277031,12.1422767639,-0.129231402629,0.984834473094,1.49382417102e-11,0.115759687201
1423458807183737114,0,1423458807183580372,5.90142536163,-0.859119594097,12.1422300339,-0.129215655572,0.984833012323,1.49384488187e-11,0.115789689497
1423458807203733125,0,1423458807203590566,5.90139532089,-0.858703017235,12.1422815323,-0.129221923272,0.984829181443,1.49386002843e-11,0.115815275003
1423458807203823670,0,1423458807203637935,5.90155553818,-0.858937561512,12.1421384811,-0.129216951758,0.984831422459,1.49384606045e-11,0.115801764737
1423458807223726940,0,1423458807223587136,5.90163087845,-0.859646201134,12.1421937943,-0.129223931555,0.984833720498,1.49381527238e-11,0.115774429314
1423458807243707804,0,1423458807243576907,5.90143013,-0.859761834145,12.1423177719,-0.129232240423,0.984831952105,1.49380967594e-11,0.115780197563
1423458807263702871,0,1423458807263583388,5.90177488327,-0.860105752945,12.1420974731,-0.129224606062,0.984834971919,1.49377885006e-11,0.115763030686
1423458807283708768,0,1423458807283581887,5.90209054947,-0.859639108181,12.1419639587,-0.129205226309,0.984836143031,1.49380173381e-11,0.115774698766
1423458807303720271,0,1423458807303579445,5.90195798874,-0.859233081341,12.1420974731,-0.129209579627,0.984833668353,1.49383226128e-11,0.115790890013
1423458807304067032,0,1423458807303623960,5.90143442154,-0.858920931816,12.1422586441,-0.129229176687,0.984830423664,1.49384951307e-11,0.115796617042
1423458807323737180,0,1423458807323589865,5.90206098557,-0.858992576599,12.1419935226,-0.129207841148,0.984832855873,1.4938371927e-11,0.115799739975
1423458807343726413,0,1423458807343580175,5.90179681778,-0.859516620636,12.1421375275,-0.129224535742,0.984832521227,1.49380388066e-11,0.115783956125
1423458807363735583,0,1423458807363582054,5.90213251114,-0.8599807024,12.14199543,-0.129214651861,0.984835646446,1.49378011682e-11,0.115768403433
1423458807383733834,0,1423458807383586247,5.90197086334,-0.859307229519,12.14220047,-0.129216755448,0.984832276016,1.49381534967e-11,0.115794724529
1423458807403730240,0,1423458807403586264,5.90097236633,-0.858782172203,12.1427717209,-0.129237026939,0.984827887334,1.49387203168e-11,0.115809426197
1423458807403908424,0,1423458807403648316,5.90043258667,-0.859857320786,12.1428308487,-0.129272994819,0.984827525581,1.49384721556e-11,0.115772352777
1423458807423708860,0,1423458807423576095,5.9016699791,-0.859921634197,12.1421413422,-0.129236995854,0.984831647638,1.49380960933e-11,0.115777479303
1423458807443713594,0,1423458807443580423,5.90131855011,-0.859556555748,12.1423358917,-0.129243759638,0.984830537153,1.49383014118e-11,0.115779375048
1423458807463729810,0,1423458807463600498,5.90115499496,-0.858990073204,12.142455101,-0.129246188994,0.984828290483,1.4938562717e-11,0.115795772355
1423458807483715750,0,1423458807483580632,5.90109395981,-0.859737753868,12.1425466537,-0.129258787618,0.984829862244,1.49382940347e-11,0.115768338743
1423458807503720364,0,1423458807503586620,5.90123224258,-0.860016524792,12.142411232,-0.129253091495,0.9848309227,1.49380507231e-11,0.11576567727
1423458807503752120,0,1423458807503667959,5.90149688721,-0.859556496143,12.1422472,-0.129235157496,0.984831082125,1.49381786517e-11,0.115784341546
1423458807523736045,0,1423458807523582069,5.90125751495,-0.859893023968,12.1423063278,-0.129246218715,0.984831699796,1.49380318903e-11,0.115766739719
1423458807543723361,0,1423458807543571341,5.90097427368,-0.859051525593,12.1424436569,-0.129243574204,0.984828627026,1.49386474459e-11,0.115795828583
1423458807563706702,0,1423458807563583198,5.90111160278,-0.859006762505,12.1423711777,-0.129247656765,0.984828406314,1.49386349408e-11,0.115793148921
1423458807583774745,0,1423458807583601714,5.90173864365,-0.858812749386,12.1420783997,-0.129216266334,0.984831208319,1.49386435198e-11,0.115804350674
1423458807603727713,0,1423458807603587087,5.90144586563,-0.858839511871,12.1421422958,-0.129224182485,0.984829072024,1.4938799226e-11,0.115813684675
1423458807603880485,0,1423458807603648492,5.90158319473,-0.8587449193,12.1420116425,-0.129206970582,0.98483108789,1.49387158043e-11,0.115815746247
1423458807623736185,0,1423458807623586456,5.90132141113,-0.858883500099,12.1420249939,-0.129215063117,0.984831023215,1.49386146216e-11,0.115807267372
1423458807643737464,0,1423458807643575883,5.90180253983,-0.858265995979,12.1418409348,-0.12918079793,0.984832642403,1.49389458715e-11,0.115831722355
1423458807663755092,0,1423458807663582126,5.90092277527,-0.859330773354,12.1421337128,-0.129233887644,0.984831410157,1.49384537453e-11,0.115782968748
1423458807683721120,0,1423458807683580736,5.90129327774,-0.859658062458,12.1419696808,-0.12922086988,0.984833928609,1.49382728677e-11,0.115776076317
1423458807703797254,0,1423458807703613836,5.90132379532,-0.860084652901,12.1418952942,-0.129274847987,0.984833616097,1.49378566243e-11,0.115718461288
1423458807703901000,0,1423458807703683048,5.9130358696,-0.856641471386,12.1401004791,-0.129219080634,0.984843808893,1.49387095548e-11,0.115693998487
1423458807723951689,0,1423458807723556669,5.94143152237,-0.860578238964,12.1359825134,-0.12921988961,0.98486096266,1.49367249605e-11,0.115546979008
1423458807743743020,0,1423458807743580394,5.99052429199,-0.862401723862,12.1312122345,-0.128941128043,0.984910799495,1.49328569397e-11,0.115433541645
1423458807763758029,0,1423458807763603123,6.05113172531,-0.871578991413,12.1300992966,-0.128015509441,0.985071748602,1.4918981073e-11,0.115089875531
1423458807783755803,0,1423458807783579981,6.10648059845,-0.879531621933,12.1294994354,-0.127136638094,0.985217372953,1.49090215561e-11,0.114817260397
1423458807803748318,0,1423458807803584601,6.14383983612,-0.88374119997,12.1281251907,-0.126654875324,0.985285890004,1.49003137156e-11,0.114761742387
1423458807803763720,0,1423458807803639261,6.18225765228,-0.848156571388,12.1070079803,-0.125657736783,0.985334933031,1.49161335011e-11,0.115434842817
1423458807823701550,0,1423458807823584994,6.21299171448,-0.809380352497,12.0757875443,-0.124815863778,0.985354344004,1.49314324737e-11,0.116180105444
1423458807843766227,0,1423458807843575183,6.2336640358,-0.791211903095,12.0644435883,-0.124378119684,0.985305777243,1.49463782142e-11,0.117058142288
1423458807863746490,0,1423458807863581972,6.24611282349,-0.802693545818,12.0778112411,-0.124027964133,0.985263981511,1.49478485699e-11,0.11777924626
1423458807883760310,0,1423458807883570005,6.25729084015,-0.820193171501,12.0896167755,-0.123799028303,0.98523805806,1.49496909442e-11,0.118236075467
1423458807903735326,0,1423458807903584871,6.27147245407,-0.833115041256,12.0929479599,-0.12330240286,0.985306219848,1.49520318075e-11,0.118187015265
1423458807903817651,0,1423458807903643517,6.28077459335,-0.836969554424,12.0900669098,-0.1228582433,0.985352630673,1.49605737562e-11,0.118262611498
1423458807923730743,0,1423458807923583057,6.28197956085,-0.836766958237,12.0843353271,-0.122621156221,0.985304275163,1.49718557071e-11,0.118909786786
1423458807943759736,0,1423458807943573052,6.28224229813,-0.827296614647,12.0729856491,-0.122582740608,0.98522713224,1.49862317465e-11,0.119586661473
1423458807963800919,0,1423458807963597744,6.28751373291,-0.827129125595,12.0653057098,-0.122953560582,0.985269202608,1.49823487094e-11,0.118857142541
1423458807983743789,0,1423458807983574542,6.30728578568,-0.831294715405,12.0674200058,-0.123154478562,0.985375038299,1.49718861025e-11,0.117766753829
1423458808003763498,0,1423458808003580071,6.3508181572,-0.840585291386,12.0720100403,-0.123024169287,0.985478658693,1.49589052016e-11,0.117033614962
1423458808003772133,0,1423458808003623224,6.39504718781,-0.855119287968,12.0719051361,-0.122770843834,0.985570453654,1.49428026123e-11,0.116525537063
1423458808023782648,0,1423458808023582133,6.45462751389,-0.839160501957,12.0563440323,-0.122503196365,0.985585939388,1.49326162588e-11,0.116676145642
1423458808043780616,0,1423458808043581157,6.54861402512,-0.772284209728,12.0461893082,-0.120466102161,0.985708110502,1.49554547655e-11,0.117760091372
1423458808063768788,0,1423458808063578159,6.63937091827,-0.78832256794,12.0601119995,-0.118316692866,0.985920725059,1.49232278393e-11,0.118158724132
1423458808083777457,0,1423458808083589467,6.71692657471,-0.782505869865,12.0689115524,-0.116518374081,0.986210602682,1.48794280073e-11,0.117524957603
1423458808103768223,0,1423458808103583008,6.77991008759,-0.730618655682,12.0678358078,-0.114778563061,0.986450143195,1.48752854993e-11,0.117226261789
1423458808104000775,0,1423458808103635713,6.79272317886,-0.77150785923,12.0620746613,-0.115755556289,0.986496882786,1.48215154205e-11,0.115864366571
1423458808123764963,0,1423458808123575976,6.79101800919,-0.771901488304,12.0569477081,-0.117221173598,0.986461353963,1.47990177502e-11,0.114687373311
1423458808143780034,0,1423458808143577094,6.80519247055,-0.718267560005,12.0507049561,-0.117320364176,0.986412703312,1.4821111345e-11,0.115003960341
1423458808163965484,0,1423458808163580566,6.84730529785,-0.678772389889,12.0378808975,-0.115726646691,0.986474381206,1.48430488024e-11,0.116084617716
1423458808183723969,0,1423458808183580428,6.89730405807,-0.66377800703,12.0201416016,-0.113879640983,0.986563893859,1.48614852496e-11,0.117145681539
1423458808203766647,0,1423458808203586581,6.94682216644,-0.662151277065,12.0112638474,-0.112246841262,0.986675860541,1.48823136477e-11,0.117776877408
1423458808203832374,0,1423458808203643098,7.00672626495,-0.663049578667,12.0134849548,-0.110577648504,0.986881676509,1.49070496756e-11,0.117631374308
1423458808223735576,0,1423458808223578921,7.03208065033,-0.756191134453,12.0313663483,-0.110245335422,0.987132920344,1.48686325329e-11,0.115821257078
1423458808243793772,0,1423458808243603550,7.00729894638,-0.847346425056,12.0451955795,-0.111934326982,0.987146219557,1.48411148086e-11,0.114074745925
1423458808263729596,0,1423458808263583823,6.94218349457,-0.935602962971,12.0387554169,-0.115342579135,0.986956072169,1.48068349568e-11,0.112311179533
1423458808283712432,0,1423458808283575663,6.87096309662,-0.956946730614,12.0267019272,-0.118837546379,0.986602622087,1.48124384084e-11,0.111771658578
1423458808303770766,0,1423458808303583130,6.81566381454,-0.963554739952,12.0127763748,-0.12045884389,0.986335710665,1.48223386204e-11,0.11239009207
1423458808303782546,0,1423458808303637403,6.78940248489,-0.972908854485,11.986246109,-0.121158557385,0.985988663884,1.4835198488e-11,0.114660187792
1423458808323736609,0,1423458808323589846,6.81129789352,-0.966505646706,11.9615192413,-0.1208356496,0.985645653391,1.48588164475e-11,0.117904163358
1423458808343751476,0,1423458808343575397,6.87022161484,-0.966080129147,11.9547233582,-0.119990152532,0.985473623192,1.48740087172e-11,0.120183614891
1423458808363727568,0,1423458808363582869,6.95325040817,-0.960913360119,11.9715623856,-0.117888738352,0.985782604252,1.48696282065e-11,0.119728453275
1423458808383717373,0,1423458808383580392,7.04789447784,-0.951330542564,12.004447937,-0.115741292701,0.986311407911,1.485356373e-11,0.11744683814
1423458808403742471,0,1423458808403578667,7.09395217896,-0.939344584942,12.0282325745,-0.114640610819,0.986678474724,1.48350785826e-11,0.115425811101
1423458808403756130,0,1423458808403619369,7.09266996384,-0.929349601269,12.0325269699,-0.114812140506,0.98675371161,1.48257938011e-11,0.114609271079
1423458808423731403,0,1423458808423577397,7.09214639664,-0.931703805923,12.0203819275,-0.11514122785,0.986667473022,1.48194099719e-11,0.115020847368
1423458808443755422,0,1423458808443582006,7.08814477921,-0.940564990044,12.0015592575,-0.115442877311,0.986545395249,1.48164785507e-11,0.115763229015
1423458808463737126,0,1423458808463592192,7.08069658279,-0.942083179951,12.0062494278,-0.11642577537,0.986407016193,1.48159807039e-11,0.115957911481
1423458808483730885,0,1423458808483583041,7.09976053238,-0.902339935303,12.0359859467,-0.115823020802,0.986498038628,1.4839418584e-11,0.115787078878
1423458808503725323,0,1423458808503578867,7.12988805771,-0.888322174549,12.0764627457,-0.113810066469,0.986864217143,1.48528651271e-11,0.114657253121
1423458808503978432,0,1423458808503636412,7.13923692703,-0.888541162014,12.0745191574,-0.112499592728,0.986920555932,1.48770418104e-11,0.115462798839
1423458808523714872,0,1423458808523576846,7.15412998199,-0.905148863792,12.0402050018,-0.112891259186,0.986498282703,1.49059534992e-11,0.118645277287
1423458808543744017,0,1423458808543574827,7.21288633347,-0.94410264492,12.0046510696,-0.112727169788,0.986170940279,1.49144651075e-11,0.121488525139
1423458808563745644,0,1423458808563582582,7.32573795319,-0.982271373272,11.9708938599,-0.111958559713,0.986018397225,1.49231306544e-11,0.123422045199
1423458808583722121,0,1423458808583588816,7.45549488068,-1.05307376385,11.9435787201,-0.110890960714,0.986242367979,1.48828729197e-11,0.122593582359
1423458808603752842,0,1423458808603580584,7.55406713486,-1.05089867115,11.9281387329,-0.108951579681,0.986636037909,1.48565041015e-11,0.121156435998
1423458808603764951,0,1423458808603635849,7.57876253128,-1.06496202946,11.918422699,-0.108399834253,0.986887373895,1.48280062334e-11,0.11959426065
1423458808623748899,0,1423458808623600752,7.56560897827,-1.03172647953,11.9241666794,-0.108754062744,0.986863606547,1.48203775943e-11,0.119468723561
1423458808643727173,0,1423458808643582322,7.54618215561,-1.00738298893,11.9301786423,-0.109181798339,0.986716962272,1.48245826234e-11,0.120287037021
1423458808663746937,0,1423458808663578886,7.52951955795,-1.01572370529,11.9271430969,-0.109697867088,0.986588557997,1.48210067869e-11,0.120869331036
1423458808683709583,0,1423458808683569519,7.52798271179,-1.01482117176,11.920381546,-0.109970196323,0.986555108398,1.4822363865e-11,0.120894888292
1423458808703725030,0,1423458808703587999,7.53397846222,-1.04657065868,11.919511795,-0.11036116551,0.986643634301,1.48125769645e-11,0.119811318498
1423458808703850262,0,1423458808703643397,7.55543899536,-1.05126345158,11.928527832,-0.109596141998,0.986967100487,1.48212472934e-11,0.117833052306
1423458808723743965,0,1423458808723582605,7.58696651459,-1.10563576221,11.9220190048,-0.108168653186,0.98745648356,1.48132325633e-11,0.115018413933
1423458808743709487,0,1423458808743574468,7.651222229,-1.16163575649,11.8858060837,-0.107431818302,0.987394469756,1.48248464407e-11,0.116234958213
1423458808763722591,0,1423458808763577028,7.76551103592,-1.19928205013,11.8658561707,-0.105630470563,0.987311285241,1.48366604351e-11,0.118569092617
1423458808783796127,0,1423458808783608238,7.87800931931,-1.21840333939,11.8613233566,-0.103858800022,0.98728100477,1.48453596641e-11,0.120372618472
1423458808803799806,0,1423458808803577481,7.98961114883,-1.21848213673,11.8587169647,-0.102313517849,0.987297810861,1.48488529748e-11,0.121552362107
1423458808803862204,0,1423458808803627083,8.09302616119,-1.22128713131,11.8512516022,-0.100971015227,0.987400142656,1.48375863432e-11,0.121843392789
1423458808823735898,0,1423458808823591472,8.18163394928,-1.25823414326,11.8443155289,-0.0998721005236,0.987655781376,1.4796004245e-11,0.12067154201
1423458808843719604,0,1423458808843575562,8.23657798767,-1.28900015354,11.8358573914,-0.098794907948,0.987987769907,1.47457622475e-11,0.118826481383
1423458808863690445,0,1423458808863560799,8.26101112366,-1.31162261963,11.8355035782,-0.0985856332016,0.988167944047,1.47104196758e-11,0.11749462662
1423458808883729523,0,1423458808883580351,8.2735786438,-1.32663464546,11.8427019119,-0.0984588373694,0.988244084215,1.46903178852e-11,0.116959340623
1423458808903766774,0,1423458808903577449,8.26751232147,-1.31320631504,11.8644065857,-0.096991902264,0.988365930934,1.46717698054e-11,0.117155270745
1423458808903904257,0,1423458808903633286,8.20271968842,-1.19980895519,11.8616199493,-0.0968287562872,0.988095912633,1.47531336653e-11,0.119543546016
1423458808923715086,0,1423458808923573818,8.07795333862,-1.09598898888,11.8268661499,-0.0997269223964,0.987434810889,1.48446951782e-11,0.122584808173
1423458808943702668,0,1423458808943581984,7.93447732925,-1.0136487484,11.7722702026,-0.103813209373,0.986546334286,1.49354839239e-11,0.12628993573
1423458808963724767,0,1423458808963592844,7.85615301132,-1.01128768921,11.740814209,-0.106328418311,0.986209934524,1.49637970063e-11,0.126823627551
1423458808983711180,0,1423458808983575306,7.82667446136,-1.01569366455,11.7153749466,-0.107745115726,0.986292353036,1.49667167648e-11,0.124973534721
1423458809003765653,0,1423458809003578394,7.85195827484,-1.02976667881,11.6950969696,-0.108594071395,0.986547034575,1.49529428164e-11,0.122197693219
1423458809003780871,0,1423458809003632036,7.92374610901,-1.06312894821,11.71296978,-0.108370566243,0.986765324084,1.49191250527e-11,0.120623445304
1423458809023724898,0,1423458809023580913,8.0283946991,-1.11470520496,11.7583770752,-0.106448841167,0.986990985292,1.48698585407e-11,0.120488336226
1423458809043760615,0,1423458809043578862,8.16011714935,-1.14004909992,11.8134765625,-0.103245511646,0.987191660576,1.48369154446e-11,0.121626434685
1423458809063728860,0,1423458809063578295,8.27313041687,-1.14439809322,11.8501205444,-0.0996507411789,0.987443214107,1.48131716225e-11,0.122579071204
1423458809083744142,0,1423458809083607976,8.33009338379,-1.15393257141,11.8346681595,-0.0988253911959,0.987674486286,1.4796010322e-11,0.121378133101
1423458809103750930,0,1423458809103578341,8.36033153534,-1.14450073242,11.8068971634,-0.0992922083402,0.987870662356,1.47928753851e-11,0.119384303069
1423458809103822199,0,1423458809103645616,8.37023925781,-1.11976087093,11.7850131989,-0.100250897082,0.987943503834,1.48033314553e-11,0.117971991873
1423458809123759122,0,1423458809123578466,8.3725643158,-1.16124176979,11.8024187088,-0.10191737825,0.987878828301,1.47782695482e-11,0.117082315514
1423458809143732161,0,1423458809143574282,8.39880657196,-1.18495583534,11.8414525986,-0.101427012352,0.987876552645,1.47535578644e-11,0.117526498715
1423458809163724474,0,1423458809163577030,8.42552566528,-1.16920042038,11.8670597076,-0.0989362960529,0.988021094064,1.47459830037e-11,0.11843110659
1423458809183731294,0,1423458809183574860,8.41840744019,-1.15820193291,11.8489971161,-0.0985758118765,0.988087569397,1.47451331484e-11,0.118176835782
1423458809203738587,0,1423458809203582780,8.40025997162,-1.1386783123,11.8089580536,-0.0994828346578,0.988095740545,1.47576745199e-11,0.117345528779
1423458809203757317,0,1423458809203618726,8.39140892029,-1.11423015594,11.7665586472,-0.100798524262,0.988032663397,1.47771010444e-11,0.116752360005
1423458809223722122,0,1423458809223576027,8.41608524323,-1.10452401638,11.7341461182,-0.101554337156,0.987995917793,1.47946924324e-11,0.11640783062
1423458809243730743,0,1423458809243574805,8.4555606842,-1.10790419579,11.7261018753,-0.101020029949,0.987999405003,1.48016651456e-11,0.116842326503
1423458809263709077,0,1423458809263574183,8.48763084412,-1.11439692974,11.7286405563,-0.099651736579,0.988029243381,1.4799569496e-11,0.117761392745
1423458809283729178,0,1423458809283575833,8.49234294891,-1.11618292332,11.7266216278,-0.0992579483036,0.987993517015,1.48026330148e-11,0.118392018462
1423458809303744301,0,1423458809303579185,8.48624706268,-1.11818015575,11.7260694504,-0.0995887121738,0.987995351401,1.48046668418e-11,0.118098577542
1423458809303912945,0,1423458809303631403,8.49077796936,-1.11760210991,11.7206468582,-0.100018716795,0.988026411531,1.48046210576e-11,0.117473683898
1423458809323734229,0,1423458809323581597,8.52530288696,-1.11676585674,11.7119312286,-0.100185268248,0.988069487174,1.48025781259e-11,0.116968374112
1423458809343717074,0,1423458809343574884,8.58604335785,-1.12433302402,11.711473465,-0.100136925485,0.988095478145,1.47957140184e-11,0.116790077591
1423458809363743519,0,1423458809363584458,8.65253067017,-1.11289954185,11.728477478,-0.0994144142818,0.988104932395,1.47889187033e-11,0.117326113074
1423458809383721505,0,1423458809383578881,8.7200345993,-1.0714943409,11.7372550964,-0.097113212467,0.988048848786,1.47801842858e-11,0.119701697473
1423458809403736310,0,1423458809403578463,8.79762554169,-1.05536520481,11.7375507355,-0.0949026455183,0.988151616003,1.4758560454e-11,0.120622848852
1423458809403866510,0,1423458809403630366,8.88451004028,-1.03240036964,11.7302570343,-0.0929009831909,0.988477848304,1.474070478e-11,0.11950293191
1423458809423795867,0,1423458809423580880,8.93789196014,-1.05126643181,11.7148752213,-0.0925338799802,0.988745302434,1.47148830684e-11,0.117559380614
1423458809443708999,0,1423458809443575894,8.95727825165,-1.09031057358,11.7073307037,-0.0945827095475,0.988721093555,1.46934979356e-11,0.11612368498
1423458809463740354,0,1423458809463596711,9.00593280792,-1.08661580086,11.7090177536,-0.0946581968247,0.988696884013,1.46964351671e-11,0.116268212841
1423458809483746375,0,1423458809483575568,9.05507087708,-1.09263122082,11.7015447617,-0.0937339236906,0.988720080224,1.46997713472e-11,0.116818468194
1423458809503733193,0,1423458809503580988,9.08730792999,-1.06738567352,11.6891174316,-0.092116229394,0.988768607997,1.47150730894e-11,0.117691291618
1423458809503960194,0,1423458809503630956,9.09724617004,-1.05019140244,11.6769008636,-0.0909566964814,0.988793633042,1.47357497667e-11,0.118380871008
1423458809523727631,0,1423458809523581478,9.10860824585,-1.03657841682,11.6789989471,-0.0902333989337,0.988859987136,1.47486828294e-11,0.118380148501
1423458809543694153,0,1423458809543574231,9.11370849609,-1.04484081268,11.6827478409,-0.0902867921324,0.988902822186,1.47440724932e-11,0.117980945237
1423458809563686505,0,1423458809563581712,9.11271286011,-1.06495630741,11.6871614456,-0.0908734630046,0.988921470245,1.47335326465e-11,0.117372651879
1423458809583680192,0,1423458809583583820,9.09594535828,-1.10979151726,11.6867227554,-0.0916848010532,0.988946164169,1.47122294106e-11,0.116530603841
1423458809603758885,0,1423458809603582755,9.02969551086,-1.20970714092,11.6602058411,-0.0955435797683,0.988838682292,1.46653132851e-11,0.114321847289
1423458809603841257,0,1423458809603634046,8.98726654053,-1.23044776917,11.6248960495,-0.0985398951778,0.988746009006,1.46588523819e-11,0.112566508043
1423458809623768829,0,1423458809623581244,8.96465396881,-1.24864542484,11.6035909653,-0.100351716036,0.988682309692,1.46494570822e-11,0.111520507488
1423458809643725676,0,1423458809643579790,8.97676753998,-1.24431121349,11.5889835358,-0.100247854381,0.988604812799,1.46527725333e-11,0.112298227065
1423458809663732506,0,1423458809663578614,9.01743125916,-1.23035907745,11.5755472183,-0.0991218108135,0.988501256601,1.46606954153e-11,0.114193398753
1423458809683703884,0,1423458809683580636,9.0757522583,-1.21020066738,11.577419281,-0.0976418420512,0.988460753536,1.467098361e-11,0.115807639645
1423458809703754588,0,1423458809703588048,9.15705108643,-1.18083631992,11.5950336456,-0.0957558675907,0.988617582668,1.46757803482e-11,0.11604347919
1423458809703991720,0,1423458809703644162,9.23069667816,-1.17702400684,11.6236391068,-0.0941642608521,0.988938274972,1.46649169326e-11,0.114604451366
1423458809723696586,0,1423458809723569878,9.2633638382,-1.18387627602,11.633023262,-0.093434025607,0.989151206644,1.4653301725e-11,0.113357722513
1423458809743722887,0,1423458809743580132,9.26907920837,-1.19770276546,11.6184844971,-0.0937306266243,0.98913559103,1.46478069759e-11,0.113249071475
1423458809763821802,0,1423458809763586484,9.27822208405,-1.19800007343,11.5984115601,-0.0939981918799,0.988962736119,1.4654996206e-11,0.114529675159
1423458809783714994,0,1423458809783576580,9.2924747467,-1.19910526276,11.6107559204,-0.0945986625444,0.98878055663,1.4658219153e-11,0.115603217412
1423458809803747269,0,1423458809803584624,9.33071136475,-1.15617227554,11.6576194763,-0.0938412647431,0.988791664223,1.46808141555e-11,0.116124337647
1423458809803978634,0,1423458809803645451,9.41411972046,-1.11725056171,11.7433748245,-0.0910658177925,0.98914814978,1.46925206341e-11,0.115295076287
1423458809823746512,0,1423458809823592481,9.45339298248,-1.04738378525,11.787153244,-0.0864282708424,0.98960953259,1.47288331579e-11,0.11490486067
1423458809843719126,0,1423458809843577910,9.45076084137,-1.08085501194,11.7514371872,-0.0870177463271,0.989423523563,1.47247275806e-11,0.116056033213
1423458809863734464,0,1423458809863577470,9.45535850525,-1.13759088516,11.6950521469,-0.0886745555092,0.989148125413,1.47012248822e-11,0.117144394643
1423458809883728621,0,1423458809883576201,9.48216247559,-1.13079845905,11.6580276489,-0.0896242668203,0.988851386936,1.47119220743e-11,0.118913520476
1423458809903727226,0,1423458809903574339,9.52912712097,-1.14423060417,11.6383314133,-0.0896412678819,0.988768812882,1.47024083349e-11,0.11958544127
1423458809903743299,0,1423458809903613578,9.59372138977,-1.17673611641,11.6171197891,-0.0895749765415,0.988832049477,1.46758849201e-11,0.119111298815
1423458809923742580,0,1423458809923576525,9.65685367584,-1.18534648418,11.5976333618,-0.0887272877614,0.989077338125,1.46542698167e-11,0.117700839479
1423458809943749318,0,1423458809943579175,9.66700935364,-1.19346439838,11.5870351791,-0.0885317769691,0.989294183769,1.46308293832e-11,0.116013544155
1423458809963780532,0,1423458809963593207,9.65866470337,-1.17506992817,11.5866127014,-0.0888741522996,0.989251643629,1.46332787503e-11,0.116114472096
1423458809983719407,0,1423458809983577212,9.65705871582,-1.16892123222,11.5868835449,-0.0891063497847,0.989115059979,1.46451996897e-11,0.117095928839
1423458810003737498,0,1423458810003582886,9.67116165161,-1.18461239338,11.5819158554,-0.0889537194003,0.989053408977,1.46480401352e-11,0.117731006944
1423458810004175635,0,1423458810003635791,9.69890880585,-1.19792723656,11.5753335953,-0.0887705634835,0.989043531293,1.46527045774e-11,0.11795202527
1423458810023721894,0,1423458810023583860,9.75126552582,-1.20762956142,11.5803823471,-0.0883482671307,0.989155194084,1.46534934404e-11,0.117331094394
1423458810043717728,0,1423458810043575911,9.81304836273,-1.21588563919,11.5973215103,-0.0862586095284,0.989511927938,1.46584488005e-11,0.115868877407
1423458810063693889,0,1423458810063572810,9.84447383881,-1.24748027325,11.5964736938,-0.0849908821599,0.98967037393,1.4659262338e-11,0.115451725473
1423458810083782024,0,1423458810083591212,9.89035892487,-1.28633821011,11.575047493,-0.0848363486893,0.989498030312,1.46565421528e-11,0.117031798882
1423458810103726355,0,1423458810103584892,9.95452213287,-1.28702569008,11.5688419342,-0.0840963312303,0.989326881977,1.46613588803e-11,0.118996334699
1423458810103938037,0,1423458810103642789,10.0140256882,-1.26671409607,11.5615854263,-0.0834397166604,0.989108908853,1.46746988959e-11,0.121249247879
1423458810123712862,0,1423458810123576542,10.0889492035,-1.2386200428,11.5430850983,-0.08284244912,0.989014920135,1.46841249973e-11,0.122419836523
1423458810143718045,0,1423458810143575133,10.158747673,-1.2435323,11.5325927734,-0.0821130436991,0.989126608568,1.46681331701e-11,0.122008197585
1423458810163729171,0,1423458810163580394,10.2148323059,-1.29917693138,11.5165958405,-0.0815689449652,0.989416179744,1.46230765091e-11,0.120008876662
1423458810183724222,0,1423458810183575098,10.2485313416,-1.33308196068,11.4974803925,-0.0808893857836,0.989683699077,1.45835979048e-11,0.118250086887
1423458810203748433,0,1423458810203590265,10.2459478378,-1.33901500702,11.4913568497,-0.081175455704,0.989678855397,1.45720691532e-11,0.118094490012
1423458810203760600,0,1423458810203660075,10.2535467148,-1.3355922699,11.4923725128,-0.0810994230719,0.989622638897,1.45747602818e-11,0.118616677415
1423458810223734207,0,1423458810223578992,10.2497110367,-1.31054568291,11.5012550354,-0.0808710033899,0.989544958904,1.45897692969e-11,0.119417984901
1423458810243725253,0,1423458810243575302,10.2366142273,-1.28568351269,11.4962882996,-0.0808715202562,0.989465230693,1.46050247905e-11,0.120076452566
1423458810263726473,0,1423458810263583836,10.1997509003,-1.21193790436,11.4772338867,-0.0808859590486,0.989221235284,1.46619636951e-11,0.122060678732
1423458810283751353,0,1423458810283581046,10.1196050644,-1.11931633949,11.4415960312,-0.0828391392323,0.988679710934,1.47418622538e-11,0.125100384484
1423458810303721460,0,1423458810303578412,10.0630331039,-1.05699133873,11.4025878906,-0.0847021753594,0.988302853182,1.48032813921e-11,0.126818815172
1423458810303896636,0,1423458810303619646,10.0473423004,-1.05033457279,11.3656053543,-0.0865110039892,0.988273233457,1.48136407965e-11,0.125824728182
