%time,field.header.seq,field.header.stamp,field.point.x,field.point.y,field.point.z,field.time_ref
1423458803741216845,1880,1423458803711302995,0.218,-0.024,0.255,1423495280000000000
1423458803954917867,1881,1423458803935076951,0.218,-0.024,0.255,1423495280299999952
1423458804168472402,1882,1423458804165772914,0.218,-0.024,0.255,1423495280500000000
1423458804432253012,1883,1423458804397604942,0.218,-0.024,0.255,1423495280700000047
1423458804645939590,1884,1423458804635329008,0.218,-0.024,0.255,1423495281000000000
1423458804909637187,1885,1423458804867183923,0.218,-0.024,0.255,1423495281200000047
1423458805123315145,1886,1423458805097877979,0.218,-0.024,0.255,1423495281400000095
1423458805336931971,1887,1423458805335669040,0.218,-0.024,0.255,1423495281700000047
1423458805600696886,1888,1423458805565463066,0.218,-0.024,0.255,1423495281900000095
1423458805814347476,1889,1423458805798218011,0.218,-0.024,0.255,1423495282099999904
1423458806027998913,1890,1423458806025023937,0.218,-0.024,0.255,1423495282400000095
1423458806291684531,1891,1423458806255770921,0.218,-0.024,0.255,1423495282599999904
1423458806505324604,1892,1423458806485507965,0.218,-0.024,0.255,1423495282799999952
1423458806769071693,1893,1423458806734286069,0.218,-0.024,0.255,1423495283099999904
1423458806982707146,1894,1423458806978050947,0.218,-0.024,0.255,1423495283299999952
1423458807246388954,1895,1423458807208755970,0.218,-0.024,0.255,1423495283500000000
1423458807460077379,1896,1423458807435539960,0.218,-0.024,0.255,1423495283799999952
1423458807673764220,1897,1423458807673293113,0.218,-0.024,0.255,1423495284000000000
1423458807937478663,1898,1423458807895046949,0.221,-0.023,0.255,1423495284200000047
1423458808151119310,1899,1423458808125737905,0.226,-0.025,0.254,1423495284500000000
1423458808364626246,1900,1423458808354568958,0.24,-0.019,0.251,1423495284700000047
1423458808628358504,1901,1423458808588284015,0.242,-0.024,0.253,1423495284900000095
1423458808842093799,1902,1423458808818053007,0.249,-0.028,0.252,1423495285200000047
1423458809105874212,1903,1423458809055763959,0.257,-0.033,0.252,1423495285400000095
1423458809319565658,1904,1423458809297475099,0.267,-0.03,0.251,1423495285599999904
1423458809583381781,1905,1423458809535239934,0.276,-0.03,0.251,1423495285900000095
1423458809797070839,1906,1423458809776006937,0.274,-0.03,0.248,1423495286099999904
1423458810060860216,1907,1423458810016793012,0.289,-0.029,0.25,1423495286400000095
1423458810274605935,1908,1423458810245587110,0.292,-0.031,0.249,1423495286599999904
1423458810488224377,1909,1423458810485356092,0.298,-0.031,0.249,1423495286799999952
1423458810751997522,1910,1423458810734075069,0.312,-0.034,0.25,1423495287099999904
1423458811015739839,1911,1423458810988760948,0.326,-0.03,0.248,1423495287299999952
1423458811229435248,1912,1423458811216545104,0.328,-0.031,0.249,1423495287599999904
1423458811493223852,1913,1423458811447321891,0.338,-0.03,0.249,1423495287799999952
1423458811706896005,1914,1423458811674984931,0.353,-0.036,0.248,1423495288000000000
1423458812070743149,1915,1423458812030651092,0.353,-0.032,0.248,1423495288400000095
1423458812384543447,1916,1423458812365315914,0.371,-0.033,0.248,1423495288700000047
1423458812648279477,1917,1423458812606981992,0.383,-0.033,0.25,1423495288900000095
1423458812861959250,1918,1423458812846756935,0.388,-0.036,0.247,1423495289200000047
1423458813125691700,1919,1423458813087562084,0.39,-0.036,0.247,1423495289400000095
1423458813339491874,1920,1423458813325350999,0.405,-0.038,0.249,1423495289700000047
1423458813603249471,1921,1423458813556066989,0.413,-0.034,0.248,1423495289900000095
1423458813816943917,1922,1423458813790777921,0.419,-0.036,0.247,1423495290099999904
1423458814030642188,1923,1423458814016624927,0.432,-0.036,0.249,1423495290400000095
1423458814294395070,1924,1423458814245311021,0.439,-0.038,0.248,1423495290599999904
1423458814508149203,1925,1423458814487042903,0.446,-0.037,0.247,1423495290799999952
1423458814771926995,1926,1423458814735820055,0.453,-0.039,0.248,1423495291099999904
1423458814985593889,1927,1423458814978574991,0.471,-0.039,0.248,1423495291299999952
1423458815249413959,1928,1423458815207346916,0.476,-0.039,0.249,1423495291500000000
1423458815463041650,1929,1423458815447033882,0.481,-0.037,0.248,1423495291799999952
1423458816177445896,1930,1423458816136379003,0.506,-0.043,0.251,1423495292500000000
1423458816391227102,1931,1423458816365205049,0.52,-0.039,0.249,1423495292700000047
1423458816604903469,1932,1423458816598877906,0.527,-0.039,0.251,1423495292900000095
1423458816868673479,1933,1423458816825683116,0.53,-0.039,0.249,1423495293200000047
1423458817082376677,1934,1423458817066334009,0.536,-0.042,0.249,1423495293400000095
1423458817346129287,1935,1423458817306127071,0.554,-0.042,0.249,1423495293599999904
1423458817559841169,1936,1423458817545874118,0.567,-0.039,0.249,1423495293900000095
1423458817823620591,1937,1423458817791631937,0.568,-0.039,0.248,1423495294099999904
1423458818037322354,1938,1423458818026417016,0.581,-0.038,0.249,1423495294400000095
1423458818301093532,1939,1423458818257122039,0.592,-0.042,0.248,1423495294599999904
1423458818514760456,1940,1423458818485948085,0.595,-0.039,0.249,1423495294799999952
1423458818778621814,1941,1423458818736701011,0.604,-0.041,0.249,1423495295099999904
1423458818992329320,1942,1423458818989459037,0.616,-0.039,0.249,1423495295299999952
1423458819256104579,1943,1423458819217272043,0.625,-0.037,0.249,1423495295599999904
1423458819469858726,1944,1423458819446018934,0.633,-0.039,0.249,1423495295799999952
1423458819683542467,1945,1423458819676783084,0.644,-0.04,0.248,1423495296000000000
1423458820097575971,1946,1423458820067311048,0.655,-0.039,0.25,1423495296400000095
1423458820311271458,1947,1423458820296050071,0.667,-0.036,0.248,1423495296599999904
1423458820575003308,1948,1423458820535864114,0.677,-0.036,0.25,1423495296900000095
1423458820788671388,1949,1423458820779589891,0.683,-0.036,0.249,1423495297099999904
1423458821052458029,1950,1423458821006385087,0.691,-0.037,0.248,1423495297299999952
1423458821266148185,1951,1423458821236208915,0.696,-0.037,0.25,1423495297599999904
1423458821479793191,1952,1423458821465941905,0.709,-0.036,0.25,1423495297799999952
1423458821743522658,1953,1423458821702590942,0.71,-0.035,0.248,1423495298000000000
1423458821957176217,1954,1423458821926343917,0.728,-0.034,0.251,1423495298299999952
1423458822170831824,1955,1423458822157170057,0.734,-0.037,0.249,1423495298500000000
1423458822434646275,1956,1423458822388966083,0.736,-0.034,0.248,1423495298700000047
1423458822648401274,1957,1423458822617691040,0.749,-0.036,0.25,1423495299000000000
1423458822862082879,1958,1423458822858412027,0.764,-0.033,0.249,1423495299200000047
1423458823125824097,1959,1423458823096137046,0.765,-0.033,0.249,1423495299400000095
1423458823339419614,1960,1423458823336883068,0.776,-0.031,0.249,1423495299700000047
1423458823603157476,1961,1423458823570662975,0.788,-0.034,0.248,1423495299900000095
1423458823816867969,1962,1423458823799320936,0.793,-0.033,0.25,1423495300099999904
1423458824030577194,1963,1423458824027071952,0.799,-0.033,0.251,1423495300400000095
1423458824294362097,1964,1423458824267893075,0.811,-0.03,0.249,1423495300599999904
1423458824508058276,1965,1423458824506649017,0.819,-0.029,0.251,1423495300799999952
1423458824771908223,1966,1423458824747350931,0.826,-0.029,0.248,1423495301099999904
1423458825035690940,1967,1423458824990106105,0.83,-0.03,0.248,1423495301299999952
1423458825249334816,1968,1423458825226841926,0.846,-0.029,0.25,1423495301599999904
1423458825462979035,1969,1423458825456579923,0.847,-0.029,0.25,1423495301799999952
1423458825726739294,1970,1423458825686393976,0.854,-0.027,0.249,1423495302000000000
1423458825940441686,1971,1423458825926224946,0.868,-0.026,0.25,1423495302299999952
1423458826204182183,1972,1423458826165882110,0.88,-0.028,0.249,1423495302500000000
1423458826417828361,1973,1423458826408593893,0.886,-0.025,0.249,1423495302799999952
1423458826681535857,1974,1423458826647335052,0.891,-0.026,0.25,1423495303000000000
1423458826895165162,1975,1423458826886110067,0.905,-0.022,0.249,1423495303200000047
1423458827158960857,1976,1423458827126763105,0.907,-0.022,0.249,1423495303500000000
1423458827372721810,1977,1423458827355494976,0.917,-0.02,0.249,1423495303700000047
1423458827636532830,1978,1423458827590229034,0.925,-0.021,0.248,1423495303900000095
1423458827850181980,1979,1423458827818017005,0.941,-0.022,0.254,1423495304200000047
1423458828514454942,1980,1423458828506350994,0.959,-0.017,0.252,1423495304799999952
1423458828778170219,1981,1423458828736056089,0.967,-0.015,0.249,1423495305099999904
1423458828991858993,1982,1423458828986782073,0.976,-0.016,0.249,1423495305299999952
1423458829255741666,1983,1423458829218485116,0.988,-0.015,0.25,1423495305599999904
1423458829469391497,1984,1423458829456269979,0.996,-0.011,0.249,1423495305799999952
1423458829733133528,1985,1423458829701009035,0.998,-0.011,0.248,1423495306000000000
1423458829946836123,1986,1423458829925800085,1.01,-0.009,0.25,1423495306299999952
1423458830160585255,1987,1423458830155570983,1.017,-0.011,0.248,1423495306500000000
1423458830424343003,1988,1423458830389347076,1.024,-0.009,0.248,1423495306700000047
1423458830638116454,1989,1423458830619151115,1.033,-0.009,0.25,1423495307000000000
1423458830851818499,1990,1423458830847824096,1.043,-0.004,0.248,1423495307200000047
1423458831115574191,1991,1423458831075683116,1.048,-0.003,0.249,1423495307400000095
1423458831329292969,1992,1423458831307333946,1.054,-0.002,0.249,1423495307599999904
1423458831542956217,1993,1423458831536185979,1.067,-0.004,0.248,1423495307900000095
1423458831806752531,1994,1423458831765832901,1.074,0.0,0.25,1423495308099999904
1423458832020514006,1995,1423458831999676942,1.082,-0.003,0.251,1423495308299999952
1423458832234216708,1996,1423458832226435899,1.094,0.002,0.249,1423495308599999904
1423458832498039516,1997,1423458832456269025,1.098,0.002,0.251,1423495308799999952
1423458832711783576,1998,1423458832707957983,1.105,0.004,0.249,1423495309000000000
1423458832925562258,1999,1423458832916779994,1.114,0.003,0.249,1423495309299999952
1423458833189206309,2000,1423458833146481037,1.128,0.005,0.253,1423495309500000000
1423458833402890885,2001,1423458833377296924,1.13,0.006,0.251,1423495309700000047
1423458833616651536,2002,1423458833608006954,1.137,0.008,0.249,1423495310000000000
1423458833880408773,2003,1423458833837786912,1.147,0.013,0.252,1423495310200000047
1423458834094056453,2004,1423458834076564073,1.155,0.01,0.249,1423495310400000095
1423458834357878426,2005,1423458834315300941,1.157,0.014,0.248,1423495310700000047
1423458834571603107,2006,1423458834557061910,1.173,0.013,0.251,1423495310900000095
1423458834835344746,2007,1423458834798824071,1.18,0.02,0.249,1423495311099999904
1423458835049039585,2008,1423458835026608943,1.184,0.018,0.25,1423495311400000095
1423458835312797460,2009,1423458835266356945,1.195,0.021,0.25,1423495311599999904
1423458835526533065,2010,1423458835496184110,1.202,0.02,0.249,1423495311799999952
1423458835740254865,2011,1423458835730832099,1.209,0.021,0.249,1423495312099999904
1423458836003978254,2012,1423458835978672027,1.217,0.022,0.251,1423495312299999952
1423458836217638221,2013,1423458836207406997,1.229,0.027,0.249,1423495312500000000
1423458836481303633,2014,1423458836436194896,1.234,0.027,0.252,1423495312799999952
1423458836694972462,2015,1423458836681904077,1.242,0.029,0.249,1423495313000000000
1423458836908836713,2016,1423458836896655082,1.249,0.029,0.249,1423495313200000047
1423458837172455632,2017,1423458837136485099,1.264,0.03,0.253,1423495313500000000
1423458837386182089,2018,1423458837367261886,1.265,0.033,0.251,1423495313700000047
1423458837649986518,2019,1423458837599992036,1.271,0.035,0.249,1423495313900000095
1423458837863660389,2020,1423458837826800107,1.284,0.04,0.253,1423495314200000047
1423458838077327957,2021,1423458838068525075,1.292,0.036,0.249,1423495314400000095
1423458838341019744,2022,1423458838296323060,1.294,0.04,0.249,1423495314599999904
1423458838554626438,2023,1423458838527148962,1.309,0.039,0.251,1423495314900000095
1423458838768311841,2024,1423458838757900953,1.315,0.044,0.25,1423495315099999904
1423458839032116614,2025,1423458838999641895,1.318,0.044,0.25,1423495315299999952
1423458839245777172,2026,1423458839236417055,1.33,0.048,0.25,1423495315599999904
1423458839509490075,2027,1423458839467178106,1.342,0.046,0.249,1423495315799999952
1423458839723231965,2028,1423458839701859951,1.341,0.05,0.249,1423495316000000000
1423458839936924087,2029,1423458839926687955,1.353,0.05,0.251,1423495316299999952
1423458840200711057,2030,1423458840168443918,1.363,0.05,0.252,1423495316500000000
1423458840865033272,2031,1423458840856730937,1.384,0.062,0.249,1423495317200000047
1423458841128809595,2032,1423458841096528053,1.4,0.064,0.253,1423495317400000095
1423458841342497631,2033,1423458841328231096,1.401,0.066,0.251,1423495317700000047
1423458841606252057,2034,1423458841557045936,1.407,0.067,0.25,1423495317900000095
1423458841820026448,2035,1423458841788798093,1.414,0.073,0.248,1423495318099999904
1423458842033777539,2036,1423458842018513917,1.424,0.073,0.25,1423495318400000095
1423458842247472122,2037,1423458842246288061,1.429,0.075,0.249,1423495318599999904
1423458842511245566,2038,1423458842477044105,1.448,0.075,0.251,1423495318799999952
1423458842724914021,2039,1423458842714806079,1.455,0.082,0.25,1423495319099999904
1423458842988719539,2040,1423458842946618080,1.457,0.081,0.249,1423495319299999952
1423458843202387084,2041,1423458843190311908,1.469,0.082,0.252,1423495319500000000
1423458843466061050,2042,1423458843420119047,1.484,0.086,0.249,1423495319799999952
1423458843679748640,2043,1423458843647897958,1.487,0.088,0.249,1423495320000000000
1423458843893432031,2044,1423458843886598110,1.497,0.088,0.251,1423495320200000047
1423458844157232184,2045,1423458844127332925,1.509,0.094,0.25,1423495320500000000
1423458844370896615,2046,1423458844357136964,1.514,0.095,0.251,1423495320700000047
1423458844784915992,2047,1423458844757700920,1.521,0.099,0.25,1423495321099999904
1423458844998643732,2048,1423458844989449024,1.533,0.098,0.251,1423495321299999952
1423458845262405756,2049,1423458845227207899,1.544,0.102,0.251,1423495321599999904
1423458845476079570,2050,1423458845468005895,1.557,0.106,0.251,1423495321799999952
1423458845739807509,2051,1423458845713673114,1.554,0.106,0.249,1423495322000000000
1423458845953495214,2052,1423458845936485052,1.569,0.111,0.25,1423495322299999952
1423458846217219814,2053,1423458846179209947,1.581,0.111,0.249,1423495322500000000
1423458846430918962,2054,1423458846418992042,1.594,0.114,0.253,1423495322799999952
1423458846694652745,2055,1423458846657708883,1.595,0.116,0.252,1423495323000000000
1423458846908274103,2056,1423458846897439002,1.603,0.122,0.248,1423495323200000047
1423458847172090295,2057,1423458847136230945,1.616,0.124,0.251,1423495323500000000
1423458847385739089,2058,1423458847378027915,1.628,0.122,0.25,1423495323700000047
1423458847649602270,2059,1423458847619658946,1.632,0.126,0.25,1423495324000000000
1423458847863309128,2060,1423458847857424020,1.641,0.13,0.25,1423495324200000047
1423458848127023293,2061,1423458848106152057,1.655,0.137,0.249,1423495324400000095
1423458848390671653,2062,1423458848345894098,1.658,0.138,0.249,1423495324700000047
1423458848604422644,2063,1423458848591589927,1.667,0.141,0.249,1423495324900000095
1423458848868141448,2064,1423458848838355064,1.679,0.142,0.248,1423495325200000047
1423458849081865206,2065,1423458849067075967,1.694,0.143,0.254,1423495325400000095
1423458849345604404,2066,1423458849306798934,1.692,0.148,0.25,1423495325599999904
1423458849559353836,2067,1423458849536525964,1.701,0.15,0.249,1423495325900000095
1423458849773024805,2068,1423458849767307043,1.712,0.155,0.252,1423495326099999904
1423458850036757060,2069,1423458850008023977,1.724,0.153,0.249,1423495326299999952
1423458850300538582,2070,1423458850250716924,1.723,0.158,0.248,1423495326599999904
1423458850514242993,2071,1423458850477507114,1.739,0.159,0.25,1423495326799999952
1423458850727952999,2072,1423458850716244935,1.747,0.163,0.25,1423495327099999904
1423458850991753449,2073,1423458850947021961,1.748,0.166,0.249,1423495327299999952
1423458851205338389,2074,1423458851198729991,1.76,0.17,0.25,1423495327500000000
1423458851419019317,2075,1423458851407474040,1.774,0.168,0.249,1423495327700000047
1423458851682746975,2076,1423458851648190021,1.777,0.173,0.249,1423495328000000000
1423458851896476237,2077,1423458851877043962,1.788,0.177,0.249,1423495328200000047
1423458852160280726,2078,1423458852116722106,1.801,0.183,0.248,1423495328500000000
1423458852373994737,2079,1423458852346463918,1.802,0.184,0.249,1423495328700000047
1423458853088477816,2080,1423458853065756082,1.836,0.192,0.252,1423495329400000095
1423458853352243406,2081,1423458853306505918,1.837,0.197,0.25,1423495329599999904
1423458853565933045,2082,1423458853546251058,1.844,0.203,0.248,1423495329900000095
1423458853779575150,2083,1423458853777935981,1.854,0.208,0.252,1423495330099999904
1423458854043307020,2084,1423458854008800029,1.864,0.205,0.248,1423495330400000095
1423458854256949349,2085,1423458854246557950,1.867,0.21,0.247,1423495330599999904
1423458854520668521,2086,1423458854486311912,1.881,0.213,0.249,1423495330799999952
1423458854784424835,2087,1423458854735986948,1.892,0.222,0.247,1423495331099999904
1423458854998178349,2088,1423458854990696907,1.896,0.223,0.249,1423495331299999952
1423458855261918469,2089,1423458855219432115,1.904,0.226,0.247,1423495331599999904
1423458855475702342,2090,1423458855451200962,1.916,0.227,0.247,1423495331799999952
1423458855689346934,2091,1423458855675945997,1.919,0.232,0.247,1423495332000000000
1423458855953145015,2092,1423458855906775951,1.926,0.232,0.249,1423495332200000047
1423458856166925728,2093,1423458856137484073,1.937,0.241,0.246,1423495332500000000
1423458856380660872,2094,1423458856378170013,1.942,0.241,0.249,1423495332700000047
1423458856644462787,2095,1423458856607981920,1.946,0.244,0.246,1423495332900000095
1423458856858149430,2096,1423458856836776971,1.959,0.248,0.246,1423495333200000047
1423458857071757312,2097,1423458857066585063,1.969,0.243,0.254,1423495333400000095
1423458857335431191,2098,1423458857307229042,1.977,0.258,0.247,1423495333599999904
1423458857549109472,2099,1423458857537002086,1.98,0.257,0.246,1423495333900000095
1423458857812873179,2100,1423458857765878915,1.992,0.263,0.248,1423495334099999904
1423458858026562075,2101,1423458857998568058,2.004,0.264,0.247,1423495334299999952
1423458858240270338,2102,1423458858237323045,2.006,0.266,0.247,1423495334599999904
1423458858503954622,2103,1423458858468034029,2.014,0.272,0.247,1423495334799999952
1423458858717698263,2104,1423458858713815927,2.027,0.28,0.246,1423495335099999904
1423458858981569215,2105,1423458858967478990,2.032,0.28,0.247,1423495335299999952
1423458859245251575,2106,1423458859200206041,2.04,0.284,0.247,1423495335500000000
1423458859458933307,2107,1423458859426951885,2.052,0.286,0.246,1423495335799999952
1423458859672600983,2108,1423458859667727947,2.064,0.288,0.252,1423495336000000000
1423458859936351779,2109,1423458859907515048,2.065,0.294,0.248,1423495336200000047
1423458860150011583,2110,1423458860137203931,2.072,0.296,0.247,1423495336500000000
1423458860413860409,2111,1423458860366978883,2.081,0.303,0.249,1423495336700000047
1423458860627568584,2112,1423458860620707988,2.092,0.302,0.247,1423495337000000000
1423458860891387017,2113,1423458860851481914,2.092,0.306,0.246,1423495337200000047
1423458861105041500,2114,1423458861077280044,2.107,0.308,0.248,1423495337400000095
1423458861318827364,2115,1423458861317022085,2.116,0.318,0.247,1423495337700000047
1423458861582592310,2116,1423458861546761035,2.119,0.319,0.246,1423495337900000095
1423458861796316246,2117,1423458861778562068,2.127,0.323,0.248,1423495338099999904
1423458862010023075,2118,1423458862007332086,2.138,0.322,0.248,1423495338299999952
1423458862273722953,2119,1423458862238060951,2.14,0.325,0.248,1423495338599999904
1423458862487422119,2120,1423458862467885017,2.153,0.33,0.248,1423495338799999952
1423458862751213202,2121,1423458862714560031,2.162,0.342,0.246,1423495339099999904
1423458862964881689,2122,1423458862957324981,2.167,0.341,0.248,1423495339299999952
1423458863228699894,2123,1423458863190001964,2.175,0.344,0.247,1423495339500000000
1423458863442410927,2124,1423458863426877975,2.183,0.349,0.246,1423495339799999952
1423458863706149520,2125,1423458863667577028,2.197,0.349,0.252,1423495340000000000
1423458863919823852,2126,1423458863907268047,2.198,0.357,0.249,1423495340200000047
1423458864183582664,2127,1423458864147027969,2.205,0.36,0.247,1423495340500000000
1423458864397298519,2128,1423458864378817081,2.211,0.366,0.247,1423495340700000047
1423458864661026873,2129,1423458864612636089,2.223,0.365,0.247,1423495341000000000
1423458864874671872,2130,1423458864837408065,2.227,0.37,0.247,1423495341200000047
1423458865589105333,2131,1423458865546633005,2.25,0.385,0.246,1423495341900000095
1423458865802833836,2132,1423458865778321981,2.258,0.39,0.247,1423495342099999904
1423458866066593496,2133,1423458866019045114,2.272,0.392,0.246,1423495342400000095
1423458866280305462,2134,1423458866257795095,2.275,0.397,0.246,1423495342599999904
1423458866544030694,2135,1423458866497565031,2.284,0.399,0.248,1423495342799999952
1423458866757728610,2136,1423458866749257087,2.294,0.408,0.246,1423495343099999904
1423458867021510617,2137,1423458866979054927,2.3,0.409,0.251,1423495343299999952
1423458867235222295,2138,1423458867217827081,2.31,0.408,0.248,1423495343599999904
1423458867499040275,2139,1423458867457537889,2.312,0.418,0.245,1423495343799999952
1423458867712694958,2140,1423458867702263116,2.322,0.412,0.25,1423495344000000000
1423458867976460922,2141,1423458867938019990,2.331,0.427,0.248,1423495344299999952
1423458868190211050,2142,1423458868166865110,2.334,0.426,0.247,1423495344500000000
1423458868403915614,2143,1423458868401565074,2.344,0.433,0.248,1423495344700000047
1423458868667743282,2144,1423458868627356052,2.357,0.434,0.247,1423495345000000000
1423458868881626221,2145,1423458868877085924,2.356,0.438,0.246,1423495345200000047
1423458869145286310,2146,1423458869106829881,2.368,0.443,0.248,1423495345400000095
1423458869559225820,2147,1423458869517345905,2.378,0.45,0.247,1423495345900000095
1423458869772922926,2148,1423458869747239112,2.387,0.457,0.248,1423495346099999904
1423458870036804392,2149,1423458869989978075,2.4,0.458,0.247,1423495346299999952
1423458870250516059,2150,1423458870226845979,2.402,0.464,0.247,1423495346599999904
1423458870514175687,2151,1423458870467461109,2.411,0.468,0.247,1423495346799999952
1423458870727784075,2152,1423458870717184066,2.42,0.478,0.246,1423495347099999904
1423458870991495680,2153,1423458870946963071,2.425,0.48,0.252,1423495347299999952
1423458871205191932,2154,1423458871199773073,2.435,0.48,0.248,1423495347500000000
1423458871468939897,2155,1423458871447504997,2.439,0.489,0.246,1423495347799999952
1423458871682647948,2156,1423458871669224977,2.451,0.49,0.25,1423495348000000000
1423458871946412212,2157,1423458871907031059,2.454,0.495,0.25,1423495348200000047
1423458872160104054,2158,1423458872148808002,2.462,0.502,0.247,1423495348500000000
1423458872423747059,2159,1423458872380510091,2.471,0.509,0.247,1423495348700000047
1423458872637424814,2160,1423458872619285106,2.483,0.512,0.247,1423495349000000000
1423458872901173028,2161,1423458872858984947,2.487,0.517,0.247,1423495349200000047
1423458873114889262,2162,1423458873097771883,2.494,0.519,0.248,1423495349400000095
1423458873328558661,2163,1423458873327495098,2.503,0.529,0.246,1423495349700000047
1423458873592385667,2164,1423458873557291984,2.507,0.531,0.248,1423495349900000095
1423458873806038951,2165,1423458873790040969,2.514,0.535,0.247,1423495350099999904
1423458874019789772,2166,1423458874018843889,2.523,0.539,0.246,1423495350400000095
1423458874283468383,2167,1423458874248653888,2.532,0.544,0.247,1423495350599999904
1423458874497157219,2168,1423458874478322029,2.536,0.547,0.248,1423495350799999952
1423458874760860204,2169,1423458874714199066,2.542,0.552,0.247,1423495351099999904
1423458874974462641,2170,1423458874947803020,2.55,0.557,0.248,1423495351299999952
1423458875188076016,2171,1423458875178667068,2.558,0.558,0.248,1423495351500000000
1423458875451853422,2172,1423458875410392045,2.561,0.563,0.247,1423495351799999952
1423458875665558788,2173,1423458875637135028,2.574,0.569,0.246,1423495352000000000
1423458875879239273,2174,1423458875876941919,2.579,0.576,0.248,1423495352200000047
1423458876142963470,2175,1423458876126673936,2.583,0.576,0.248,1423495352500000000
1423458876406723722,2176,1423458876357376098,2.592,0.585,0.249,1423495352700000047
1423458876620457100,2177,1423458876596112012,2.605,0.587,0.247,1423495352900000095
1423458876834174321,2178,1423458876817867994,2.606,0.592,0.247,1423495353200000047
1423458877097979770,2179,1423458877047570943,2.616,0.596,0.248,1423495353400000095
1423458878012603737,2180,1423458877978554964,2.645,0.617,0.248,1423495354299999952
1423458878226212990,2181,1423458878208302974,2.647,0.621,0.248,1423495354500000000
1423458878489901871,2182,1423458878448041915,2.656,0.625,0.249,1423495354799999952
1423458878703602637,2183,1423458878700779914,2.665,0.635,0.248,1423495355000000000
1423458878967326481,2184,1423458878938540935,2.671,0.642,0.249,1423495355299999952
1423458879180940542,2185,1423458879166361093,2.68,0.645,0.248,1423495355500000000
1423458879444663958,2186,1423458879399084091,2.683,0.646,0.247,1423495355700000047
1423458879658277634,2187,1423458879628788948,2.694,0.651,0.252,1423495356000000000
1423458879871877372,2188,1423458879869571924,2.698,0.657,0.25,1423495356200000047
1423458880135564822,2189,1423458880108217000,2.704,0.663,0.248,1423495356400000095
1423458880349217663,2190,1423458880338033914,2.714,0.672,0.249,1423495356700000047
1423458880612948066,2191,1423458880565788984,2.726,0.675,0.248,1423495356900000095
1423458880826562984,2192,1423458880808509111,2.729,0.68,0.248,1423495357099999904
1423458881040304399,2193,1423458881037234067,2.735,0.683,0.249,1423495357400000095
1423458881304041224,2194,1423458881283973932,2.745,0.695,0.248,1423495357599999904
1423458881517679344,2195,1423458881506798028,2.744,0.689,0.25,1423495357799999952
1423458881781426858,2196,1423458881748476028,2.752,0.7,0.249,1423495358099999904
1423458881995090875,2197,1423458881987281084,2.764,0.704,0.248,1423495358299999952
1423458882258762586,2198,1423458882218060970,2.766,0.708,0.248,1423495358599999904
1423458882472382807,2199,1423458882446863889,2.773,0.714,0.248,1423495358799999952
1423458882736100708,2200,1423458882700542926,2.784,0.723,0.247,1423495359000000000
1423458882949807328,2201,1423458882907351970,2.787,0.726,0.253,1423495359200000047
1423458883163475455,2202,1423458883138071060,2.798,0.729,0.25,1423495359500000000
1423458883427263004,2203,1423458883378798007,2.803,0.737,0.247,1423495359700000047
1423458883641066564,2204,1423458883607554912,2.811,0.743,0.249,1423495359900000095
1423458883854709341,2205,1423458883839318037,2.815,0.747,0.25,1423495360200000047
1423458884118572308,2206,1423458884068095922,2.819,0.75,0.248,1423495360400000095
1423458884332238837,2207,1423458884307826995,2.827,0.76,0.251,1423495360599999904
1423458884545919801,2208,1423458884537617921,2.838,0.764,0.25,1423495360900000095
1423458884809559870,2209,1423458884779330968,2.842,0.768,0.25,1423495361099999904
1423458885073242315,2210,1423458885028100013,2.851,0.773,0.25,1423495361400000095
1423458885286940728,2211,1423458885277811050,2.859,0.783,0.249,1423495361599999904
1423458885550521642,2212,1423458885507678031,2.862,0.786,0.251,1423495361799999952
1423458885764182953,2213,1423458885736330986,2.869,0.791,0.25,1423495362099999904
1423458886027868300,2214,1423458885980072975,2.879,0.798,0.249,1423495362299999952
1423458886241593801,2215,1423458886217741966,2.886,0.802,0.252,1423495362599999904
1423458886455252860,2216,1423458886447683095,2.888,0.807,0.251,1423495362799999952
1423458886718957740,2217,1423458886702272891,2.894,0.811,0.249,1423495363000000000
1423458886932609848,2218,1423458886908072948,2.902,0.82,0.252,1423495363200000047
1423458887146230961,2219,1423458887137797117,2.912,0.822,0.25,1423495363500000000
1423458887409973109,2220,1423458887379631042,2.913,0.825,0.249,1423495363700000047
1423458887623618731,2221,1423458887609251022,2.923,0.832,0.249,1423495363900000095
1423458887887319421,2222,1423458887849136114,2.924,0.838,0.251,1423495364200000047
1423458888100930623,2223,1423458888079797029,2.93,0.841,0.249,1423495364400000095
1423458888464809607,2224,1423458888431488037,2.939,0.851,0.251,1423495364799999952
1423458888828808631,2225,1423458888803034067,2.95,0.856,0.25,1423495365099999904
1423458889042585419,2226,1423458889027780055,2.96,0.864,0.251,1423495365400000095
1423458889306333336,2227,1423458889257587909,2.966,0.874,0.249,1423495365599999904
1423458889520017718,2228,1423458889488313913,2.971,0.876,0.252,1423495365799999952
1423458890234347412,2229,1423458890217618942,2.995,0.894,0.252,1423495366599999904
1423458890498049892,2230,1423458890448271036,3.001,0.902,0.251,1423495366799999952
1423458890711664285,2231,1423458890700151920,3.005,0.905,0.25,1423495367000000000
1423458890925366410,2232,1423458890907855033,3.012,0.914,0.251,1423495367200000047
1423458891189032113,2233,1423458891147672891,3.022,0.917,0.251,1423495367500000000
1423458891402750492,2234,1423458891379414081,3.02,0.918,0.248,1423495367700000047
1423458891616365294,2235,1423458891609169960,3.021,0.928,0.249,1423495367900000095
