%time,field.header.seq,field.header.stamp,field.pose.position.x,field.pose.position.y,field.pose.position.z,field.pose.orientation.x,field.pose.orientation.y,field.pose.orientation.z,field.pose.orientation.w
1423458803715431992,437,1423458803711302995,0.218,-0.024,0.255,0.0,0.0,0.0,1.0
1423458803979131249,438,1423458803935076951,0.218,-0.024,0.255,0.0,0.0,0.0,1.0
1423458804192804461,439,1423458804165772914,0.218,-0.024,0.255,0.0,0.0,0.0,1.0
1423458804406409645,440,1423458804397604942,0.218,-0.024,0.255,0.0,0.0,0.0,1.0
1423458804670142525,441,1423458804635329008,0.218,-0.024,0.255,0.0,0.0,0.0,1.0
1423458804883799550,442,1423458804867183923,0.218,-0.024,0.255,0.0,0.0,0.0,1.0
1423458805147509113,443,1423458805097877979,0.218,-0.024,0.255,0.0,0.0,0.0,1.0
1423458805361205841,444,1423458805335669040,0.218,-0.024,0.255,0.0,0.0,0.0,1.0
1423458805574808109,445,1423458805565463066,0.218,-0.024,0.255,0.0,0.0,0.0,1.0
1423458805838571261,446,1423458805798218011,0.218,-0.024,0.255,0.0,0.0,0.0,1.0
1423458806052176372,447,1423458806025023937,0.218,-0.024,0.255,0.0,0.0,0.0,1.0
1423458806265817010,448,1423458806255770921,0.218,-0.024,0.255,0.0,0.0,0.0,1.0
1423458806529518129,449,1423458806485507965,0.218,-0.024,0.255,0.0,0.0,0.0,1.0
1423458806743174979,450,1423458806734286069,0.218,-0.024,0.255,0.0,0.0,0.0,1.0
1423458807006879933,451,1423458806978050947,0.218,-0.024,0.255,0.0,0.0,0.0,1.0
1423458807220558732,452,1423458807208755970,0.218,-0.024,0.255,0.0,0.0,0.0,1.0
1423458807484278200,453,1423458807435539960,0.218,-0.024,0.255,0.0,0.0,0.0,1.0
1423458807697921820,454,1423458807673293113,0.218,-0.024,0.255,0.0,0.0,0.0,1.0
1423458807911587636,455,1423458807895046949,0.221,-0.023,0.255,0.0,0.0,0.0,1.0
1423458808175305685,456,1423458808125737905,0.226,-0.025,0.254,0.0,0.0,0.0,1.0
1423458808388919523,457,1423458808354568958,0.24,-0.019,0.251,0.0,0.0,0.0,1.0
1423458808602571633,458,1423458808588284015,0.242,-0.024,0.253,0.0,0.0,0.0,1.0
1423458808866288369,459,1423458808818053007,0.249,-0.028,0.252,0.0,0.0,0.0,1.0
1423458809080007322,460,1423458809055763959,0.257,-0.033,0.252,0.0,0.0,0.0,1.0
1423458809343766920,461,1423458809297475099,0.267,-0.03,0.251,0.0,0.0,0.0,1.0
1423458809557424914,462,1423458809535239934,0.276,-0.03,0.251,0.0,0.0,0.0,1.0
1423458809821151746,463,1423458809776006937,0.274,-0.03,0.248,0.0,0.0,0.0,1.0
1423458810034776068,464,1423458810016793012,0.289,-0.029,0.25,0.0,0.0,0.0,1.0
1423458810248449701,465,1423458810245587110,0.292,-0.031,0.249,0.0,0.0,0.0,1.0
1423458810512263791,466,1423458810485356092,0.298,-0.031,0.249,0.0,0.0,0.0,1.0
1423458810775974964,467,1423458810734075069,0.312,-0.034,0.25,0.0,0.0,0.0,1.0
1423458810989632419,468,1423458810988760948,0.326,-0.03,0.248,0.0,0.0,0.0,1.0
1423458811253326763,469,1423458811216545104,0.328,-0.031,0.249,0.0,0.0,0.0,1.0
1423458811466963988,470,1423458811447321891,0.338,-0.03,0.249,0.0,0.0,0.0,1.0
1423458811680606588,471,1423458811674984931,0.353,-0.036,0.248,0.0,0.0,0.0,1.0
1423458812044479564,472,1423458812030651092,0.353,-0.032,0.248,0.0,0.0,0.0,1.0
1423458812408346377,473,1423458812365315914,0.371,-0.033,0.248,0.0,0.0,0.0,1.0
1423458812621972263,474,1423458812606981992,0.383,-0.033,0.25,0.0,0.0,0.0,1.0
1423458812885724208,475,1423458812846756935,0.388,-0.036,0.247,0.0,0.0,0.0,1.0
1423458813099382777,476,1423458813087562084,0.39,-0.036,0.247,0.0,0.0,0.0,1.0
1423458813363151829,477,1423458813325350999,0.405,-0.038,0.249,0.0,0.0,0.0,1.0
1423458813576775290,478,1423458813556066989,0.413,-0.034,0.248,0.0,0.0,0.0,1.0
1423458813840532490,479,1423458813790777921,0.419,-0.036,0.247,0.0,0.0,0.0,1.0
1423458814054160116,480,1423458814016624927,0.432,-0.036,0.249,0.0,0.0,0.0,1.0
1423458814267866646,481,1423458814245311021,0.439,-0.038,0.248,0.0,0.0,0.0,1.0
1423458814531571934,482,1423458814487042903,0.446,-0.037,0.247,0.0,0.0,0.0,1.0
1423458814745165840,483,1423458814735820055,0.453,-0.039,0.248,0.0,0.0,0.0,1.0
1423458815008924733,484,1423458814978574991,0.471,-0.039,0.248,0.0,0.0,0.0,1.0
1423458815222527198,485,1423458815207346916,0.476,-0.039,0.249,0.0,0.0,0.0,1.0
1423458815486253896,486,1423458815447033882,0.481,-0.037,0.248,0.0,0.0,0.0,1.0
1423458816150528703,487,1423458816136379003,0.506,-0.043,0.251,0.0,0.0,0.0,1.0
1423458816414211791,488,1423458816365205049,0.52,-0.039,0.249,0.0,0.0,0.0,1.0
1423458816627871447,489,1423458816598877906,0.527,-0.039,0.251,0.0,0.0,0.0,1.0
1423458816841538838,490,1423458816825683116,0.53,-0.039,0.249,0.0,0.0,0.0,1.0
1423458817105233168,491,1423458817066334009,0.536,-0.042,0.249,0.0,0.0,0.0,1.0
1423458817318820703,492,1423458817306127071,0.554,-0.042,0.249,0.0,0.0,0.0,1.0
1423458817582579355,493,1423458817545874118,0.567,-0.039,0.249,0.0,0.0,0.0,1.0
1423458817796215841,494,1423458817791631937,0.568,-0.039,0.248,0.0,0.0,0.0,1.0
1423458818059888837,495,1423458818026417016,0.581,-0.038,0.249,0.0,0.0,0.0,1.0
1423458818273495945,496,1423458818257122039,0.592,-0.042,0.248,0.0,0.0,0.0,1.0
1423458818487144453,497,1423458818485948085,0.595,-0.039,0.249,0.0,0.0,0.0,1.0
1423458818750822846,498,1423458818736701011,0.604,-0.041,0.249,0.0,0.0,0.0,1.0
1423458819014554497,499,1423458818989459037,0.616,-0.039,0.249,0.0,0.0,0.0,1.0
1423458819228199574,500,1423458819217272043,0.625,-0.037,0.249,0.0,0.0,0.0,1.0
1423458819491895822,501,1423458819446018934,0.633,-0.039,0.249,0.0,0.0,0.0,1.0
1423458819705600668,502,1423458819676783084,0.644,-0.04,0.248,0.0,0.0,0.0,1.0
1423458820069458644,503,1423458820067311048,0.655,-0.039,0.25,0.0,0.0,0.0,1.0
1423458820333187734,504,1423458820296050071,0.667,-0.036,0.248,0.0,0.0,0.0,1.0
1423458820546850281,505,1423458820535864114,0.677,-0.036,0.25,0.0,0.0,0.0,1.0
1423458820810533419,506,1423458820779589891,0.683,-0.036,0.249,0.0,0.0,0.0,1.0
1423458821024228350,507,1423458821006385087,0.691,-0.037,0.248,0.0,0.0,0.0,1.0
1423458821238029479,508,1423458821236208915,0.696,-0.037,0.25,0.0,0.0,0.0,1.0
1423458821501738328,509,1423458821465941905,0.709,-0.036,0.25,0.0,0.0,0.0,1.0
1423458821715405003,510,1423458821702590942,0.71,-0.035,0.248,0.0,0.0,0.0,1.0
1423458821929061537,511,1423458821926343917,0.728,-0.034,0.251,0.0,0.0,0.0,1.0
1423458822192749428,512,1423458822157170057,0.734,-0.037,0.249,0.0,0.0,0.0,1.0
1423458822406418138,513,1423458822388966083,0.736,-0.034,0.248,0.0,0.0,0.0,1.0
1423458822620067818,514,1423458822617691040,0.749,-0.036,0.25,0.0,0.0,0.0,1.0
1423458822883880645,515,1423458822858412027,0.764,-0.033,0.249,0.0,0.0,0.0,1.0
1423458823097550882,516,1423458823096137046,0.765,-0.033,0.249,0.0,0.0,0.0,1.0
1423458823361253011,517,1423458823336883068,0.776,-0.031,0.249,0.0,0.0,0.0,1.0
1423458823574962054,518,1423458823570662975,0.788,-0.034,0.248,0.0,0.0,0.0,1.0
1423458823838660158,519,1423458823799320936,0.793,-0.033,0.25,0.0,0.0,0.0,1.0
1423458824052302444,520,1423458824027071952,0.799,-0.033,0.251,0.0,0.0,0.0,1.0
1423458824316055853,521,1423458824267893075,0.811,-0.03,0.249,0.0,0.0,0.0,1.0
1423458824529694581,522,1423458824506649017,0.819,-0.029,0.251,0.0,0.0,0.0,1.0
1423458824793410796,523,1423458824747350931,0.826,-0.029,0.248,0.0,0.0,0.0,1.0
1423458825006980549,524,1423458824990106105,0.83,-0.03,0.248,0.0,0.0,0.0,1.0
1423458825270716528,525,1423458825226841926,0.846,-0.029,0.25,0.0,0.0,0.0,1.0
1423458825484344656,526,1423458825456579923,0.847,-0.029,0.25,0.0,0.0,0.0,1.0
1423458825697935119,527,1423458825686393976,0.854,-0.027,0.249,0.0,0.0,0.0,1.0
1423458825961614861,528,1423458825926224946,0.868,-0.026,0.25,0.0,0.0,0.0,1.0
1423458826175271033,529,1423458826165882110,0.88,-0.028,0.249,0.0,0.0,0.0,1.0
1423458826438988893,530,1423458826408593893,0.886,-0.025,0.249,0.0,0.0,0.0,1.0
1423458826652676155,531,1423458826647335052,0.891,-0.026,0.25,0.0,0.0,0.0,1.0
1423458826916309564,532,1423458826886110067,0.905,-0.022,0.249,0.0,0.0,0.0,1.0
1423458827129960382,533,1423458827126763105,0.907,-0.022,0.249,0.0,0.0,0.0,1.0
1423458827393682165,534,1423458827355494976,0.917,-0.02,0.249,0.0,0.0,0.0,1.0
1423458827607379541,535,1423458827590229034,0.925,-0.021,0.248,0.0,0.0,0.0,1.0
1423458827820959408,536,1423458827818017005,0.941,-0.022,0.254,0.0,0.0,0.0,1.0
1423458828535310334,537,1423458828506350994,0.959,-0.017,0.252,0.0,0.0,0.0,1.0
1423458828748981681,538,1423458828736056089,0.967,-0.015,0.249,0.0,0.0,0.0,1.0
1423458829012717039,539,1423458828986782073,0.976,-0.016,0.249,0.0,0.0,0.0,1.0
1423458829226324034,540,1423458829218485116,0.988,-0.015,0.25,0.0,0.0,0.0,1.0
1423458829489996686,541,1423458829456269979,0.996,-0.011,0.249,0.0,0.0,0.0,1.0
1423458829703626185,542,1423458829701009035,0.998,-0.011,0.248,0.0,0.0,0.0,1.0
1423458829967391576,543,1423458829925800085,1.01,-0.009,0.25,0.0,0.0,0.0,1.0
1423458830180993670,544,1423458830155570983,1.017,-0.011,0.248,0.0,0.0,0.0,1.0
1423458830394669160,545,1423458830389347076,1.024,-0.009,0.248,0.0,0.0,0.0,1.0
1423458830658384548,546,1423458830619151115,1.033,-0.009,0.25,0.0,0.0,0.0,1.0
1423458830872026170,547,1423458830847824096,1.043,-0.004,0.248,0.0,0.0,0.0,1.0
1423458831085713493,548,1423458831075683116,1.048,-0.003,0.249,0.0,0.0,0.0,1.0
1423458831349441697,549,1423458831307333946,1.054,-0.002,0.249,0.0,0.0,0.0,1.0
1423458831563089435,550,1423458831536185979,1.067,-0.004,0.248,0.0,0.0,0.0,1.0
1423458831776728912,551,1423458831765832901,1.074,0.0,0.25,0.0,0.0,0.0,1.0
1423458832040480388,552,1423458831999676942,1.082,-0.003,0.251,0.0,0.0,0.0,1.0
1423458832254140899,553,1423458832226435899,1.094,0.002,0.249,0.0,0.0,0.0,1.0
1423458832467848228,554,1423458832456269025,1.098,0.002,0.251,0.0,0.0,0.0,1.0
1423458832731583582,555,1423458832707957983,1.105,0.004,0.249,0.0,0.0,0.0,1.0
1423458832945320228,556,1423458832916779994,1.114,0.003,0.249,0.0,0.0,0.0,1.0
1423458833159004726,557,1423458833146481037,1.128,0.005,0.253,0.0,0.0,0.0,1.0
1423458833422746950,558,1423458833377296924,1.13,0.006,0.251,0.0,0.0,0.0,1.0
1423458833636400506,559,1423458833608006954,1.137,0.008,0.249,0.0,0.0,0.0,1.0
1423458833849998430,560,1423458833837786912,1.147,0.013,0.252,0.0,0.0,0.0,1.0
1423458834113724544,561,1423458834076564073,1.155,0.01,0.249,0.0,0.0,0.0,1.0
1423458834327322325,562,1423458834315300941,1.157,0.014,0.248,0.0,0.0,0.0,1.0
1423458834591019164,563,1423458834557061910,1.173,0.013,0.251,0.0,0.0,0.0,1.0
1423458834804615988,564,1423458834798824071,1.18,0.02,0.249,0.0,0.0,0.0,1.0
1423458835068321419,565,1423458835026608943,1.184,0.018,0.25,0.0,0.0,0.0,1.0
1423458835282011781,566,1423458835266356945,1.195,0.021,0.25,0.0,0.0,0.0,1.0
1423458835545688129,567,1423458835496184110,1.202,0.02,0.249,0.0,0.0,0.0,1.0
1423458835759281569,568,1423458835730832099,1.209,0.021,0.249,0.0,0.0,0.0,1.0
1423458836023002908,569,1423458835978672027,1.217,0.022,0.251,0.0,0.0,0.0,1.0
1423458836236629567,570,1423458836207406997,1.229,0.027,0.249,0.0,0.0,0.0,1.0
1423458836450278632,571,1423458836436194896,1.234,0.027,0.252,0.0,0.0,0.0,1.0
1423458836714025693,572,1423458836681904077,1.242,0.029,0.249,0.0,0.0,0.0,1.0
1423458836927644622,573,1423458836896655082,1.249,0.029,0.249,0.0,0.0,0.0,1.0
1423458837141342282,574,1423458837136485099,1.264,0.03,0.253,0.0,0.0,0.0,1.0
1423458837405077272,575,1423458837367261886,1.265,0.033,0.251,0.0,0.0,0.0,1.0
1423458837618720219,576,1423458837599992036,1.271,0.035,0.249,0.0,0.0,0.0,1.0
1423458837832348876,577,1423458837826800107,1.284,0.04,0.253,0.0,0.0,0.0,1.0
1423458838096052455,578,1423458838068525075,1.292,0.036,0.249,0.0,0.0,0.0,1.0
1423458838309686345,579,1423458838296323060,1.294,0.04,0.249,0.0,0.0,0.0,1.0
1423458838573434551,580,1423458838527148962,1.309,0.039,0.251,0.0,0.0,0.0,1.0
1423458838787074688,581,1423458838757900953,1.315,0.044,0.25,0.0,0.0,0.0,1.0
1423458839000722334,582,1423458838999641895,1.318,0.044,0.25,0.0,0.0,0.0,1.0
1423458839264374363,583,1423458839236417055,1.33,0.048,0.25,0.0,0.0,0.0,1.0
1423458839478069887,584,1423458839467178106,1.342,0.046,0.249,0.0,0.0,0.0,1.0
1423458839741776020,585,1423458839701859951,1.341,0.05,0.249,0.0,0.0,0.0,1.0
1423458839955351454,586,1423458839926687955,1.353,0.05,0.251,0.0,0.0,0.0,1.0
1423458840169043865,587,1423458840168443918,1.363,0.05,0.252,0.0,0.0,0.0,1.0
1423458840883298357,588,1423458840856730937,1.384,0.062,0.249,0.0,0.0,0.0,1.0
1423458841096957233,589,1423458841096528053,1.4,0.064,0.253,0.0,0.0,0.0,1.0
1423458841360661045,590,1423458841328231096,1.401,0.066,0.251,0.0,0.0,0.0,1.0
1423458841574327263,591,1423458841557045936,1.407,0.067,0.25,0.0,0.0,0.0,1.0
1423458841838017516,592,1423458841788798093,1.414,0.073,0.248,0.0,0.0,0.0,1.0
1423458842051599787,593,1423458842018513917,1.424,0.073,0.25,0.0,0.0,0.0,1.0
1423458842265283075,594,1423458842246288061,1.429,0.075,0.249,0.0,0.0,0.0,1.0
1423458842478969727,595,1423458842477044105,1.448,0.075,0.251,0.0,0.0,0.0,1.0
1423458842742716748,596,1423458842714806079,1.455,0.082,0.25,0.0,0.0,0.0,1.0
1423458842956319637,597,1423458842946618080,1.457,0.081,0.249,0.0,0.0,0.0,1.0
1423458843220017877,598,1423458843190311908,1.469,0.082,0.252,0.0,0.0,0.0,1.0
1423458843433682896,599,1423458843420119047,1.484,0.086,0.249,0.0,0.0,0.0,1.0
1423458843697434272,600,1423458843647897958,1.487,0.088,0.249,0.0,0.0,0.0,1.0
1423458843911093914,601,1423458843886598110,1.497,0.088,0.251,0.0,0.0,0.0,1.0
1423458844174796795,602,1423458844127332925,1.509,0.094,0.25,0.0,0.0,0.0,1.0
1423458844388488792,603,1423458844357136964,1.514,0.095,0.251,0.0,0.0,0.0,1.0
1423458844802393449,604,1423458844757700920,1.521,0.099,0.25,0.0,0.0,0.0,1.0
1423458845016035632,605,1423458844989449024,1.533,0.098,0.251,0.0,0.0,0.0,1.0
1423458845229746823,606,1423458845227207899,1.544,0.102,0.251,0.0,0.0,0.0,1.0
1423458845493479888,607,1423458845468005895,1.557,0.106,0.251,0.0,0.0,0.0,1.0
1423458845757167213,608,1423458845713673114,1.554,0.106,0.249,0.0,0.0,0.0,1.0
1423458845970839989,609,1423458845936485052,1.569,0.111,0.25,0.0,0.0,0.0,1.0
1423458846184496848,610,1423458846179209947,1.581,0.111,0.249,0.0,0.0,0.0,1.0
1423458846448232796,611,1423458846418992042,1.594,0.114,0.253,0.0,0.0,0.0,1.0
1423458846661861853,612,1423458846657708883,1.595,0.116,0.252,0.0,0.0,0.0,1.0
1423458846925591229,613,1423458846897439002,1.603,0.122,0.248,0.0,0.0,0.0,1.0
1423458847139276188,614,1423458847136230945,1.616,0.124,0.251,0.0,0.0,0.0,1.0
1423458847403011644,615,1423458847378027915,1.628,0.122,0.25,0.0,0.0,0.0,1.0
1423458847666742691,616,1423458847619658946,1.632,0.126,0.25,0.0,0.0,0.0,1.0
1423458847880394991,617,1423458847857424020,1.641,0.13,0.25,0.0,0.0,0.0,1.0
1423458848144138858,618,1423458848106152057,1.655,0.137,0.249,0.0,0.0,0.0,1.0
1423458848357813218,619,1423458848345894098,1.658,0.138,0.249,0.0,0.0,0.0,1.0
1423458848621489285,620,1423458848591589927,1.667,0.141,0.249,0.0,0.0,0.0,1.0
1423458848885238889,621,1423458848838355064,1.679,0.142,0.248,0.0,0.0,0.0,1.0
1423458849098883695,622,1423458849067075967,1.694,0.143,0.254,0.0,0.0,0.0,1.0
1423458849312528226,623,1423458849306798934,1.692,0.148,0.25,0.0,0.0,0.0,1.0
1423458849576250813,624,1423458849536525964,1.701,0.15,0.249,0.0,0.0,0.0,1.0
1423458849789850669,625,1423458849767307043,1.712,0.155,0.252,0.0,0.0,0.0,1.0
1423458850053605708,626,1423458850008023977,1.724,0.153,0.249,0.0,0.0,0.0,1.0
1423458850267248420,627,1423458850250716924,1.723,0.158,0.248,0.0,0.0,0.0,1.0
1423458850480886693,628,1423458850477507114,1.739,0.159,0.25,0.0,0.0,0.0,1.0
1423458850744652059,629,1423458850716244935,1.747,0.163,0.25,0.0,0.0,0.0,1.0
1423458850958267686,630,1423458850947021961,1.748,0.166,0.249,0.0,0.0,0.0,1.0
1423458851221921697,631,1423458851198729991,1.76,0.17,0.25,0.0,0.0,0.0,1.0
1423458851435602293,632,1423458851407474040,1.774,0.168,0.249,0.0,0.0,0.0,1.0
1423458851649239115,633,1423458851648190021,1.777,0.173,0.249,0.0,0.0,0.0,1.0
1423458851912950854,634,1423458851877043962,1.788,0.177,0.249,0.0,0.0,0.0,1.0
1423458852126578130,635,1423458852116722106,1.801,0.183,0.248,0.0,0.0,0.0,1.0
1423458852390239718,636,1423458852346463918,1.802,0.184,0.249,0.0,0.0,0.0,1.0
1423458853104678406,637,1423458853065756082,1.836,0.192,0.252,0.0,0.0,0.0,1.0
1423458853318274506,638,1423458853306505918,1.837,0.197,0.25,0.0,0.0,0.0,1.0
1423458853582026997,639,1423458853546251058,1.844,0.203,0.248,0.0,0.0,0.0,1.0
1423458853795658941,640,1423458853777935981,1.854,0.208,0.252,0.0,0.0,0.0,1.0
1423458854009296835,641,1423458854008800029,1.864,0.205,0.248,0.0,0.0,0.0,1.0
1423458854273028142,642,1423458854246557950,1.867,0.21,0.247,0.0,0.0,0.0,1.0
1423458854486723561,643,1423458854486311912,1.881,0.213,0.249,0.0,0.0,0.0,1.0
1423458854750415506,644,1423458854735986948,1.892,0.222,0.247,0.0,0.0,0.0,1.0
1423458855014112014,645,1423458854990696907,1.896,0.223,0.249,0.0,0.0,0.0,1.0
1423458855227710639,646,1423458855219432115,1.904,0.226,0.247,0.0,0.0,0.0,1.0
1423458855491450268,647,1423458855451200962,1.916,0.227,0.247,0.0,0.0,0.0,1.0
1423458855705146392,648,1423458855675945997,1.919,0.232,0.247,0.0,0.0,0.0,1.0
1423458855918772719,649,1423458855906775951,1.926,0.232,0.249,0.0,0.0,0.0,1.0
1423458856182429393,650,1423458856137484073,1.937,0.241,0.246,0.0,0.0,0.0,1.0
1423458856396008090,651,1423458856378170013,1.942,0.241,0.249,0.0,0.0,0.0,1.0
1423458856609624647,652,1423458856607981920,1.946,0.244,0.246,0.0,0.0,0.0,1.0
1423458856873318717,653,1423458856836776971,1.959,0.248,0.246,0.0,0.0,0.0,1.0
1423458857086965004,654,1423458857066585063,1.969,0.243,0.254,0.0,0.0,0.0,1.0
1423458857350624737,655,1423458857307229042,1.977,0.258,0.247,0.0,0.0,0.0,1.0
1423458857564262717,656,1423458857537002086,1.98,0.257,0.246,0.0,0.0,0.0,1.0
1423458857777914366,657,1423458857765878915,1.992,0.263,0.248,0.0,0.0,0.0,1.0
1423458858041582031,658,1423458857998568058,2.004,0.264,0.247,0.0,0.0,0.0,1.0
1423458858255162110,659,1423458858237323045,2.006,0.266,0.247,0.0,0.0,0.0,1.0
1423458858468688178,660,1423458858468034029,2.014,0.272,0.247,0.0,0.0,0.0,1.0
1423458858732420744,661,1423458858713815927,2.027,0.28,0.246,0.0,0.0,0.0,1.0
1423458858996192273,662,1423458858967478990,2.032,0.28,0.247,0.0,0.0,0.0,1.0
1423458859209944067,663,1423458859200206041,2.04,0.284,0.247,0.0,0.0,0.0,1.0
1423458859473767451,664,1423458859426951885,2.052,0.286,0.246,0.0,0.0,0.0,1.0
1423458859687451849,665,1423458859667727947,2.064,0.288,0.252,0.0,0.0,0.0,1.0
1423458859951198228,666,1423458859907515048,2.065,0.294,0.248,0.0,0.0,0.0,1.0
1423458860164863129,667,1423458860137203931,2.072,0.296,0.247,0.0,0.0,0.0,1.0
1423458860378600223,668,1423458860366978883,2.081,0.303,0.249,0.0,0.0,0.0,1.0
1423458860642410974,669,1423458860620707988,2.092,0.302,0.247,0.0,0.0,0.0,1.0
1423458860856043897,670,1423458860851481914,2.092,0.306,0.246,0.0,0.0,0.0,1.0
1423458861119836230,671,1423458861077280044,2.107,0.308,0.248,0.0,0.0,0.0,1.0
1423458861333585808,672,1423458861317022085,2.116,0.318,0.247,0.0,0.0,0.0,1.0
1423458861547214720,673,1423458861546761035,2.119,0.319,0.246,0.0,0.0,0.0,1.0
1423458861810947744,674,1423458861778562068,2.127,0.323,0.248,0.0,0.0,0.0,1.0
1423458862024565945,675,1423458862007332086,2.138,0.322,0.248,0.0,0.0,0.0,1.0
1423458862288358833,676,1423458862238060951,2.14,0.325,0.248,0.0,0.0,0.0,1.0
1423458862502092761,677,1423458862467885017,2.153,0.33,0.248,0.0,0.0,0.0,1.0
1423458862715831866,678,1423458862714560031,2.162,0.342,0.246,0.0,0.0,0.0,1.0
1423458862979575686,679,1423458862957324981,2.167,0.341,0.248,0.0,0.0,0.0,1.0
1423458863193248628,680,1423458863190001964,2.175,0.344,0.247,0.0,0.0,0.0,1.0
1423458863456940781,681,1423458863426877975,2.183,0.349,0.246,0.0,0.0,0.0,1.0
1423458863670697498,682,1423458863667577028,2.197,0.349,0.252,0.0,0.0,0.0,1.0
1423458863934393379,683,1423458863907268047,2.198,0.357,0.249,0.0,0.0,0.0,1.0
1423458864148118057,684,1423458864147027969,2.205,0.36,0.247,0.0,0.0,0.0,1.0
1423458864411932096,685,1423458864378817081,2.211,0.366,0.247,0.0,0.0,0.0,1.0
1423458864625599158,686,1423458864612636089,2.223,0.365,0.247,0.0,0.0,0.0,1.0
1423458864839311446,687,1423458864837408065,2.227,0.37,0.247,0.0,0.0,0.0,1.0
1423458865553735193,688,1423458865546633005,2.25,0.385,0.246,0.0,0.0,0.0,1.0
1423458865817508521,689,1423458865778321981,2.258,0.39,0.247,0.0,0.0,0.0,1.0
1423458866031313025,690,1423458866019045114,2.272,0.392,0.246,0.0,0.0,0.0,1.0
1423458866295083945,691,1423458866257795095,2.275,0.397,0.246,0.0,0.0,0.0,1.0
1423458866508775387,692,1423458866497565031,2.284,0.399,0.248,0.0,0.0,0.0,1.0
1423458866772568276,693,1423458866749257087,2.294,0.408,0.246,0.0,0.0,0.0,1.0
1423458866986240265,694,1423458866979054927,2.3,0.409,0.251,0.0,0.0,0.0,1.0
1423458867250021141,695,1423458867217827081,2.31,0.408,0.248,0.0,0.0,0.0,1.0
1423458867463701552,696,1423458867457537889,2.312,0.418,0.245,0.0,0.0,0.0,1.0
1423458867727441551,697,1423458867702263116,2.322,0.412,0.25,0.0,0.0,0.0,1.0
1423458867941132400,698,1423458867938019990,2.331,0.427,0.248,0.0,0.0,0.0,1.0
1423458868204848487,699,1423458868166865110,2.334,0.426,0.247,0.0,0.0,0.0,1.0
1423458868418603973,700,1423458868401565074,2.344,0.433,0.248,0.0,0.0,0.0,1.0
1423458868632344662,701,1423458868627356052,2.357,0.434,0.247,0.0,0.0,0.0,1.0
1423458868896137256,702,1423458868877085924,2.356,0.438,0.246,0.0,0.0,0.0,1.0
1423458869109788941,703,1423458869106829881,2.368,0.443,0.248,0.0,0.0,0.0,1.0
1423458869523726363,704,1423458869517345905,2.378,0.45,0.247,0.0,0.0,0.0,1.0
1423458869787527472,705,1423458869747239112,2.387,0.457,0.248,0.0,0.0,0.0,1.0
1423458870001219147,706,1423458869989978075,2.4,0.458,0.247,0.0,0.0,0.0,1.0
1423458870265058389,707,1423458870226845979,2.402,0.464,0.247,0.0,0.0,0.0,1.0
1423458870478726488,708,1423458870467461109,2.411,0.468,0.247,0.0,0.0,0.0,1.0
1423458870742444093,709,1423458870717184066,2.42,0.478,0.246,0.0,0.0,0.0,1.0
1423458870956135863,710,1423458870946963071,2.425,0.48,0.252,0.0,0.0,0.0,1.0
1423458871219894939,711,1423458871199773073,2.435,0.48,0.248,0.0,0.0,0.0,1.0
1423458871483756015,712,1423458871447504997,2.439,0.489,0.246,0.0,0.0,0.0,1.0
1423458871697499906,713,1423458871669224977,2.451,0.49,0.25,0.0,0.0,0.0,1.0
1423458871911152755,714,1423458871907031059,2.454,0.495,0.25,0.0,0.0,0.0,1.0
1423458872174902707,715,1423458872148808002,2.462,0.502,0.247,0.0,0.0,0.0,1.0
1423458872388565641,716,1423458872380510091,2.471,0.509,0.247,0.0,0.0,0.0,1.0
1423458872652268692,717,1423458872619285106,2.483,0.512,0.247,0.0,0.0,0.0,1.0
1423458872866049086,718,1423458872858984947,2.487,0.517,0.247,0.0,0.0,0.0,1.0
1423458873129720640,719,1423458873097771883,2.494,0.519,0.248,0.0,0.0,0.0,1.0
1423458873343357708,720,1423458873327495098,2.503,0.529,0.246,0.0,0.0,0.0,1.0
1423458873607103374,721,1423458873557291984,2.507,0.531,0.248,0.0,0.0,0.0,1.0
1423458873820716633,722,1423458873790040969,2.514,0.535,0.247,0.0,0.0,0.0,1.0
1423458874034253203,723,1423458874018843889,2.523,0.539,0.246,0.0,0.0,0.0,1.0
1423458874297949576,724,1423458874248653888,2.532,0.544,0.247,0.0,0.0,0.0,1.0
1423458874511586092,725,1423458874478322029,2.536,0.547,0.248,0.0,0.0,0.0,1.0
1423458874725215357,726,1423458874714199066,2.542,0.552,0.247,0.0,0.0,0.0,1.0
1423458874988967370,727,1423458874947803020,2.55,0.557,0.248,0.0,0.0,0.0,1.0
1423458875202783645,728,1423458875178667068,2.558,0.558,0.248,0.0,0.0,0.0,1.0
1423458875416408424,729,1423458875410392045,2.561,0.563,0.247,0.0,0.0,0.0,1.0
1423458875680114633,730,1423458875637135028,2.574,0.569,0.246,0.0,0.0,0.0,1.0
1423458875893751599,731,1423458875876941919,2.579,0.576,0.248,0.0,0.0,0.0,1.0
1423458876157426281,732,1423458876126673936,2.583,0.576,0.248,0.0,0.0,0.0,1.0
1423458876371026555,733,1423458876357376098,2.592,0.585,0.249,0.0,0.0,0.0,1.0
1423458876634728292,734,1423458876596112012,2.605,0.587,0.247,0.0,0.0,0.0,1.0
1423458876848556382,735,1423458876817867994,2.606,0.592,0.247,0.0,0.0,0.0,1.0
1423458877062184430,736,1423458877047570943,2.616,0.596,0.248,0.0,0.0,0.0,1.0
1423458878026820952,737,1423458877978554964,2.645,0.617,0.248,0.0,0.0,0.0,1.0
1423458878240432045,738,1423458878208302974,2.647,0.621,0.248,0.0,0.0,0.0,1.0
1423458878454068373,739,1423458878448041915,2.656,0.625,0.249,0.0,0.0,0.0,1.0
1423458878717745258,740,1423458878700779914,2.665,0.635,0.248,0.0,0.0,0.0,1.0
1423458878981449066,741,1423458878938540935,2.671,0.642,0.249,0.0,0.0,0.0,1.0
1423458879195048491,742,1423458879166361093,2.68,0.645,0.248,0.0,0.0,0.0,1.0
1423458879408687471,743,1423458879399084091,2.683,0.646,0.247,0.0,0.0,0.0,1.0
1423458879672364490,744,1423458879628788948,2.694,0.651,0.252,0.0,0.0,0.0,1.0
1423458879886012620,745,1423458879869571924,2.698,0.657,0.25,0.0,0.0,0.0,1.0
1423458880149687435,746,1423458880108217000,2.704,0.663,0.248,0.0,0.0,0.0,1.0
1423458880363249432,747,1423458880338033914,2.714,0.672,0.249,0.0,0.0,0.0,1.0
1423458880576953596,748,1423458880565788984,2.726,0.675,0.248,0.0,0.0,0.0,1.0
1423458880840775134,749,1423458880808509111,2.729,0.68,0.248,0.0,0.0,0.0,1.0
1423458881054486623,750,1423458881037234067,2.735,0.683,0.249,0.0,0.0,0.0,1.0
1423458881318328100,751,1423458881283973932,2.745,0.695,0.248,0.0,0.0,0.0,1.0
1423458881531873034,752,1423458881506798028,2.744,0.689,0.25,0.0,0.0,0.0,1.0
1423458881795534538,753,1423458881748476028,2.752,0.7,0.249,0.0,0.0,0.0,1.0
1423458882009216339,754,1423458881987281084,2.764,0.704,0.248,0.0,0.0,0.0,1.0
1423458882222900075,755,1423458882218060970,2.766,0.708,0.248,0.0,0.0,0.0,1.0
1423458882486606381,756,1423458882446863889,2.773,0.714,0.248,0.0,0.0,0.0,1.0
1423458882750341053,757,1423458882700542926,2.784,0.723,0.247,0.0,0.0,0.0,1.0
1423458882913896976,758,1423458882907351970,2.787,0.726,0.253,0.0,0.0,0.0,1.0
1423458883177568705,759,1423458883138071060,2.798,0.729,0.25,0.0,0.0,0.0,1.0
1423458883391139640,760,1423458883378798007,2.803,0.737,0.247,0.0,0.0,0.0,1.0
1423458883654787628,761,1423458883607554912,2.811,0.743,0.249,0.0,0.0,0.0,1.0
1423458883868447457,762,1423458883839318037,2.815,0.747,0.25,0.0,0.0,0.0,1.0
1423458884082050038,763,1423458884068095922,2.819,0.75,0.248,0.0,0.0,0.0,1.0
1423458884345680135,764,1423458884307826995,2.827,0.76,0.251,0.0,0.0,0.0,1.0
1423458884559351792,765,1423458884537617921,2.838,0.764,0.25,0.0,0.0,0.0,1.0
1423458884823048783,766,1423458884779330968,2.842,0.768,0.25,0.0,0.0,0.0,1.0
1423458885036631512,767,1423458885028100013,2.851,0.773,0.25,0.0,0.0,0.0,1.0
1423458885300371182,768,1423458885277811050,2.859,0.783,0.249,0.0,0.0,0.0,1.0
1423458885514065468,769,1423458885507678031,2.862,0.786,0.251,0.0,0.0,0.0,1.0
1423458885777783807,770,1423458885736330986,2.869,0.791,0.25,0.0,0.0,0.0,1.0
1423458885991464466,771,1423458885980072975,2.879,0.798,0.249,0.0,0.0,0.0,1.0
1423458886255185870,772,1423458886217741966,2.886,0.802,0.252,0.0,0.0,0.0,1.0
1423458886468777262,773,1423458886447683095,2.888,0.807,0.251,0.0,0.0,0.0,1.0
1423458886732497926,774,1423458886702272891,2.894,0.811,0.249,0.0,0.0,0.0,1.0
1423458886946151005,775,1423458886908072948,2.902,0.82,0.252,0.0,0.0,0.0,1.0
1423458887159852087,776,1423458887137797117,2.912,0.822,0.25,0.0,0.0,0.0,1.0
1423458887423672584,777,1423458887379631042,2.913,0.825,0.249,0.0,0.0,0.0,1.0
1423458887637350263,778,1423458887609251022,2.923,0.832,0.249,0.0,0.0,0.0,1.0
1423458887851032372,779,1423458887849136114,2.924,0.838,0.251,0.0,0.0,0.0,1.0
1423458888114717396,780,1423458888079797029,2.93,0.841,0.249,0.0,0.0,0.0,1.0
1423458888478595333,781,1423458888431488037,2.939,0.851,0.251,0.0,0.0,0.0,1.0
1423458888842483543,782,1423458888803034067,2.95,0.856,0.25,0.0,0.0,0.0,1.0
1423458889056165539,783,1423458889027780055,2.96,0.864,0.251,0.0,0.0,0.0,1.0
1423458889269866195,784,1423458889257587909,2.966,0.874,0.249,0.0,0.0,0.0,1.0
1423458889533609377,785,1423458889488313913,2.971,0.876,0.252,0.0,0.0,0.0,1.0
1423458890248083683,786,1423458890217618942,2.995,0.894,0.252,0.0,0.0,0.0,1.0
1423458890461829967,787,1423458890448271036,3.001,0.902,0.251,0.0,0.0,0.0,1.0
1423458890725557493,788,1423458890700151920,3.005,0.905,0.25,0.0,0.0,0.0,1.0
1423458890939212801,789,1423458890907855033,3.012,0.914,0.251,0.0,0.0,0.0,1.0
1423458891152853220,790,1423458891147672891,3.022,0.917,0.251,0.0,0.0,0.0,1.0
1423458891416937297,791,1423458891379414081,3.02,0.918,0.248,0.0,0.0,0.0,1.0
1423458891630497632,792,1423458891609169960,3.021,0.928,0.249,0.0,0.0,0.0,1.0
