%time,field.transforms0.header.seq,field.transforms0.header.stamp,field.transforms0.transform.translation.x,field.transforms0.transform.translation.y,field.transforms0.transform.translation.z,field.transforms0.transform.rotation.x,field.transforms0.transform.rotation.y,field.transforms0.transform.rotation.z,field.transforms0.transform.rotation.w
1423459292188632249,0,1423459292188329859,10.1375598907,0.63765090704,11.4589233398,0.0870144889408,0.995662684237,-1.44239713831e-11,0.0329286794719
1423459292208459100,0,1423459292208329238,10.1374721527,0.637864172459,11.4591159821,0.0870205429167,0.995662439269,-1.44239627359e-11,0.0329200871805
1423459292208477293,0,1423459292208378508,10.1372814178,0.638038158417,11.4592189789,0.0870297992117,0.99566154572,-1.44238415249e-11,0.032922643024
1423459292228447741,0,1423459292228327969,10.1370449066,0.638096511364,11.4594116211,0.0870467133918,0.995660389563,-1.44238831013e-11,0.0329128902286
1423459292248450378,0,1423459292248324321,10.1370477676,0.638337314129,11.4595432281,0.0870479557031,0.995660231293,-1.4423740349e-11,0.0329143924488
1423459292268435161,0,1423459292268342042,10.137840271,0.638907074928,11.4588804245,0.0870171333486,0.995663432326,-1.44236173167e-11,0.0328990582439
1423459292288453899,0,1423459292288321601,10.137052536,0.639149665833,11.4598045349,0.0870592625806,0.9956596757,-1.44233041148e-11,0.032901291522
1423459292308494324,0,1423459292308323233,10.1371917725,0.639209091663,11.4596862793,0.0870558840066,0.99566021781,-1.44233615974e-11,0.0328938250985
1423459292308695006,0,1423459292308382322,10.1380052567,0.639261007309,11.458937645,0.0870309113251,0.995662836934,-1.44232639831e-11,0.0328806268533
1423459292328469450,0,1423459292328322048,10.1374397278,0.637768864632,11.4594812393,0.0870485740847,0.995659497033,-1.44240358496e-11,0.0329349619363
1423459292348495537,0,1423459292348325367,10.1368875504,0.636500835419,11.4601869583,0.0870705177443,0.995656597147,-1.44244171713e-11,0.0329646097741
1423459292368505165,0,1423459292368327822,10.1369352341,0.636676371098,11.4599704742,0.087049832855,0.995658198081,-1.44242746313e-11,0.0329708840248
1423459292388504522,0,1423459292388332494,10.1367607117,0.638643801212,11.4597587585,0.0870673686618,0.995658900835,-1.44234869549e-11,0.0329032901406
1423459292408502281,0,1423459292408330566,10.1370153427,0.638115942478,11.4595022202,0.0870562084052,0.995659632769,-1.44239084387e-11,0.0329106708033
1423459292408532836,0,1423459292408385788,10.1371660233,0.637340903282,11.4594221115,0.087039410052,0.995660437092,-1.44241402709e-11,0.0329307623369
1423459292428505503,0,1423459292428336532,10.1374425888,0.637408435345,11.4591093063,0.0870319698403,0.995661224363,-1.44239537662e-11,0.0329266233709
1423459292448449135,0,1423459292448317304,10.137137413,0.637291610241,11.4594621658,0.0870492267042,0.995659371209,-1.44240516107e-11,0.032937040769
1423459292468476499,0,1423459292468329288,10.1368370056,0.637034952641,11.4596061707,0.087067666903,0.995657082007,-1.44241065529e-11,0.0329574942707
1423459292488430157,0,1423459292488318046,10.137008667,0.637755513191,11.4594497681,0.0870524242992,0.995659494224,-1.44239675056e-11,0.0329248687878
1423459292508442876,0,1423459292508342823,10.1368875504,0.63879019022,11.4594736099,0.0870454900327,0.995661212197,-1.44237074095e-11,0.0328912327543
1423459292508492116,0,1423459292508396843,10.1371765137,0.639668881893,11.4592943192,0.0870408316808,0.995662744893,-1.44234221217e-11,0.0328571461258
1423459292528528552,0,1423459292528336385,10.1380205154,0.63779848814,11.4581375122,0.0870059911688,0.995664241213,-1.44241692256e-11,0.0329040464124
1423459292548495271,0,1423459292548318446,10.1381444931,0.638475596905,11.458114624,0.0870007635482,0.995665157178,-1.44239373004e-11,0.032890149344
1423459292568474019,0,1423459292568328899,10.1375293732,0.638574898243,11.4587268829,0.0870156529736,0.995664129458,-1.44239521888e-11,0.0328818711246
1423459292588455113,0,1423459292588326436,10.1376190186,0.640466690063,11.458486557,0.0870034085807,0.995666605156,-1.44230238444e-11,0.0328392794268
1423459292608457776,0,1423459292608358756,10.1379928589,0.639548361301,11.4582939148,0.0869947680475,0.995666716683,-1.44231659664e-11,0.0328587830242
1423459292608514537,0,1423459292608408471,10.1383533478,0.63834631443,11.4580965042,0.0869725374776,0.995667584039,-1.44235406218e-11,0.0328913334959
1423459292628460947,0,1423459292628336397,10.1386117935,0.63772714138,11.4578266144,0.0869671033818,0.995667491463,-1.44239949536e-11,0.032908500018
1423459292648457603,0,1423459292648328441,10.1379756927,0.63772803545,11.4585208893,0.0869910289633,0.995664943005,-1.44240362283e-11,0.0329223655109
1423459292668414814,0,1423459292668325415,10.1369171143,0.637847363949,11.4593276978,0.0870335343677,0.995661075869,-1.44239729047e-11,0.032926978208
1423459292688474291,0,1423459292688327124,10.1375551224,0.638060390949,11.4586954117,0.0870129751054,0.995663186118,-1.44240407727e-11,0.0329175025149
1423459292708504139,0,1423459292708329913,10.1377983093,0.638893663883,11.4584951401,0.0870101967349,0.995664683065,-1.44239006119e-11,0.0328795462511
1423459292708517185,0,1423459292708397740,10.1374120712,0.639052152634,11.4587678909,0.0870121954192,0.995664772405,-1.44237886831e-11,0.0328715506031
1423459292728478785,0,1423459292728322900,10.1369791031,0.639292240143,11.4592237473,0.0870366487699,0.995662729691,-1.44233818339e-11,0.0328686853343
1423459292748450577,0,1423459292748327640,10.1370792389,0.638843119144,11.4592218399,0.0870463239254,0.995661615407,-1.44235748173e-11,0.0328768170039
1423459292768462313,0,1423459292768342135,10.137966156,0.637849271297,11.4580869675,0.0870097594928,0.995663439378,-1.44240131475e-11,0.0329183419991
1423459292788473104,0,1423459292788324305,10.1374969482,0.638900816441,11.4583396912,0.0870196411744,0.995664084051,-1.44236030843e-11,0.0328726905031
1423459292808487500,0,1423459292808330275,10.1371212006,0.638714790344,11.4587116241,0.0870500897457,0.99566114004,-1.44239427918e-11,0.0328812422261
1423459292808619982,0,1423459292808387018,10.136713028,0.638290584087,11.4592103958,0.087070074005,0.995658887214,-1.4424029439e-11,0.0328965427374
1423459292828486352,0,1423459292828327468,10.1371831894,0.637957215309,11.4589824677,0.0870427799153,0.995660771811,-1.44240391606e-11,0.0329117295495
1423459292848443288,0,1423459292848324244,10.1370897293,0.637666523457,11.4592285156,0.087053441163,0.995659154945,-1.4424086976e-11,0.0329324392504
1423459292868466598,0,1423459292868329931,10.1370344162,0.638027667999,11.4590129852,0.0870463595237,0.995659361,-1.44240299801e-11,0.0329449259738
1423459292888481323,0,1423459292888343888,10.1364545822,0.638098955154,11.4596405029,0.0870724719681,0.99565724286,-1.44240942045e-11,0.0329399357221
1423459292908478867,0,1423459292908330540,10.1373939514,0.638039529324,11.4587697983,0.0870233007717,0.995661982079,-1.44240904477e-11,0.0329266239493
1423459292908521522,0,1423459292908377872,10.1374483109,0.638046979904,11.4585447311,0.0870110857752,0.995663200008,-1.4424090662e-11,0.0329220762201
1423459292928475619,0,1423459292928320706,10.1372480392,0.638126730919,11.4588251114,0.0870345689473,0.995661499431,-1.44241841184e-11,0.0329114320512
1423459292948482295,0,1423459292948317001,10.1364746094,0.637462377548,11.4595336914,0.0870764332154,0.995656826615,-1.44243232478e-11,0.0329420459857
1423459292968463313,0,1423459292968322883,10.1368980408,0.63783621788,11.4593219757,0.0870558970913,0.995659068459,-1.44241252525e-11,0.0329285617138
1423459292988456315,0,1423459292988321401,10.1366863251,0.637722074986,11.459605217,0.0870750243527,0.995656847141,-1.44241469791e-11,0.0329451495092
1423459293008479372,0,1423459293008337948,10.1368770599,0.63775998354,11.459277153,0.0870681511959,0.995657828886,-1.44240800523e-11,0.0329336427533
1423459293008522429,0,1423459293008380157,10.1366119385,0.638552963734,11.4595079422,0.0870678216667,0.995658886619,-1.44237881409e-11,0.0329025215735
1423459293028461839,0,1423459293028320085,10.1368360519,0.638066828251,11.4593133926,0.0870590922597,0.995658712906,-1.44241042691e-11,0.0329308649945
1423459293048480109,0,1423459293048328280,10.1372013092,0.639247953892,11.4592256546,0.0870377548337,0.995661838215,-1.44234609547e-11,0.0328927523333
1423459293068483037,0,1423459293068321218,10.136844635,0.638737142086,11.4594631195,0.0870494063919,0.995660197559,-1.44238357922e-11,0.032911576139
1423459293088478097,0,1423459293088320350,10.1364240646,0.638946175575,11.4597787857,0.0870694227363,0.995658522987,-1.44236457499e-11,0.0329092878676
1423459293108484320,0,1423459293108330342,10.1364984512,0.638671517372,11.459728241,0.0870789180645,0.995657267002,-1.44240198074e-11,0.0329221611429
1423459293108530334,0,1423459293108384382,10.1368360519,0.638193190098,11.4594526291,0.0870716772744,0.995657715022,-1.44242328454e-11,0.032927762346
1423459293128493063,0,1423459293128323837,10.1369514465,0.637429237366,11.4595165253,0.0870642330243,0.995657880712,-1.44245126958e-11,0.0329424331958
1423459293148461960,0,1423459293148329004,10.1365871429,0.638592779636,11.4596672058,0.0870801476767,0.995657462183,-1.44240065261e-11,0.032913004728
1423459293168455110,0,1423459293168323385,10.1362485886,0.638392627239,11.4598579407,0.0870845479156,0.995656449666,-1.44241287809e-11,0.0329319867655
1423459293188470272,0,1423459293188321003,10.1370916367,0.638929665089,11.4591884613,0.0870535802542,0.99566012297,-1.44237053302e-11,0.0329027915664
1423459293208487065,0,1423459293208336258,10.1365203857,0.639253854752,11.4594583511,0.0870838242942,0.995657230732,-1.4423452782e-11,0.0329102785921
1423459293208652695,0,1423459293208387617,10.1367139816,0.638658821583,11.4590988159,0.0870702291088,0.995657585233,-1.44238736363e-11,0.0329355153579
1423459293228449940,0,1423459293228326259,10.1365385056,0.639204382896,11.4595384598,0.0870767272129,0.995658311829,-1.44237010774e-11,0.0328963472775
1423459293248440989,0,1423459293248322246,10.1358356476,0.638184070587,11.4601230621,0.0871023612486,0.995654810474,-1.44240675911e-11,0.0329344355393
1423459293268484656,0,1423459293268337263,10.1355628967,0.637946248055,11.4605827332,0.0871191993781,0.995652853361,-1.44241625868e-11,0.0329490621125
1423459293288447368,0,1423459293288318921,10.1365146637,0.638061344624,11.4595336914,0.0870790274114,0.995656587354,-1.44243258429e-11,0.0329424201208
1423459293308411519,0,1423459293308325792,10.1370534897,0.637910544872,11.4591474533,0.0870555298037,0.995658554899,-1.44241614402e-11,0.0329450570826
1423459293308570643,0,1423459293308377037,10.1369256973,0.638158500195,11.4590578079,0.0870502761314,0.995659282813,-1.4423971875e-11,0.032936939335
1423459293328470156,0,1423459293328325056,10.1372308731,0.639171123505,11.4588651657,0.0870442252009,0.995660818529,-1.44234387027e-11,0.0329064933487
1423459293348452598,0,1423459293348317825,10.1372423172,0.639417350292,11.4589586258,0.0870512689277,0.995660424191,-1.44234243789e-11,0.0328997914452
1423459293368695011,0,1423459293368323678,10.1369571686,0.63931119442,11.4592018127,0.0870647159661,0.995659288287,-1.4423398148e-11,0.0328985848014
1423459293388444386,0,1423459293388328815,10.1364173889,0.63821876049,11.4596176147,0.087094546329,0.995655609148,-1.44239471275e-11,0.0329309576524
1423459293408482036,0,1423459293408336779,10.1363754272,0.638594448566,11.4597396851,0.0870882645055,0.995656449072,-1.44237986253e-11,0.0329221750105
1423459293408604210,0,1423459293408397224,10.1357021332,0.638489067554,11.4601221085,0.0871171580136,0.995653935279,-1.44236651682e-11,0.0329217548578
1423459293428466415,0,1423459293428318281,10.1363286972,0.638648867607,11.459602356,0.0870955853362,0.995656264721,-1.4423915416e-11,0.0329083809649
1423459293448468745,0,1423459293448328442,10.1358165741,0.639397084713,11.4600419998,0.0871129002779,0.995655521737,-1.44234183012e-11,0.0328850215249
1423459293468458292,0,1423459293468324305,10.1359577179,0.639738023281,11.4598646164,0.0870993444591,0.995657093227,-1.44233315069e-11,0.0328733463611
1423459293488437910,0,1423459293488319681,10.1363363266,0.640453219414,11.4597148895,0.0870875526561,0.995658707598,-1.44232541099e-11,0.0328556868193
1423459293508462676,0,1423459293508342815,10.1366176605,0.639369368553,11.4595680237,0.0870740029,0.9956584183,-1.44235122391e-11,0.0329003356706
1423459293508784681,0,1423459293508392741,10.1366825104,0.640262842178,11.4594554901,0.0870822915222,0.995658639385,-1.4423063882e-11,0.032871694838
1423459293528425374,0,1423459293528315875,10.136631012,0.641053199768,11.4594583511,0.087059482969,0.995661751374,-1.44227705268e-11,0.0328378329887
1423459293548465899,0,1423459293548326406,10.1364717484,0.641261577606,11.459610939,0.0870698329439,0.995660710356,-1.44224950808e-11,0.0328419555648
1423459293568519199,0,1423459293568322783,10.1365222931,0.640537977219,11.4594869614,0.0870665783331,0.995660171355,-1.4422751164e-11,0.0328669152023
1423459293588447572,0,1423459293588315474,10.1366100311,0.641185760498,11.4593524933,0.0870622000658,0.995661356446,-1.44224012212e-11,0.0328426034369
1423459293608465679,0,1423459293608331243,10.1370019913,0.640282273293,11.4590902328,0.0870364586204,0.995662581114,-1.44228212296e-11,0.032873689176
1423459293608723008,0,1423459293608382073,10.1369886398,0.639735460281,11.4591760635,0.0870363509654,0.995662364312,-1.44231127176e-11,0.0328805398734
1423459293628473716,0,1423459293628330791,10.1368618011,0.638864517212,11.4594173431,0.087049974408,0.995660675404,-1.44236211024e-11,0.0328956138322
1423459293648475144,0,1423459293648324597,10.137594223,0.638495743275,11.4586019516,0.0870229192947,0.995662703681,-1.44234549509e-11,0.0329058052057
1423459293668498973,0,1423459293668325642,10.1380558014,0.640841782093,11.4580392838,0.0870043595189,0.995665727784,-1.44228902028e-11,0.0328633525441
1423459293688479737,0,1423459293688319056,10.1386985779,0.641622960567,11.4575071335,0.0869750437016,0.995668864837,-1.44224418608e-11,0.0328459033467
1423459293708481904,0,1423459293708330942,10.1381282806,0.641061723232,11.4578762054,0.0869913000841,0.995667173212,-1.44228714426e-11,0.0328541306017
1423459293708597540,0,1423459293708387456,10.1379146576,0.641782641411,11.4579706192,0.0869945749088,0.995667778049,-1.44224706701e-11,0.0328271182361
1423459293728464578,0,1423459293728321625,10.1384210587,0.640791118145,11.4573230743,0.0869582124109,0.99567028964,-1.44228258638e-11,0.0328472772393
1423459293748492267,0,1423459293748332464,10.1386985779,0.639852941036,11.4568004608,0.0869299688202,0.995671815008,-1.4423076868e-11,0.0328757862084
1423459293768484298,0,1423459293768336806,10.1382579803,0.639564812183,11.4573526382,0.0869488409534,0.995670088206,-1.44231328073e-11,0.0328781767998
1423459293788479617,0,1423459293788323627,10.1373796463,0.639518380165,11.4581575394,0.0869903707498,0.995665938803,-1.44232068534e-11,0.0328939767234
1423459293808499291,0,1423459293808329491,10.1372232437,0.63955116272,11.4584236145,0.0870041391,0.995664680898,-1.44231501575e-11,0.0328956378941
1423459293808632023,0,1423459293808376790,10.137140274,0.638979554176,11.4586467743,0.0870134871181,0.995663637176,-1.4423172246e-11,0.032902502417
1423459293828459126,0,1423459293828319032,10.1368141174,0.640097022057,11.459025383,0.0870193582374,0.995664937549,-1.44228389279e-11,0.032847578719
1423459293848476158,0,1423459293848328146,10.1371107101,0.640241146088,11.4586076736,0.0870144944468,0.995665257434,-1.44228809001e-11,0.0328507670492
1423459293868465406,0,1423459293868321659,10.1372337341,0.640075385571,11.4585533142,0.0870080963047,0.995665914356,-1.44229550133e-11,0.0328478030807
1423459293888507330,0,1423459293888328099,10.1376466751,0.640757262707,11.4581689835,0.0870061985046,0.995667038363,-1.44229317622e-11,0.0328187467743
1423459293908482904,0,1423459293908330209,10.13742733,0.640302836895,11.458024025,0.0870120103331,0.995665860052,-1.4423213221e-11,0.0328390801402
1423459293908617429,0,1423459293908380079,10.1367435455,0.63979613781,11.458615303,0.087041166388,0.995662019748,-1.44232745143e-11,0.0328782266038
1423459293928465622,0,1423459293928322435,10.1366510391,0.640561103821,11.4586811066,0.0870413668328,0.995663032032,-1.44230455498e-11,0.0328470258186
1423459293948508638,0,1423459293948326371,10.13667202,0.640048086643,11.4587879181,0.087039051272,0.995662863347,-1.44231412054e-11,0.0328582730188
1423459293968458881,0,1423459293968329946,10.1366739273,0.640807509422,11.4589061737,0.0870494296326,0.995662867506,-1.44229407829e-11,0.0328306422593
1423459293988412178,0,1423459293988323688,10.1366977692,0.639880776405,11.4589891434,0.0870461949826,0.995661908471,-1.44231458907e-11,0.032868281964
1423459294008451414,0,1423459294008340551,10.1364679337,0.638954758644,11.4592914581,0.0870670411497,0.995659256397,-1.44237610055e-11,0.0328933959449
1423459294008608667,0,1423459294008395549,10.1360626221,0.639453470707,11.4595603943,0.0870865489889,0.995657791383,-1.44236925008e-11,0.0328860980397
1423459294028473474,0,1423459294028327289,10.1366634369,0.6400385499,11.4590759277,0.0870619084874,0.995660708616,-1.44233936888e-11,0.0328630097459
1423459294048427926,0,1423459294048317628,10.1359472275,0.639299452305,11.4596767426,0.0870897372218,0.995657159573,-1.44235775154e-11,0.0328967819336
1423459294068447520,0,1423459294068326076,10.1354408264,0.638801276684,11.4601345062,0.0871078491498,0.995655445787,-1.44238018347e-11,0.0329006974327
1423459294088437029,0,1423459294088328018,10.1357564926,0.639347970486,11.459859848,0.0870990871243,0.995656807464,-1.44235847941e-11,0.0328826819532
1423459294108449230,0,1423459294108327035,10.135892868,0.64008897543,11.45997715,0.0870954399308,0.995658137156,-1.44232558398e-11,0.0328520662641
1423459294108623018,0,1423459294108374651,10.136133194,0.639578521252,11.4597272873,0.0870828096079,0.995658734239,-1.44231835969e-11,0.0328674490149
1423459294128466747,0,1423459294128335178,10.1361131668,0.639302551746,11.4597930908,0.0870802010365,0.995658700678,-1.44233160613e-11,0.0328753760816
1423459294148469436,0,1423459294148325625,10.1360588074,0.638757407665,11.4597759247,0.0870812546725,0.995658017824,-1.44238090027e-11,0.0328932611383
1423459294168424755,0,1423459294168327858,10.1377477646,0.638489663601,11.4585905075,0.0870006183412,0.995664760171,-1.44240484595e-11,0.0329025494849
1423459294188440333,0,1423459294188328027,10.1375417709,0.638321280479,11.4587182999,0.0870103524312,0.99566391661,-1.44241220954e-11,0.0329023362563
1423459294208430513,0,1423459294208323338,10.1364030838,0.63990265131,11.4598236084,0.0870620345545,0.995661011015,-1.44231941725e-11,0.0328535124894
1423459294208518212,0,1423459294208374710,10.1358613968,0.639128386974,11.460357666,0.0870878188571,0.995657339633,-1.44235701157e-11,0.0328964107793
1423459294228453991,0,1423459294228328133,10.1357345581,0.63872718811,11.460267067,0.0871046799746,0.99565546702,-1.44235044662e-11,0.0329084445141
1423459294248423036,0,1423459294248323867,10.1363983154,0.638231515884,11.4594583511,0.087076121572,0.995657251709,-1.44235504819e-11,0.0329300193125
1423459294268475809,0,1423459294268337179,10.1359243393,0.63809800148,11.459980011,0.0870916659527,0.995655962161,-1.44238366047e-11,0.0329279020664
1423459294288473476,0,1423459294288320185,10.1361503601,0.638448476791,11.4598646164,0.0870813224329,0.995657401946,-1.44236994491e-11,0.0329117187934
1423459294308481874,0,1423459294308333408,10.1359376907,0.638066828251,11.4601154327,0.0871128596301,0.9956542632,-1.44241094943e-11,0.0329232115436
1423459294308536590,0,1423459294308389819,10.1359624863,0.6374964118,11.4601335526,0.0871101172056,0.995654024651,-1.44243024248e-11,0.0329376786885
1423459294328437312,0,1423459294328315217,10.1355085373,0.63790255785,11.4603872299,0.0871214699246,0.995653248325,-1.4424063652e-11,0.0329311186996
1423459294348511709,0,1423459294348325631,10.1357650757,0.639378607273,11.4600257874,0.0871131066862,0.995655830949,-1.44233990123e-11,0.0328751112729
1423459294368486575,0,1423459294368322897,10.1357345581,0.639948487282,11.4600419998,0.0871090259053,0.995656650309,-1.44229554903e-11,0.0328611062056
1423459294388475577,0,1423459294388325067,10.1355800629,0.639485239983,11.4600744247,0.0871134052382,0.995655265868,-1.44232874156e-11,0.0328914301617
1423459294408475786,0,1423459294408330540,10.1359167099,0.638363659382,11.4601755142,0.0871063424592,0.995654660077,-1.44237317648e-11,0.0329284522944
1423459294408739513,0,1423459294408379842,10.1355428696,0.638173401356,11.4604043961,0.0871278297923,0.995652735066,-1.44235048409e-11,0.0329298106872
1423459294428474607,0,1423459294428318694,10.136136055,0.6382843256,11.4598827362,0.0871064939493,0.995654732115,-1.44235085787e-11,0.032925873257
1423459294448469993,0,1423459294448322623,10.1366739273,0.637342333794,11.4594221115,0.0870763741729,0.995656692287,-1.44239789136e-11,0.0329462617636
1423459294468462698,0,1423459294468321682,10.1365804672,0.637842953205,11.459528923,0.0870642512961,0.995657912867,-1.4423848418e-11,0.0329414130057
1423459294488463014,0,1423459294488320176,10.1366729736,0.637030959129,11.4593000412,0.0870621836849,0.995657571141,-1.44242257828e-11,0.0329572025851
1423459294508644155,0,1423459294508336424,10.1365823746,0.637308478355,11.459654808,0.0870719992645,0.995657234395,-1.44239196626e-11,0.0329414410795
1423459294508659966,0,1423459294508376695,10.1364221573,0.638544440269,11.4598855972,0.0870814617092,0.995656993825,-1.44233211864e-11,0.0329236947144
1423459294528467292,0,1423459294528321120,10.1365509033,0.639685630798,11.4595975876,0.0870621019602,0.995659976076,-1.44229029581e-11,0.0328846840028
1423459294548478488,0,1423459294548327251,10.1361455917,0.639564037323,11.4597921371,0.0870797325012,0.995658221979,-1.4423042923e-11,0.0328911111648
1423459294568471210,0,1423459294568318305,10.1361513138,0.639024317265,11.4597883224,0.0870771528333,0.995657866108,-1.44234718899e-11,0.0329087087534
1423459294588462691,0,1423459294588319490,10.136756897,0.638675034046,11.4591827393,0.087055779491,0.995659655983,-1.44234930028e-11,0.0329111030636
1423459294608519070,0,1423459294608330851,10.1366500854,0.637604594231,11.4593143463,0.0870552097107,0.995658603303,-1.44239207389e-11,0.03294444005
1423459294608536918,0,1423459294608381605,10.1366729736,0.63907879591,11.4591302872,0.0870563811771,0.99566039406,-1.44234600967e-11,0.0328871737329
1423459294628466017,0,1423459294628325426,10.1374483109,0.638986647129,11.4588079453,0.0870303264575,0.995662582077,-1.44235825922e-11,0.0328898909697
1423459294648471941,0,1423459294648327986,10.1372509003,0.639138638973,11.458650589,0.0870290501511,0.995662867702,-1.44235357687e-11,0.0328846211741
1423459294668558054,0,1423459294668324688,10.1375083923,0.640338182449,11.4584188461,0.0870182832542,0.995665463867,-1.44229785261e-11,0.0328344703391
1423459294688473330,0,1423459294688319451,10.1377096176,0.640163719654,11.4583053589,0.0870063143999,0.995666557043,-1.44230480621e-11,0.0328330388645
1423459294708514335,0,1423459294708343368,10.1375637054,0.639458596706,11.4581842422,0.0870069175142,0.995665610531,-1.44233553465e-11,0.032860132529
1423459294708622339,0,1423459294708408994,10.1374292374,0.640397429466,11.4582204819,0.0870046609509,0.995666809303,-1.44228139923e-11,0.0328297704158
1423459294728512507,0,1423459294728322484,10.1376342773,0.640381455421,11.4582862854,0.0869867772579,0.995668363626,-1.44229522015e-11,0.0328300206731
1423459294748474589,0,1423459294748320952,10.1377630234,0.639899492264,11.4582023621,0.0869874776809,0.995667707003,-1.44234465002e-11,0.0328480738732
1423459294768483688,0,1423459294768339753,10.1372423172,0.638867557049,11.4589004517,0.0870203020258,0.995663606271,-1.44238674273e-11,0.032885409889
1423459294788476525,0,1423459294788343633,10.1370124817,0.639512121677,11.4591560364,0.0870339300623,0.995663270946,-1.44236858611e-11,0.0328594873069
1423459294808506383,0,1423459294808331537,10.137468338,0.640204310417,11.4587640762,0.0870187391281,0.995665061025,-1.44233833429e-11,0.0328454760104
1423459294808718903,0,1423459294808389469,10.1368370056,0.638290345669,11.459312439,0.0870490110029,0.995660723644,-1.44242763734e-11,0.0328967031273
1423459294828488285,0,1423459294828320026,10.1386442184,0.630707681179,11.4505681992,0.0869695696335,0.995664127484,-1.44270208041e-11,0.0330036240351
1423459294848446447,0,1423459294848322831,10.145316124,0.591099441051,11.3953113556,0.0866104060581,0.995688323434,-1.44420898717e-11,0.0332174673745
1423459294868473058,0,1423459294868330290,10.1402311325,0.560024678707,11.3110351562,0.0873705203869,0.995647536073,-1.44410093225e-11,0.0324403464835
1423459294888489897,0,1423459294888335746,10.166852951,0.503071308136,11.2318029404,0.0877474937333,0.995635804273,-1.44512640748e-11,0.0317761324557
1423459294908469676,0,1423459294908326732,10.2268276215,0.492068737745,11.1861658096,0.0873931903434,0.995690339013,-1.44378357241e-11,0.0310351265105
1423459294908479525,0,1423459294908372333,10.3006000519,0.457175046206,11.1612968445,0.0866204501371,0.995775785939,-1.44309929785e-11,0.0304545851411
1423459294928449718,0,1423459294928327220,10.3634710312,0.413170069456,11.1508378983,0.0859692227089,0.99582380419,-1.44350244696e-11,0.0307285495228
1423459294948473866,0,1423459294948326750,10.4025859833,0.420657664537,11.1627817154,0.0857217266196,0.995816452606,-1.44272331921e-11,0.0316445619997
1423459294968443627,0,1423459294968326335,10.4438714981,0.4375192523,11.1889925003,0.0853104558755,0.995810249664,-1.44154224359e-11,0.0329252605597
1423459294988454784,0,1423459294988326124,10.5117549896,0.43566173315,11.2222728729,0.0832516489044,0.995930095305,-1.44203318941e-11,0.0345312644028
1423459295008505222,0,1423459295008347555,10.5607042313,0.439162164927,11.2296543121,0.0814243361268,0.996026735552,-1.44270231199e-11,0.0360668760967
1423459295008645926,0,1423459295008408946,10.5785293579,0.422188341618,11.2085704803,0.0807175158127,0.996051582495,-1.44486174062e-11,0.0369584584451
1423459295028431322,0,1423459295028324607,10.5760250092,0.414961516857,11.1863059998,0.080747878871,0.996046434918,-1.44596420082e-11,0.037030791841
1423459295048459834,0,1423459295048323493,10.5596160889,0.403955996037,11.1767082214,0.0809672685645,0.996042517269,-1.447273923e-11,0.036655220832
1423459295068429124,0,1423459295068323845,10.5229501724,0.432376742363,11.1774759293,0.0819916938784,0.995996485509,-1.44624049467e-11,0.0356140841255
1423459295088425879,0,1423459295088322461,10.4770851135,0.461932003498,11.1848268509,0.0834057157877,0.995909173002,-1.44484029625e-11,0.0347621303136
1423459295108462150,0,1423459295108330138,10.4454078674,0.477005690336,11.2006282806,0.0845556358379,0.995821585831,-1.44452721629e-11,0.0344922257963
1423459295108560957,0,1423459295108384919,10.4600343704,0.512665092945,11.2318649292,0.0839749050081,0.995868540927,-1.44247540832e-11,0.0345552386887
1423459295128489863,0,1423459295128339304,10.4811019897,0.509079694748,11.2880554199,0.0833304147122,0.995894055449,-1.44410216137e-11,0.0353705005032
1423459295148455094,0,1423459295148324567,10.5080375671,0.547317504883,11.4134902954,0.0830907097516,0.995889326875,-1.44339680536e-11,0.0360608176367
1423459295168423918,0,1423459295168328661,10.5211629868,0.628393530846,11.5476312637,0.0834284542924,0.995863900401,-1.44170370577e-11,0.0359831195496
1423459295188469047,0,1423459295188317640,10.549700737,0.649156033993,11.6438598633,0.0837201150363,0.995862473464,-1.43976347519e-11,0.0353394437353
1423459295208433011,0,1423459295208330967,10.5964975357,0.575778305531,11.6919565201,0.0824595380283,0.995965352136,-1.442864121e-11,0.0354039818811
1423459295208441998,0,1423459295208381168,10.6201925278,0.53878891468,11.6770887375,0.0803543532813,0.99612066362,-1.44645708697e-11,0.0358720144092
1423459295228499041,0,1423459295228327762,10.585269928,0.5449898839,11.6082696915,0.0803672252569,0.996093314412,-1.44790299762e-11,0.0365953287718
1423459295248587231,0,1423459295248383232,10.530962944,0.56141269207,11.5528354645,0.0823814947432,0.995915809982,-1.44716346692e-11,0.0369457541646
1423459295268484079,0,1423459295268337263,10.5085468292,0.551180243492,11.5443172455,0.0829880144602,0.995858221475,-1.44765816384e-11,0.0371401693144
1423459295288471251,0,1423459295288320376,10.5115175247,0.577479660511,11.5307588577,0.0823018305337,0.995931640872,-1.44634624174e-11,0.03669571366
1423459295308470932,0,1423459295308326557,10.5203113556,0.617225885391,11.4646863937,0.0816526756986,0.996004594704,-1.4439621381e-11,0.0361619673078
1423459295308603580,0,1423459295308372827,10.530169487,0.601472079754,11.3585987091,0.080927742093,0.996081524511,-1.44298506818e-11,0.0356692737054
1423459295328470662,0,1423459295328325794,10.528968811,0.573287725449,11.2954063416,0.0804235942506,0.996146051646,-1.44354567919e-11,0.0350012753731
1423459295348457815,0,1423459295348327551,10.5300149918,0.611102461815,11.2874526978,0.0801692238092,0.996215822654,-1.44112458425e-11,0.0335697817525
1423459295368446267,0,1423459295368317514,10.5320863724,0.626101493835,11.3201313019,0.0803045273736,0.99625167585,-1.43898078288e-11,0.032152468789
1423459295388454911,0,1423459295388329144,10.5370759964,0.603107690811,11.3769359589,0.0805694064971,0.996255126587,-1.43942216662e-11,0.0313734519313
1423459295408505190,0,1423459295408330429,10.5527601242,0.56057113409,11.4276437759,0.0809598747964,0.996223335099,-1.44095081824e-11,0.0313777831684
1423459295408581368,0,1423459295408386581,10.599395752,0.51873511076,11.4628591537,0.0806280091698,0.996240183515,-1.4423041855e-11,0.031695755047
1423459295428437340,0,1423459295428324600,10.6685018539,0.502965271473,11.4483613968,0.0796748085347,0.996305881312,-1.44258686517e-11,0.0320392844373
1423459295448461094,0,1423459295448326184,10.7401771545,0.528367459774,11.4051084518,0.0786175930548,0.996389030069,-1.44115867781e-11,0.0320651652065
1423459295468399313,0,1423459295468286845,10.8171873093,0.584879994392,11.3466253281,0.077148597673,0.996508445091,-1.43758671559e-11,0.0319219789524
1423459295488472948,0,1423459295488315998,10.8821640015,0.636658072472,11.3000259399,0.0758237266897,0.996615631632,-1.43486552299e-11,0.031749728462
1423459295508523135,0,1423459295508371220,10.9118518829,0.640835046768,11.3020076752,0.0753843668383,0.996638589198,-1.43453713893e-11,0.0320736614401
1423459295508596052,0,1423459295508427724,10.9140396118,0.582844078541,11.3439874649,0.0753603855083,0.996629283835,-1.43802919013e-11,0.0324173240637
1423459295528518441,0,1423459295528324787,10.9130268097,0.544793128967,11.381855011,0.0752651884139,0.996630503009,-1.44066977471e-11,0.0326004890413
1423459295548465568,0,1423459295548320815,10.907166481,0.537058293819,11.4062919617,0.0755598515236,0.996615841939,-1.44175417873e-11,0.0323662236692
1423459295568451606,0,1423459295568322339,10.9100255966,0.519190013409,11.412979126,0.0755459940513,0.996616374817,-1.44354019066e-11,0.0323821591349
1423459295588489898,0,1423459295588337591,10.9041824341,0.480771899223,11.4275922775,0.0755164303719,0.996594263232,-1.44931985054e-11,0.0331231525943
1423459295608450646,0,1423459295608329176,10.8619565964,0.501495778561,11.468255043,0.0782563863885,0.996373126707,-1.44694281878e-11,0.0334145232588
1423459295608520501,0,1423459295608382904,10.8073673248,0.489423811436,11.5355968475,0.0794997635361,0.996244961214,-1.45114692793e-11,0.0342894277336
1423459295628433641,0,1423459295628335573,10.7525510788,0.592786312103,11.5724773407,0.0807432243713,0.996166131868,-1.4451167967e-11,0.0336685229349
1423459295648488691,0,1423459295648323514,10.6932163239,0.646947324276,11.5470867157,0.0828394398574,0.996030997325,-1.44199334533e-11,0.0325557916667
1423459295668463302,0,1423459295668328299,10.6712961197,0.636334717274,11.5132551193,0.0830258481573,0.996041580258,-1.44298485326e-11,0.0317471090856
1423459295688481374,0,1423459295688326791,10.6682453156,0.629567921162,11.4839134216,0.0823999531291,0.99609538677,-1.44342688229e-11,0.0316895594638
1423459295708451246,0,1423459295708326766,10.6556997299,0.629772484303,11.4651193619,0.0826894123192,0.996061902351,-1.44336481524e-11,0.0319866812301
1423459295708495243,0,1423459295708375713,10.6650505066,0.626899838448,11.4496564865,0.0825279034277,0.996070244219,-1.4433107556e-11,0.0321436422689
1423459295728453129,0,1423459295728326737,10.7050619125,0.613361418247,11.3963060379,0.0816381349264,0.996151468715,-1.44347378828e-11,0.0318977476215
1423459295748482391,0,1423459295748327901,10.7782678604,0.544088363647,11.2465925217,0.0801494398604,0.99627633036,-1.44489970961e-11,0.0317732726304
1423459295768482020,0,1423459295768343056,10.8160886765,0.452863067389,11.124206543,0.0787584400026,0.996372823144,-1.4480813765e-11,0.0322227470756
1423459295788473023,0,1423459295788320208,10.8253974915,0.423516750336,11.0804233551,0.0782949096503,0.996410523686,-1.44803724984e-11,0.0321865718892
1423459295808445239,0,1423459295808331761,10.8089981079,0.393786042929,11.0865812302,0.0786337229343,0.996391038708,-1.44762874843e-11,0.0319630348869
1423459295808645074,0,1423459295808391755,10.7786655426,0.390806317329,11.1137294769,0.0794812639873,0.996328541638,-1.44693287468e-11,0.0318145531546
1423459295828444379,0,1423459295828322794,10.7433023453,0.425439447165,11.1419420242,0.080851001841,0.996226905364,-1.44522070395e-11,0.0315447068585
1423459295848464839,0,1423459295848326562,10.7285108566,0.484263658524,11.1712265015,0.0819953713836,0.996166139833,-1.44243415882e-11,0.03049230921
1423459295868483242,0,1423459295868328888,10.7476596832,0.526014328003,11.1925697327,0.0816112648987,0.996220685142,-1.4413870606e-11,0.0297312619575
1423459295888462455,0,1423459295888333709,10.7787723541,0.522231757641,11.1930189133,0.080628256373,0.996281581069,-1.44380523877e-11,0.0303660253818
1423459295908436772,0,1423459295908331191,10.8160667419,0.510438680649,11.1735620499,0.0797251858299,0.9963314294,-1.4465365392e-11,0.0311059083406
1423459295908636158,0,1423459295908390018,10.8657951355,0.494074493647,11.1390352249,0.078614828944,0.996384429135,-1.44898054585e-11,0.0322145626656
1423459295928458269,0,1423459295928323069,10.9207344055,0.459235221148,11.1084041595,0.077054215169,0.996453762583,-1.45328937436e-11,0.0338015822053
1423459295948437058,0,1423459295948324731,10.9351501465,0.487838804722,11.1162452698,0.0771924770466,0.996432690679,-1.45230670993e-11,0.0341059295978
1423459295968474037,0,1423459295968331458,10.9398880005,0.51847922802,11.1356372833,0.0777740992315,0.996400219191,-1.4507675176e-11,0.0337311826708
1423459295988454507,0,1423459295988321621,10.9695053101,0.541663110256,11.1705198288,0.0770637312713,0.996459407787,-1.44918888096e-11,0.0336129432654
1423459296008460284,0,1423459296008335330,11.0171394348,0.553708970547,11.2210474014,0.0758260820844,0.9965570433,-1.44900198934e-11,0.0335330393033
1423459296008642833,0,1423459296008388686,11.0409851074,0.601920247078,11.2897911072,0.0759285501203,0.996544479525,-1.44593453706e-11,0.0336742573039
1423459296028423175,0,1423459296028323394,11.0522499084,0.623342990875,11.404759407,0.0760645857474,0.996513909352,-1.44493259111e-11,0.0342667077912
1423459296048516659,0,1423459296048360918,11.0549144745,0.684919238091,11.5275402069,0.0771441869146,0.996434188774,-1.44172828171e-11,0.0341713603386
1423459296068525950,0,1423459296068327854,11.0808229446,0.71130156517,11.62707901,0.07642694188,0.996495595896,-1.4405236133e-11,0.0339919095631
1423459296088521036,0,1423459296088326524,11.098074913,0.665561616421,11.652182579,0.0752738001474,0.996566294454,-1.44313382253e-11,0.0344887774301
1423459296108476768,0,1423459296108326379,11.0956220627,0.630894780159,11.6012659073,0.0740646776288,0.996632866913,-1.4466050135e-11,0.0351760162199
1423459296108524414,0,1423459296108369907,11.0542154312,0.671155571938,11.5197534561,0.074836706574,0.996574747017,-1.44560114578e-11,0.0351886481432
1423459296128475208,0,1423459296128335421,11.0058946609,0.671238183975,11.4622335434,0.0765301398233,0.996443085268,-1.44550594901e-11,0.0352748567603
1423459296148475041,0,1423459296148326089,10.9859867096,0.66227388382,11.4664039612,0.0770209138468,0.996404123394,-1.44645019954e-11,0.0353072473165
1423459296168473953,0,1423459296168325577,10.9919433594,0.699118316174,11.454864502,0.0765133324253,0.996449205533,-1.44538282371e-11,0.035138166636
1423459296188463153,0,1423459296188325644,11.0065422058,0.754447996616,11.3787031174,0.0760094696363,0.996502134028,-1.4428834949e-11,0.0347283371855
1423459296208496444,0,1423459296208326096,11.0326404572,0.749119579792,11.2666692734,0.0752787909582,0.996567982003,-1.44158246256e-11,0.0344290702603
1423459296208571697,0,1423459296208395229,11.0709152222,0.718251347542,11.2182807922,0.0738807407617,0.996684329706,-1.44277646474e-11,0.0340878726706
1423459296228538036,0,1423459296228322343,11.0948581696,0.74775415659,11.2152271271,0.0725779135154,0.996812072482,-1.44094466526e-11,0.0331381747096
1423459296248598522,0,1423459296248425846,11.0859031677,0.76187813282,11.2454948425,0.0729684858887,0.996819670686,-1.43957949992e-11,0.0320334856022
1423459296268736644,0,1423459296268372670,11.0781908035,0.733824133873,11.2970056534,0.0735654496044,0.996788823842,-1.4405989722e-11,0.0316253899392
1423459296288457569,0,1423459296288316498,11.0806360245,0.705228865147,11.343091011,0.0741043573484,0.996752723961,-1.44143153121e-11,0.0315047853169
1423459296308522862,0,1423459296308350536,11.1015396118,0.668671667576,11.3765897751,0.0743698081719,0.996727831865,-1.44231315505e-11,0.0316663988968
1423459296308670941,0,1423459296308406587,11.1464710236,0.654997110367,11.3641042709,0.074021436575,0.996751866402,-1.44259982429e-11,0.0317260736836
1423459296328534598,0,1423459296328331099,11.2002134323,0.676557183266,11.3291044235,0.073317641649,0.996804275096,-1.44149190114e-11,0.031713728456
1423459296348501663,0,1423459296348323286,11.2726049423,0.71701925993,11.2702913284,0.0717286979725,0.996918375957,-1.43874132381e-11,0.0317607551172
1423459296368525037,0,1423459296368329108,11.337685585,0.760542452335,11.221613884,0.0700027571414,0.997038186486,-1.4356904619e-11,0.0318507249636
1423459296388493847,0,1423459296388335493,11.3525791168,0.776657760143,11.2308006287,0.0700828105189,0.997043482094,-1.43445166282e-11,0.0315070545056
1423459296408552701,0,1423459296408327618,11.3540735245,0.723842561245,11.2672615051,0.0702097509556,0.997031042531,-1.43756251732e-11,0.0316178920843
1423459296408559157,0,1423459296408375779,11.3535289764,0.677466332912,11.3109102249,0.070236860844,0.997032668744,-1.44046673963e-11,0.0315062031341
1423459296428514749,0,1423459296428326078,11.3622846603,0.658779621124,11.3383045197,0.069985512484,0.997067810649,-1.44171144369e-11,0.0309484896292
1423459296448516430,0,1423459296448324596,11.3768587112,0.646066725254,11.3565797806,0.0696965101828,0.997102220358,-1.4425997719e-11,0.0304886638936
1423459296468520704,0,1423459296468328018,11.3776655197,0.595231533051,11.3797779083,0.069626848487,0.997093934401,-1.44705441721e-11,0.0309158203899
1423459296488503103,0,1423459296488319649,11.3421211243,0.57049125433,11.4460325241,0.0715767762883,0.99695154793,-1.44833429389e-11,0.0310544066991
1423459296508481258,0,1423459296508343702,11.3183088303,0.563117146492,11.5580644608,0.0725756447329,0.996873982145,-1.44876530673e-11,0.0312256227116
1423459296508619987,0,1423459296508397813,11.3155260086,0.58978420496,11.6255455017,0.0723964201875,0.996906678394,-1.44717884064e-11,0.0305913863222
1423459296528468250,0,1423459296528326554,11.3085241318,0.580659985542,11.6076068878,0.0719763017822,0.996952062051,-1.44652039539e-11,0.0300997998866
1423459296548511750,0,1423459296548322034,11.2857046127,0.588442564011,11.5402212143,0.0723200030511,0.996949097793,-1.44564067305e-11,0.0293651761215
1423459296568421907,0,1423459296568303527,11.2710704803,0.618843078613,11.491314888,0.0730806492291,0.996905892651,-1.44253389411e-11,0.0289458098327
1423459296588464511,0,1423459296588326355,11.275633812,0.604640722275,11.4823827744,0.072793024476,0.996919970715,-1.44244483351e-11,0.0291847147965
1423459296608433418,0,1423459296608330803,11.2877092361,0.589265227318,11.4743099213,0.0723579426092,0.996949525366,-1.44267560505e-11,0.0292569994057
1423459296608578781,0,1423459296608387820,11.3198070526,0.558685302734,11.4109315872,0.0716854410388,0.997005450263,-1.44347530522e-11,0.0290056837315
1423459296628459281,0,1423459296628331092,11.3870668411,0.476068526506,11.2694301605,0.0700350626258,0.997121853484,-1.44580487433e-11,0.029036172394
1423459296648460370,0,1423459296648337654,11.3999118805,0.40936294198,11.1751098633,0.0690168253132,0.997194265527,-1.44890454171e-11,0.0289874908149
1423459296668422569,0,1423459296668328141,11.3894786835,0.382404834032,11.1419830322,0.0691098290131,0.997182166645,-1.44908112313e-11,0.029181467715
1423459296688461251,0,1423459296688323321,11.3683652878,0.357488870621,11.1609983444,0.0695705004113,0.99714318048,-1.44978872891e-11,0.0294180742757
1423459296708434522,0,1423459296708330118,11.3507003784,0.369055569172,11.1990413666,0.070218723617,0.997105256945,-1.44952718989e-11,0.0291622603168
1423459296708642308,0,1423459296708385908,11.3463668823,0.427921175957,11.2395601273,0.0707393782062,0.997085449241,-1.44742634705e-11,0.0285752914597
1423459296728432254,0,1423459296728324991,11.3509283066,0.497075766325,11.2677183151,0.0714095115949,0.997064990142,-1.44436828415e-11,0.0276059248544
1423459296748418022,0,1423459296748323321,11.3780317307,0.512776255608,11.2813825607,0.0711871554013,0.997089373733,-1.44470827808e-11,0.0272977965268
1423459296768439010,0,1423459296768343360,11.4210586548,0.498098105192,11.2692651749,0.0702495589164,0.99713969159,-1.44714484805e-11,0.0278825201216
1423459296788464141,0,1423459296788327078,11.4753713608,0.488773494959,11.2346200943,0.0689982148704,0.997206242273,-1.44891040686e-11,0.028617419793
1423459296808440979,0,1423459296808327061,11.5365343094,0.449577987194,11.1877632141,0.067636550462,0.997258476923,-1.45238003572e-11,0.0300137842859
1423459296808585257,0,1423459296808391771,11.5881290436,0.421945393085,11.1742086411,0.065907779561,0.997333374744,-1.45554335639e-11,0.0313417327875
1423459296828450050,0,1423459296828326623,11.596247673,0.455724954605,11.1976547241,0.0661053716672,0.997323400189,-1.45368064538e-11,0.0312428435202
1423459296848476993,0,1423459296848335527,11.5962381363,0.474896579981,11.2129192352,0.066468025472,0.997307258229,-1.45238365949e-11,0.030987647105
1423459296868445391,0,1423459296868326553,11.5995616913,0.468494176865,11.2175235748,0.0666250488835,0.997302883412,-1.45213064034e-11,0.0307906089428
1423459296888481151,0,1423459296888334962,11.6079339981,0.494408994913,11.2253570557,0.0667978199814,0.997315014901,-1.45011689166e-11,0.0300135352474
1423459296908934961,0,1423459296908329247,11.616941452,0.560878157616,11.2605381012,0.0677381330581,0.997281947988,-1.44514730825e-11,0.0289872652449
1423459296908972582,0,1423459296908392666,11.6400346756,0.593986093998,11.3517847061,0.067478707235,0.997307812671,-1.44335370275e-11,0.0287010601859
1423459296928486224,0,1423459296928327965,11.6330137253,0.682774484158,11.4575986862,0.0681089790084,0.997252337707,-1.43922480912e-11,0.0291366078536
1423459296948477750,0,1423459296948339120,11.6055040359,0.720417261124,11.5194425583,0.0701936167397,0.997101156898,-1.43720738105e-11,0.0293622049813
1423459296968423170,0,1423459296968320643,11.6230239868,0.660699009895,11.5500955582,0.0688372298139,0.997169769797,-1.44191191673e-11,0.0302305473812
1423459296988457287,0,1423459296988327220,11.6391124725,0.622318744659,11.5311899185,0.0664661946279,0.997303118053,-1.44516503087e-11,0.0311245191813
1423459297008440878,0,1423459297008338114,11.5890130997,0.634683132172,11.4636087418,0.0673426971994,0.997234041364,-1.44517133054e-11,0.0314519932359
1423459297008598955,0,1423459297008403899,11.5086784363,0.672539293766,11.3822870255,0.0702881535936,0.997032629414,-1.44345231096e-11,0.0313928550457
1423459297028416406,0,1423459297028318453,11.4398736954,0.690744400024,11.3327980042,0.0725919877594,0.996862832453,-1.44238129282e-11,0.0315419813461
1423459297048465084,0,1423459297048333361,11.4391584396,0.715325057507,11.3205842972,0.0717812712907,0.996922192167,-1.44161438569e-11,0.0315212921261
1423459297068466218,0,1423459297068325174,11.4481105804,0.770570218563,11.2766571045,0.0709667600267,0.996995340177,-1.4389918204e-11,0.0310485206755
1423459297088466857,0,1423459297088318123,11.4698038101,0.756232440472,11.2098522186,0.0701986693687,0.997066784002,-1.43826263422e-11,0.0304954924307
1423459297108497552,0,1423459297108330230,11.5058813095,0.719441652298,11.1698598862,0.0690777937673,0.997160595886,-1.43977200137e-11,0.029983402401
1423459297108542995,0,1423459297108383744,11.5459423065,0.756305336952,11.1641645432,0.0676071360725,0.997293502064,-1.4377759459e-11,0.0288954303294
1423459297128490281,0,1423459297128332558,11.5625076294,0.783673048019,11.1777772903,0.0672140547415,0.9973614643,-1.43574159608e-11,0.0274295529279
1423459297148450281,0,1423459297148326513,11.5781450272,0.763749182224,11.2074604034,0.0674920407747,0.997358031005,-1.43678976008e-11,0.026866008684
1423459297168433733,0,1423459297168324290,11.6083488464,0.732339143753,11.2383728027,0.0675156934648,0.997356561682,-1.43810545569e-11,0.0268611244281
1423459297188510900,0,1423459297188326824,11.6827039719,0.683207035065,11.26130867,0.0669570517498,0.997388674396,-1.43952996298e-11,0.0270663149865
1423459297208432815,0,1423459297208321074,11.764796257,0.676409125328,11.2381896973,0.0658756546863,0.997458765494,-1.43974859261e-11,0.0271368616314
1423459297208511438,0,1423459297208364474,11.8316917419,0.714040160179,11.1945819855,0.0649829396022,0.99751872893,-1.43799409029e-11,0.027085106526
1423459297228454286,0,1423459297228326785,11.9041070938,0.75298178196,11.1426029205,0.0635133422842,0.997613585441,-1.43547249637e-11,0.027077472109
1423459297248432377,0,1423459297248319911,11.9612035751,0.793951332569,11.1086492538,0.0622289518691,0.997694891931,-1.43276397774e-11,0.0270640012532
1423459297268456570,0,1423459297268339819,11.9730834961,0.788416862488,11.1202392578,0.0621604977371,0.997692660908,-1.43224132289e-11,0.0273025070548
1423459297288447170,0,1423459297288325312,11.9749298096,0.733246445656,11.1585359573,0.0622638984003,0.99768413589,-1.43487424887e-11,0.027378311643
1423459297308446305,0,1423459297308340069,11.9834012985,0.679994642735,11.2122583389,0.0618898936573,0.997711565407,-1.43731066941e-11,0.0272263349741
1423459297308463711,0,1423459297308390265,11.9996833801,0.650489509106,11.2707166672,0.0610994623809,0.997782855198,-1.43900675257e-11,0.0263861624486
1423459297328442982,0,1423459297328324898,12.0160455704,0.623815834522,11.3061542511,0.0604788126756,0.997844522852,-1.43991889734e-11,0.025468047267
1423459297348486574,0,1423459297348326896,12.0133037567,0.519549846649,11.3488988876,0.0604394695449,0.997840563312,-1.44561840776e-11,0.0257153792665
1423459297368457318,0,1423459297368320514,11.9705018997,0.455509215593,11.4296579361,0.0622304095899,0.99770834551,-1.44887004414e-11,0.026559996661
1423459297388468971,0,1423459297388335321,11.9460697174,0.462181150913,11.5230903625,0.0643838499574,0.997571938596,-1.44766415802e-11,0.0265508416247
1423459297408533199,0,1423459297408384662,11.9649353027,0.472896248102,11.6069154739,0.0634911078361,0.997638193094,-1.44605610378e-11,0.0262090615142
1423459297408590731,0,1423459297408444816,11.9717063904,0.453273057938,11.6072006226,0.0626450461287,0.997705912025,-1.44554820397e-11,0.0256614751283
1423459297428480191,0,1423459297428317867,11.952703476,0.440497130156,11.5551691055,0.0630085191002,0.997697926746,-1.44530974489e-11,0.0250753561726
1423459297448459329,0,1423459297448316499,11.9399147034,0.488518953323,11.5042495728,0.0635339073213,0.997688089668,-1.44184051021e-11,0.0241229839552
1423459297468480001,0,1423459297468322145,11.9353933334,0.494196921587,11.4836435318,0.0636979272054,0.997688417064,-1.44048727349e-11,0.0236726958071
1423459297488472612,0,1423459297488315853,11.9379844666,0.481201797724,11.4823589325,0.0632934171675,0.997716047921,-1.44128019344e-11,0.0235930299944
1423459297508485804,0,1423459297508332505,11.948972702,0.452734768391,11.4536962509,0.0629307056942,0.997733462949,-1.44271110257e-11,0.0238256834663
1423459297508496223,0,1423459297508394829,11.999753952,0.392079293728,11.350279808,0.0618212919373,0.997798906708,-1.44430784814e-11,0.0239889482083
1423459297528478106,0,1423459297528319334,12.0542354584,0.266224533319,11.2374505997,0.0594162527035,0.997919582918,-1.45078249359e-11,0.0250242870798
1423459297548485684,0,1423459297548314094,12.0606498718,0.224586606026,11.2019901276,0.0590644497038,0.99791530557,-1.45252312644e-11,0.0260083388733
1423459297568476306,0,1423459297568323436,12.0616464615,0.223157137632,11.1943035126,0.0597112271167,0.997872983394,-1.45187430389e-11,0.0261548918831
1423459297588486108,0,1423459297588322427,12.0895738602,0.246165856719,11.2144498825,0.0594126956923,0.997901994178,-1.45052290671e-11,0.0257243388069
1423459297608467819,0,1423459297608319204,12.1239681244,0.274232834578,11.2399187088,0.0588656163536,0.997936844462,-1.44916352101e-11,0.0256299371202
1423459297608538563,0,1423459297608364264,12.1534738541,0.299581587315,11.2639322281,0.0585219647289,0.997959661948,-1.44861764091e-11,0.0255282739121
1423459297628490791,0,1423459297628328706,12.1809234619,0.332056164742,11.2786931992,0.0585691067882,0.99796440712,-1.44799664675e-11,0.0252329516944
1423459297648472660,0,1423459297648319020,12.2282123566,0.340321093798,11.2660236359,0.0581302313125,0.997993298893,-1.44874511396e-11,0.0251048117322
1423459297668503348,0,1423459297668322426,12.2837305069,0.330709755421,11.231133461,0.0572252319356,0.99804252711,-1.45036978329e-11,0.0252267102561
1423459297688478426,0,1423459297688321206,12.3381099701,0.317260235548,11.1957426071,0.0557290199319,0.998119313247,-1.45273897162e-11,0.0255365005748
1423459297708490668,0,1423459297708321178,12.3771238327,0.303373008966,11.1842517853,0.0545121383041,0.998181773659,-1.45438605962e-11,0.0257210713555
1423459297708516956,0,1423459297708369537,12.3822650909,0.320036411285,11.1990594864,0.0544170699645,0.998184396999,-1.45335986497e-11,0.0258203811918
1423459297728483248,0,1423459297728318149,12.3692626953,0.339917838573,11.2180290222,0.0550564445712,0.998154437997,-1.45188129816e-11,0.0256223694778
1423459297748502268,0,1423459297748317333,12.356669426,0.330613642931,11.2219581604,0.0554096138619,0.998129477341,-1.45183744191e-11,0.0258325599599
1423459297768540962,0,1423459297768321931,12.3322229385,0.345490753651,11.2119588852,0.0564138483206,0.998089064229,-1.45041093791e-11,0.025213043946
1423459297788474579,0,1423459297788325104,12.3191289902,0.389548391104,11.2198505402,0.0576022519345,0.998040843129,-1.44686197085e-11,0.024422449067
1423459297808469577,0,1423459297808325879,12.295592308,0.519389986992,11.2931690216,0.0585413851664,0.998043024551,-1.43867738915e-11,0.0219778836111
1423459297808481388,0,1423459297808380639,12.2500753403,0.580609679222,11.4017438889,0.0611170916605,0.997912731913,-1.43600583702e-11,0.0208537908496
1423459297828465090,0,1423459297828319668,12.2370662689,0.606728792191,11.5065221786,0.0615118536896,0.997871928531,-1.43553970425e-11,0.0216311373839
1423459297848465880,0,1423459297848327530,12.2481279373,0.59864616394,11.5575437546,0.0605845773932,0.997896982704,-1.43735946903e-11,0.0230460602448
1423459297868459239,0,1423459297868331105,12.253663063,0.579321622849,11.5396728516,0.0597050497375,0.997934061699,-1.43976606067e-11,0.0237258411009
1423459297888492021,0,1423459297888332076,12.2380256653,0.582493066788,11.4841480255,0.0598654847894,0.997932967157,-1.44016708325e-11,0.0233648623286
1423459297908477170,0,1423459297908330115,12.2169427872,0.565031528473,11.4304199219,0.0605020265929,0.997907398951,-1.44087681565e-11,0.0228106970032
1423459297908565350,0,1423459297908384906,12.2024936676,0.545063376427,11.4066162109,0.060582714871,0.997905823304,-1.44200424677e-11,0.0226650055012
1423459297928511056,0,1423459297928328401,12.1886348724,0.573659658432,11.3899869919,0.0607447669159,0.997895387823,-1.44048815957e-11,0.0226907085515
1423459297948499441,0,1423459297948323231,12.1845989227,0.64653968811,11.3170928955,0.060716849077,0.99790431287,-1.43710627831e-11,0.0223706636856
1423459297968493141,0,1423459297968326985,12.2054824829,0.665988862514,11.1812705994,0.0601338795699,0.997947639118,-1.4352808893e-11,0.0220096820981
1423459297988498825,0,1423459297988327228,12.2276725769,0.69225615263,11.0650005341,0.0589401886946,0.998034219871,-1.43471982118e-11,0.0213014112742
1423459298008486281,0,1423459298008337215,12.213344574,0.778928995132,11.0311508179,0.0593250118909,0.998032137236,-1.43023525341e-11,0.0203075357656
1423459298008638878,0,1423459298008385354,12.2012329102,0.809114336967,11.0460653305,0.0601480518909,0.997993165193,-1.42868134675e-11,0.0197953045356
1423459298028466073,0,1423459298028327588,12.194767952,0.771621882915,11.0864391327,0.0605672765921,0.997966168561,-1.43152311108e-11,0.0198779127157
1423459298048437129,0,1423459298048327016,12.1819925308,0.738332390785,11.1255121231,0.0615821916906,0.997897437971,-1.43369687545e-11,0.0202073490895
1423459298068491570,0,1423459298068321684,12.1841268539,0.701630651951,11.161816597,0.062444767715,0.997832596883,-1.43558879179e-11,0.0207547484282
1423459298088462257,0,1423459298088326195,12.2237205505,0.66399294138,11.1791009903,0.0617206155701,0.99786545063,-1.43769544646e-11,0.0213332616542
1423459298108455511,0,1423459298108330039,12.2784042358,0.663186967373,11.1607780457,0.0602980136344,0.997945359725,-1.43761637288e-11,0.0216612224038
1423459298108540091,0,1423459298108384471,12.3269014359,0.710427701473,11.1165018082,0.0594015695351,0.998004966976,-1.43502379847e-11,0.0213901713115
1423459298128450828,0,1423459298128334215,12.3869085312,0.774404287338,11.0488300323,0.0585001915736,0.998066968817,-1.43157854364e-11,0.0209774484029
1423459298148460596,0,1423459298148326791,12.4376554489,0.80780518055,11.0178928375,0.057106923555,0.99815723308,-1.428191994e-11,0.0205167573521
1423459298168458075,0,1423459298168328470,12.451634407,0.756070911884,11.0550298691,0.0570065924633,0.998165317725,-1.42963108322e-11,0.0204021299634
1423459298188447767,0,1423459298188324281,12.4653568268,0.684464156628,11.1176357269,0.0567832178059,0.998183204866,-1.43259494558e-11,0.0201483423244
1423459298208455801,0,1423459298208329366,12.4918680191,0.65047878027,11.1753807068,0.0562507034429,0.998228359962,-1.43404861168e-11,0.0193907124703
1423459298208552337,0,1423459298208384353,12.5362911224,0.616448581219,11.2137956619,0.0554545998547,0.998280470382,-1.43509420875e-11,0.0189971000107
1423459298228473268,0,1423459298228325634,12.5870885849,0.555698573589,11.2456855774,0.0543865912432,0.998347611983,-1.43745715139e-11,0.0185511277324
1423459298248423034,0,1423459298248325138,12.6182994843,0.437979489565,11.2977514267,0.0541351468808,0.998351216402,-1.44459651239e-11,0.0190849307404
1423459298268484903,0,1423459298268344003,12.6224489212,0.452199906111,11.3944673538,0.0549534030836,0.998307773711,-1.44308414007e-11,0.0190187390962
1423459298288473929,0,1423459298288320983,12.6351203918,0.455009639263,11.470664978,0.0550167488009,0.998297770782,-1.44300061624e-11,0.0193576393984
1423459298308491446,0,1423459298308331308,12.6516695023,0.455569148064,11.4930143356,0.0543186726113,0.998334911224,-1.44234830248e-11,0.0194135735282
1423459298308597210,0,1423459298308386194,12.6534891129,0.444695204496,11.4557695389,0.0536629348059,0.99837806831,-1.44252399701e-11,0.0190137357172
1423459298328481431,0,1423459298328326954,12.6392679214,0.468689888716,11.394985199,0.0536636861246,0.998393011001,-1.44061466153e-11,0.0182100075689
1423459298348503104,0,1423459298348318293,12.6106300354,0.49120080471,11.3543901443,0.0544163884457,0.998367415536,-1.43861570662e-11,0.0173597311347
1423459298368457921,0,1423459298368322054,12.5917396545,0.474653244019,11.3473081589,0.0548103606415,0.998345427924,-1.43894478074e-11,0.0173847895967
1423459298388462700,0,1423459298388330852,12.589641571,0.445996046066,11.3263339996,0.0546448596038,0.998349439211,-1.44010978832e-11,0.0176730457263
1423459298408429012,0,1423459298408327946,12.6175928116,0.377815574408,11.2499885559,0.0538011953898,0.998388547599,-1.44190190648e-11,0.0180482519166
1423459298408444417,0,1423459298408373833,12.657034874,0.242913633585,11.1388034821,0.0521755964282,0.998450536042,-1.44766090728e-11,0.0193451341338
1423459298428455824,0,1423459298428325524,12.669757843,0.199220344424,11.0894594193,0.0512889080968,0.998482651742,-1.44960915862e-11,0.020045999035
1423459298448443821,0,1423459298448321238,12.6640300751,0.162892773747,11.0808582306,0.0518191992913,0.998446282101,-1.45073288821e-11,0.0204888346023
1423459298468437332,0,1423459298468325879,12.687962532,0.180208519101,11.1035232544,0.0515378465336,0.998456676082,-1.44978019549e-11,0.0206909729486
1423459298488502247,0,1423459298488325872,12.7205638885,0.211258709431,11.1325120926,0.0509141834833,0.998481794219,-1.44870704094e-11,0.0210202886307
1423459298508449865,0,1423459298508342392,12.7541151047,0.233954355121,11.1519126892,0.0506471519379,0.998491650011,-1.44881624466e-11,0.0211964822456
1423459298508465537,0,1423459298508399918,12.7874526978,0.262021034956,11.1628913879,0.050722010131,0.998488619186,-1.44873998597e-11,0.0211602231496
1423459298528419306,0,1423459298528325035,12.8423404694,0.27839294076,11.1531200409,0.0503747883495,0.998508324772,-1.44938423543e-11,0.0210595835803
1423459298548478777,0,1423459298548326953,12.9170532227,0.277974158525,11.1169271469,0.0488386107924,0.998585185903,-1.4515072994e-11,0.0210337013153
1423459298568425964,0,1423459298568329371,12.9823322296,0.254146158695,11.0811309814,0.0473414846497,0.998645353295,-1.45376839681e-11,0.0215926416302
1423459298588435479,0,1423459298588323303,13.0291252136,0.234746843576,11.0667142868,0.0461845784368,0.998701790599,-1.45560547429e-11,0.0214876282742
1423459298608459980,0,1423459298608329356,13.0430498123,0.238775774837,11.0738687515,0.0460894595874,0.998699095751,-1.4550231268e-11,0.0218146249515
1423459298608598932,0,1423459298608385606,13.0313358307,0.259621232748,11.0923576355,0.0468176307245,0.998666287275,-1.4534571956e-11,0.0217659392827
1423459298628620141,0,1423459298628462890,13.0103464127,0.265059202909,11.0995359421,0.0474642295496,0.998634591096,-1.45274762602e-11,0.0218197245806
1423459298648451657,0,1423459298648315331,12.9788188934,0.279024720192,11.0871715546,0.0490109045217,0.998566295537,-1.45125504509e-11,0.0215240483027
1423459298668418039,0,1423459298668323755,12.956656456,0.319627225399,11.1155109406,0.0498076908682,0.998545899629,-1.44946585266e-11,0.0206223244066
1423459298688470893,0,1423459298688319245,12.8977222443,0.460264652967,11.2106742859,0.0521181467969,0.998468752182,-1.44076814879e-11,0.0185431844887
1423459298708479403,0,1423459298708320034,12.8448610306,0.518910646439,11.3162889481,0.0543365395236,0.998364895733,-1.43868431164e-11,0.0177503645055
1423459298708491714,0,1423459298708363553,12.8164739609,0.576642751694,11.3956813812,0.0548491588695,0.998317939758,-1.43790522524e-11,0.0187845928524
1423459298728482235,0,1423459298728317839,12.7969703674,0.590090692043,11.4269399643,0.0553309512865,0.998263718988,-1.43846739456e-11,0.0201998312159
1423459298748465988,0,1423459298748315383,12.7980117798,0.537161767483,11.4072799683,0.054491972977,0.998290754563,-1.44320805137e-11,0.0211233102515
1423459298768493364,0,1423459298768337480,12.7842235565,0.537169694901,11.361120224,0.0543807851567,0.998307289815,-1.44417535457e-11,0.0206224466978
1423459298788442919,0,1423459298788320787,12.7563447952,0.509852826595,11.3121042252,0.0551262559396,0.99826971806,-1.44567912789e-11,0.0204613271773
