%time,field.header.seq,field.header.stamp,field.pose.position.x,field.pose.position.y,field.pose.position.z,field.pose.orientation.x,field.pose.orientation.y,field.pose.orientation.z,field.pose.orientation.w
1423459292441399505,1,1423459292403201103,0.302,0.039,0.25,0.0,0.0,0.0,1.0
1423459292654998028,2,1423459292633949041,0.302,0.039,0.25,0.0,0.0,0.0,1.0
1423459292868537227,3,1423459292865796089,0.302,0.04,0.25,0.0,0.0,0.0,1.0
1423459293132271675,4,1423459293093580007,0.302,0.04,0.25,0.0,0.0,0.0,1.0
1423459293345927779,5,1423459293326256036,0.302,0.039,0.25,0.0,0.0,0.0,1.0
1423459293559614119,6,1423459293555082082,0.302,0.039,0.25,0.0,0.0,0.0,1.0
1423459293823247366,7,1423459293784799098,0.302,0.039,0.25,0.0,0.0,0.0,1.0
1423459294036862969,8,1423459294014662027,0.302,0.039,0.25,0.0,0.0,0.0,1.0
1423459294250450363,9,1423459294244326114,0.302,0.04,0.25,0.0,0.0,0.0,1.0
1423459294514140843,10,1423459294484049081,0.302,0.039,0.25,0.0,0.0,0.0,1.0
1423459294777853256,11,1423459294731822013,0.302,0.04,0.25,0.0,0.0,0.0,1.0
1423459294991501779,12,1423459294964553117,0.302,0.04,0.25,0.0,0.0,0.0,1.0
1423459295205066434,13,1423459295195245981,0.312,0.034,0.246,0.0,0.0,0.0,1.0
1423459295669064212,14,1423459295663795948,0.32,0.038,0.25,0.0,0.0,0.0,1.0
1423459295932769640,15,1423459295903482913,0.313,0.035,0.243,0.0,0.0,0.0,1.0
1423459296196434358,16,1423459296157150030,0.321,0.04,0.253,0.0,0.0,0.0,1.0
1423459296860587469,17,1423459296854435920,0.326,0.035,0.245,0.0,0.0,0.0,1.0
1423459297124371726,18,1423459297094218015,0.333,0.042,0.257,0.0,0.0,0.0,1.0
1423459297338101896,19,1423459297336903095,0.337,0.042,0.25,0.0,0.0,0.0,1.0
1423459297601779459,20,1423459297573771953,0.338,0.04,0.256,0.0,0.0,0.0,1.0
1423459297815433450,21,1423459297804498910,0.349,0.036,0.25,0.0,0.0,0.0,1.0
1423459298079267163,22,1423459298034257888,0.343,0.037,0.259,0.0,0.0,0.0,1.0
1423459298292937361,23,1423459298266072988,0.349,0.041,0.249,0.0,0.0,0.0,1.0
1423459298506671756,24,1423459298493834018,0.352,0.035,0.254,0.0,0.0,0.0,1.0
1423459298770450103,25,1423459298733525037,0.362,0.032,0.254,0.0,0.0,0.0,1.0
1423459299234455385,26,1423459299215051889,0.364,0.042,0.251,0.0,0.0,0.0,1.0
1423459299448047070,27,1423459299444828987,0.365,0.03,0.247,0.0,0.0,0.0,1.0
1423459299912067429,28,1423459299904366016,0.369,0.039,0.245,0.0,0.0,0.0,1.0
1423459300376035477,29,1423459300375772953,0.377,0.029,0.244,0.0,0.0,0.0,1.0
1423459300840009310,30,1423459300834270000,0.381,0.039,0.246,0.0,0.0,0.0,1.0
1423459301103717064,31,1423459301066014051,0.392,0.038,0.257,0.0,0.0,0.0,1.0
1423459301317359381,32,1423459301293842077,0.393,0.031,0.251,0.0,0.0,0.0,1.0
1423459301580984688,33,1423459301543513059,0.398,0.038,0.257,0.0,0.0,0.0,1.0
1423459301794647433,34,1423459301774277925,0.402,0.038,0.251,0.0,0.0,0.0,1.0
1423459302058356493,35,1423459302016027927,0.402,0.035,0.252,0.0,0.0,0.0,1.0
1423459302271981512,36,1423459302256777048,0.41,0.036,0.251,0.0,0.0,0.0,1.0
1423459302485654674,37,1423459302475564956,0.407,0.035,0.251,0.0,0.0,0.0,1.0
1423459302749262017,38,1423459302728370904,0.415,0.04,0.25,0.0,0.0,0.0,1.0
1423459303063074282,39,1423459303021066904,0.412,0.033,0.241,0.0,0.0,0.0,1.0
1423459303627106342,40,1423459303625416040,0.426,0.044,0.252,0.0,0.0,0.0,1.0
1423459303890824671,41,1423459303854198932,0.424,0.036,0.243,0.0,0.0,0.0,1.0
1423459304354774791,42,1423459304316687107,0.429,0.043,0.246,0.0,0.0,0.0,1.0
1423459304818760115,43,1423459304784216880,0.432,0.038,0.248,0.0,0.0,0.0,1.0
1423459305032353999,44,1423459305025002956,0.444,0.046,0.258,0.0,0.0,0.0,1.0
1423459305296002225,45,1423459305265678882,0.443,0.045,0.252,0.0,0.0,0.0,1.0
1423459305509613334,46,1423459305504508018,0.437,0.045,0.255,0.0,0.0,0.0,1.0
1423459305773497087,47,1423459305749192953,0.443,0.041,0.252,0.0,0.0,0.0,1.0
1423459305987150834,48,1423459305984929084,0.445,0.043,0.251,0.0,0.0,0.0,1.0
1423459306250948677,49,1423459306228667974,0.458,0.046,0.251,0.0,0.0,0.0,1.0
1423459306514682509,50,1423459306465434074,0.448,0.039,0.244,0.0,0.0,0.0,1.0
1423459306778396362,51,1423459306737147092,0.455,0.041,0.254,0.0,0.0,0.0,1.0
1423459306941954319,52,1423459306940974950,0.456,0.051,0.253,0.0,0.0,0.0,1.0
1423459307405933065,53,1423459307394453048,0.463,0.043,0.245,0.0,0.0,0.0,1.0
1423459307920001810,54,1423459307886993885,0.472,0.051,0.249,0.0,0.0,0.0,1.0
1423459308133740902,55,1423459308127712011,0.476,0.051,0.253,0.0,0.0,0.0,1.0
1423459308397489411,56,1423459308355456113,0.474,0.043,0.243,0.0,0.0,0.0,1.0
1423459309312140339,57,1423459309283417940,0.489,0.049,0.25,0.0,0.0,0.0,1.0
1423459309575854542,58,1423459309528140068,0.492,0.053,0.253,0.0,0.0,0.0,1.0
1423459309989697975,59,1423459309984617948,0.496,0.051,0.25,0.0,0.0,0.0,1.0
1423459310253401270,60,1423459310225404977,0.505,0.05,0.251,0.0,0.0,0.0,1.0
1423459310467087876,61,1423459310465233087,0.5,0.052,0.245,0.0,0.0,0.0,1.0
1423459310981152341,62,1423459310967622041,0.511,0.052,0.25,0.0,0.0,0.0,1.0
1423459311445203455,63,1423459311424206972,0.516,0.057,0.247,0.0,0.0,0.0,1.0
1423459311658910365,64,1423459311655945062,0.524,0.057,0.253,0.0,0.0,0.0,1.0
1423459311922548873,65,1423459311886699914,0.522,0.052,0.243,0.0,0.0,0.0,1.0
1423459312136318684,66,1423459312120538949,0.529,0.059,0.258,0.0,0.0,0.0,1.0
1423459312350068392,67,1423459312347251892,0.533,0.06,0.251,0.0,0.0,0.0,1.0
1423459312613807774,68,1423459312575016975,0.534,0.06,0.255,0.0,0.0,0.0,1.0
1423459312827442392,69,1423459312814769029,0.534,0.056,0.247,0.0,0.0,0.0,1.0
1423459313091137913,70,1423459313046463966,0.538,0.06,0.253,0.0,0.0,0.0,1.0
1423459313404892582,71,1423459313357223033,0.546,0.061,0.251,0.0,0.0,0.0,1.0
1423459313618613498,72,1423459313594928026,0.543,0.056,0.247,0.0,0.0,0.0,1.0
1423459314333016623,73,1423459314294109106,0.553,0.064,0.256,0.0,0.0,0.0,1.0
1423459314546686290,74,1423459314537905931,0.558,0.06,0.25,0.0,0.0,0.0,1.0
1423459314810395209,75,1423459314776606082,0.56,0.062,0.255,0.0,0.0,0.0,1.0
1423459315024048053,76,1423459315015438079,0.56,0.064,0.246,0.0,0.0,0.0,1.0
1423459315287809953,77,1423459315244250059,0.563,0.063,0.25,0.0,0.0,0.0,1.0
1423459315501474174,78,1423459315474988937,0.57,0.06,0.251,0.0,0.0,0.0,1.0
1423459315965461129,79,1423459315935605049,0.58,0.065,0.251,0.0,0.0,0.0,1.0
1423459316179094780,80,1423459316176275014,0.575,0.06,0.243,0.0,0.0,0.0,1.0
1423459316693229753,81,1423459316644893884,0.581,0.063,0.246,0.0,0.0,0.0,1.0
1423459317107194009,82,1423459317104371070,0.586,0.062,0.244,0.0,0.0,0.0,1.0
1423459317370994716,83,1423459317338125944,0.595,0.067,0.255,0.0,0.0,0.0,1.0
1423459317584637220,84,1423459317574896097,0.593,0.068,0.249,0.0,0.0,0.0,1.0
1423459317848347201,85,1423459317814666986,0.598,0.069,0.257,0.0,0.0,0.0,1.0
1423459318062021233,86,1423459318045358896,0.599,0.068,0.252,0.0,0.0,0.0,1.0
1423459318526006678,87,1423459318504925966,0.605,0.071,0.25,0.0,0.0,0.0,1.0
1423459318789749821,88,1423459318754648923,0.605,0.072,0.256,0.0,0.0,0.0,1.0
1423459319003427834,89,1423459318984357118,0.611,0.068,0.25,0.0,0.0,0.0,1.0
1423459319217076009,90,1423459319216109037,0.613,0.07,0.256,0.0,0.0,0.0,1.0
1423459319480800059,91,1423459319444920063,0.612,0.068,0.247,0.0,0.0,0.0,1.0
1423459319694439476,92,1423459319674690961,0.617,0.072,0.254,0.0,0.0,0.0,1.0
1423459319908085954,93,1423459319902455091,0.624,0.069,0.252,0.0,0.0,0.0,1.0
1423459320171988448,94,1423459320137192010,0.622,0.071,0.249,0.0,0.0,0.0,1.0
1423459320385662605,95,1423459320366920948,0.632,0.072,0.252,0.0,0.0,0.0,1.0
1423459320599364540,96,1423459320595668077,0.631,0.071,0.25,0.0,0.0,0.0,1.0
1423459321514010481,97,1423459321513676881,0.641,0.07,0.245,0.0,0.0,0.0,1.0
1423459322028103879,98,1423459321985184907,0.646,0.079,0.252,0.0,0.0,0.0,1.0
1423459322241782952,99,1423459322214869022,0.652,0.077,0.255,0.0,0.0,0.0,1.0
1423459322455445073,100,1423459322445729970,0.65,0.07,0.245,0.0,0.0,0.0,1.0
1423459322719202874,101,1423459322675548076,0.66,0.077,0.257,0.0,0.0,0.0,1.0
1423459322932866183,102,1423459322904208898,0.657,0.075,0.251,0.0,0.0,0.0,1.0
1423459323146528769,103,1423459323136934995,0.661,0.078,0.257,0.0,0.0,0.0,1.0
1423459323410215908,104,1423459323365647077,0.663,0.076,0.254,0.0,0.0,0.0,1.0
1423459323874217072,105,1423459323835187911,0.673,0.08,0.251,0.0,0.0,0.0,1.0
1423459324087880173,106,1423459324074932098,0.671,0.082,0.254,0.0,0.0,0.0,1.0
1423459324351551490,107,1423459324315695047,0.679,0.078,0.251,0.0,0.0,0.0,1.0
1423459324565208899,108,1423459324557394981,0.681,0.082,0.259,0.0,0.0,0.0,1.0
1423459324828888039,109,1423459324795172929,0.686,0.081,0.252,0.0,0.0,0.0,1.0
1423459325042514197,110,1423459325024957895,0.682,0.076,0.243,0.0,0.0,0.0,1.0
1423459325506525875,111,1423459325505445003,0.685,0.081,0.245,0.0,0.0,0.0,1.0
1423459325770287997,112,1423459325743172883,0.693,0.084,0.253,0.0,0.0,0.0,1.0
1423459325983980098,113,1423459325964977979,0.692,0.078,0.249,0.0,0.0,0.0,1.0
1423459326247738952,114,1423459326206687927,0.699,0.086,0.26,0.0,0.0,0.0,1.0
1423459326461617430,115,1423459326435492038,0.699,0.084,0.251,0.0,0.0,0.0,1.0
1423459326675238357,116,1423459326670231103,0.703,0.089,0.255,0.0,0.0,0.0,1.0
1423459326939053453,117,1423459326903980016,0.703,0.082,0.249,0.0,0.0,0.0,1.0
1423459327152854418,118,1423459327137691974,0.707,0.091,0.257,0.0,0.0,0.0,1.0
1423459327366497137,119,1423459327365438938,0.708,0.093,0.25,0.0,0.0,0.0,1.0
1423459327630268476,120,1423459327605248928,0.71,0.092,0.253,0.0,0.0,0.0,1.0
1423459327843848018,121,1423459327835058927,0.713,0.09,0.248,0.0,0.0,0.0,1.0
1423459328107615885,122,1423459328069767951,0.71,0.093,0.25,0.0,0.0,0.0,1.0
1423459328321295167,123,1423459328295548915,0.719,0.097,0.251,0.0,0.0,0.0,1.0
1423459328534929934,124,1423459328527316093,0.713,0.091,0.249,0.0,0.0,0.0,1.0
1423459328798681953,125,1423459328756079912,0.72,0.094,0.252,0.0,0.0,0.0,1.0
1423459329012430126,126,1423459329004790067,0.717,0.098,0.244,0.0,0.0,0.0,1.0
1423459329276240296,127,1423459329234568119,0.726,0.1,0.252,0.0,0.0,0.0,1.0
1423459329489897843,128,1423459329476272106,0.728,0.093,0.248,0.0,0.0,0.0,1.0
1423459330003902985,129,1423459329954685926,0.754,0.095,0.256,0.0,0.0,0.0,1.0
1423459330217544507,130,1423459330194478988,0.751,0.1,0.257,0.0,0.0,0.0,1.0
1423459330481214756,131,1423459330436223983,0.769,0.096,0.252,0.0,0.0,0.0,1.0
1423459330694829151,132,1423459330665045976,0.769,0.1,0.252,0.0,0.0,0.0,1.0
1423459330908625463,133,1423459330895747900,0.791,0.1,0.255,0.0,0.0,0.0,1.0
1423459331172249701,134,1423459331127458095,0.779,0.101,0.254,0.0,0.0,0.0,1.0
1423459331385934916,135,1423459331356273889,0.798,0.098,0.253,0.0,0.0,0.0,1.0
1423459331599742063,136,1423459331585056066,0.792,0.103,0.252,0.0,0.0,0.0,1.0
1423459331863553753,137,1423459331814774036,0.819,0.103,0.254,0.0,0.0,0.0,1.0
1423459332077204963,138,1423459332045511960,0.81,0.101,0.248,0.0,0.0,0.0,1.0
1423459332340862162,139,1423459332312258005,0.827,0.101,0.255,0.0,0.0,0.0,1.0
1423459332554546513,140,1423459332527038097,0.819,0.102,0.247,0.0,0.0,0.0,1.0
1423459333018582559,141,1423459333005462884,0.841,0.103,0.248,0.0,0.0,0.0,1.0
1423459333783029684,142,1423459333733632087,0.864,0.113,0.257,0.0,0.0,0.0,1.0
1423459333996782758,143,1423459333965475082,0.883,0.106,0.254,0.0,0.0,0.0,1.0
1423459334460903447,144,1423459334437974929,0.901,0.111,0.257,0.0,0.0,0.0,1.0
1423459334674470119,145,1423459334667737960,0.892,0.115,0.255,0.0,0.0,0.0,1.0
1423459334938158940,146,1423459334895502090,0.91,0.108,0.254,0.0,0.0,0.0,1.0
1423459335151791406,147,1423459335128252983,0.905,0.117,0.254,0.0,0.0,0.0,1.0
1423459335365468045,148,1423459335357048988,0.93,0.114,0.254,0.0,0.0,0.0,1.0
1423459335629162608,149,1423459335585769891,0.922,0.115,0.25,0.0,0.0,0.0,1.0
1423459335842789673,150,1423459335816510915,0.938,0.111,0.256,0.0,0.0,0.0,1.0
1423459336056451507,151,1423459336045295953,0.934,0.118,0.246,0.0,0.0,0.0,1.0
1423459336570516118,152,1423459336527844905,0.949,0.121,0.254,0.0,0.0,0.0,1.0
1423459336784165337,153,1423459336755518913,0.968,0.122,0.257,0.0,0.0,0.0,1.0
1423459336997913315,154,1423459336986268997,0.969,0.119,0.252,0.0,0.0,0.0,1.0
1423459337461872687,155,1423459337446770906,0.982,0.119,0.248,0.0,0.0,0.0,1.0
1423459337725601180,156,1423459337676561117,0.995,0.125,0.256,0.0,0.0,0.0,1.0
1423459338089403535,157,1423459338046107053,1.012,0.12,0.257,0.0,0.0,0.0,1.0
1423459338353122331,158,1423459338344765901,1.007,0.121,0.246,0.0,0.0,0.0,1.0
1423459338766957469,159,1423459338753334045,1.021,0.129,0.25,0.0,0.0,0.0,1.0
1423459339030603303,160,1423459339006066083,1.037,0.129,0.256,0.0,0.0,0.0,1.0
1423459339244189987,161,1423459339236825942,1.043,0.125,0.251,0.0,0.0,0.0,1.0
1423459339708227224,162,1423459339695355892,1.069,0.127,0.259,0.0,0.0,0.0,1.0
1423459339971859552,163,1423459339929011106,1.059,0.134,0.255,0.0,0.0,0.0,1.0
1423459340185467809,164,1423459340166723012,1.079,0.132,0.253,0.0,0.0,0.0,1.0
1423459340399152198,165,1423459340396538019,1.072,0.136,0.256,0.0,0.0,0.0,1.0
1423459340863222736,166,1423459340857131004,1.088,0.133,0.248,0.0,0.0,0.0,1.0
1423459341126878032,167,1423459341084954977,1.103,0.131,0.254,0.0,0.0,0.0,1.0
1423459341590845272,168,1423459341549398899,1.123,0.134,0.256,0.0,0.0,0.0,1.0
1423459341804493846,169,1423459341786076068,1.119,0.139,0.256,0.0,0.0,0.0,1.0
1423459342268428105,170,1423459342245732069,1.131,0.143,0.248,0.0,0.0,0.0,1.0
1423459342482048873,171,1423459342471407890,1.143,0.148,0.257,0.0,0.0,0.0,1.0
1423459342745727259,172,1423459342734241008,1.153,0.137,0.251,0.0,0.0,0.0,1.0
1423459343009401706,173,1423459342976914882,1.158,0.145,0.26,0.0,0.0,0.0,1.0
1423459343223062574,174,1423459343206614971,1.169,0.145,0.255,0.0,0.0,0.0,1.0
1423459343486784636,175,1423459343437395095,1.17,0.146,0.258,0.0,0.0,0.0,1.0
1423459343700374372,176,1423459343668201923,1.188,0.143,0.253,0.0,0.0,0.0,1.0
1423459343914221879,177,1423459343905916929,1.18,0.147,0.253,0.0,0.0,0.0,1.0
1423459344428265839,178,1423459344386409997,1.199,0.145,0.25,0.0,0.0,0.0,1.0
1423459344641917743,179,1423459344627264022,1.215,0.149,0.253,0.0,0.0,0.0,1.0
1423459344905609463,180,1423459344867918014,1.208,0.148,0.249,0.0,0.0,0.0,1.0
1423459345369556247,181,1423459345347423076,1.229,0.145,0.248,0.0,0.0,0.0,1.0
1423459346284170400,182,1423459346275352001,1.261,0.15,0.251,0.0,0.0,0.0,1.0
1423459346547962771,183,1423459346506091117,1.27,0.156,0.253,0.0,0.0,0.0,1.0
1423459346761660782,184,1423459346754913091,1.264,0.155,0.248,0.0,0.0,0.0,1.0
1423459347025439834,185,1423459346986664056,1.284,0.157,0.258,0.0,0.0,0.0,1.0
1423459347239202891,186,1423459347216408967,1.295,0.151,0.255,0.0,0.0,0.0,1.0
1423459347452834846,187,1423459347447134017,1.299,0.16,0.256,0.0,0.0,0.0,1.0
1423459347716547243,188,1423459347676943063,1.316,0.153,0.259,0.0,0.0,0.0,1.0
1423459347930193755,189,1423459347920695066,1.307,0.161,0.255,0.0,0.0,0.0,1.0
1423459348193901320,190,1423459348148453950,1.325,0.159,0.253,0.0,0.0,0.0,1.0
1423459348407590363,191,1423459348377157926,1.32,0.163,0.255,0.0,0.0,0.0,1.0
1423459348871582296,192,1423459348837694883,1.34,0.159,0.246,0.0,0.0,0.0,1.0
1423459349085217246,193,1423459349066467046,1.355,0.163,0.255,0.0,0.0,0.0,1.0
1423459349348964597,194,1423459349301162958,1.352,0.166,0.251,0.0,0.0,0.0,1.0
1423459349762902254,195,1423459349755722045,1.371,0.159,0.246,0.0,0.0,0.0,1.0
1423459350026597915,196,1423459349997435092,1.384,0.165,0.255,0.0,0.0,0.0,1.0
1423459350240244654,197,1423459350226253986,1.384,0.163,0.253,0.0,0.0,0.0,1.0
1423459350704270050,198,1423459350698729991,1.406,0.158,0.253,0.0,0.0,0.0,1.0
1423459350968078872,199,1423459350930476903,1.41,0.168,0.258,0.0,0.0,0.0,1.0
1423459351181868243,200,1423459351160203933,1.429,0.159,0.258,0.0,0.0,0.0,1.0
1423459351395538789,201,1423459351386876106,1.426,0.166,0.257,0.0,0.0,0.0,1.0
1423459351659355437,202,1423459351616712093,1.437,0.168,0.251,0.0,0.0,0.0,1.0
1423459351873298199,203,1423459351846404075,1.434,0.171,0.255,0.0,0.0,0.0,1.0
1423459352087049865,204,1423459352076169013,1.457,0.163,0.258,0.0,0.0,0.0,1.0
1423459352350782708,205,1423459352328826904,1.452,0.17,0.252,0.0,0.0,0.0,1.0
1423459352564436917,206,1423459352539716005,1.468,0.172,0.254,0.0,0.0,0.0,1.0
1423459352778084321,207,1423459352766470909,1.459,0.174,0.248,0.0,0.0,0.0,1.0
1423459353242078587,208,1423459353227998018,1.483,0.17,0.244,0.0,0.0,0.0,1.0
1423459353505817787,209,1423459353466686964,1.486,0.175,0.248,0.0,0.0,0.0,1.0
1423459353719502513,210,1423459353694550991,1.489,0.174,0.248,0.0,0.0,0.0,1.0
1423459354183476585,211,1423459354157083034,1.513,0.172,0.248,0.0,0.0,0.0,1.0
1423459354397349588,212,1423459354396739959,1.522,0.176,0.254,0.0,0.0,0.0,1.0
1423459354661386230,213,1423459354633521080,1.522,0.177,0.252,0.0,0.0,0.0,1.0
1423459354875010571,214,1423459354860285997,1.534,0.18,0.257,0.0,0.0,0.0,1.0
1423459355339009135,215,1423459355318795919,1.549,0.183,0.259,0.0,0.0,0.0,1.0
1423459355552617393,216,1423459355548609018,1.567,0.173,0.26,0.0,0.0,0.0,1.0
1423459356016561508,217,1423459356008063077,1.575,0.176,0.256,0.0,0.0,0.0,1.0
1423459356280385679,218,1423459356235807895,1.583,0.184,0.258,0.0,0.0,0.0,1.0
1423459356494090836,219,1423459356466626882,1.595,0.178,0.259,0.0,0.0,0.0,1.0
1423459356757807583,220,1423459356722265005,1.588,0.187,0.253,0.0,0.0,0.0,1.0
1423459356971521350,221,1423459356928127050,1.604,0.184,0.254,0.0,0.0,0.0,1.0
1423459357185192168,222,1423459357155872106,1.599,0.19,0.251,0.0,0.0,0.0,1.0
1423459357398858839,223,1423459357387608051,1.623,0.183,0.257,0.0,0.0,0.0,1.0
1423459357662604757,224,1423459357616427898,1.619,0.188,0.25,0.0,0.0,0.0,1.0
1423459357876273297,225,1423459357846168041,1.635,0.192,0.255,0.0,0.0,0.0,1.0
1423459358590565494,226,1423459358555423974,1.648,0.192,0.251,0.0,0.0,0.0,1.0
1423459358804218290,227,1423459358788203001,1.662,0.198,0.254,0.0,0.0,0.0,1.0
1423459359017869243,228,1423459359016927003,1.666,0.194,0.255,0.0,0.0,0.0,1.0
1423459359531966128,229,1423459359486491918,1.678,0.191,0.251,0.0,0.0,0.0,1.0
1423459359745724423,230,1423459359722177028,1.691,0.2,0.261,0.0,0.0,0.0,1.0
1423459359959584337,231,1423459359953998088,1.7,0.192,0.26,0.0,0.0,0.0,1.0
1423459360223430527,232,1423459360175719022,1.699,0.201,0.257,0.0,0.0,0.0,1.0
1423459360437117515,233,1423459360416476964,1.717,0.196,0.254,0.0,0.0,0.0,1.0
1423459360700936942,234,1423459360657202959,1.713,0.2,0.253,0.0,0.0,0.0,1.0
1423459360914678777,235,1423459360894965887,1.734,0.196,0.255,0.0,0.0,0.0,1.0
1423459361178498290,236,1423459361139620065,1.728,0.198,0.249,0.0,0.0,0.0,1.0
1423459361392374386,237,1423459361377424955,1.742,0.199,0.254,0.0,0.0,0.0,1.0
1423459361656279952,238,1423459361621119976,1.741,0.205,0.249,0.0,0.0,0.0,1.0
1423459362120228639,239,1423459362075683116,1.757,0.196,0.245,0.0,0.0,0.0,1.0
1423459362333828970,240,1423459362306435108,1.771,0.202,0.257,0.0,0.0,0.0,1.0
1423459362697622962,241,1423459362692060947,1.772,0.202,0.251,0.0,0.0,0.0,1.0
1423459362961342627,242,1423459362918808937,1.782,0.199,0.249,0.0,0.0,0.0,1.0
1423459363174957320,243,1423459363149552106,1.798,0.202,0.254,0.0,0.0,0.0,1.0
1423459363388697875,244,1423459363376394033,1.794,0.207,0.248,0.0,0.0,0.0,1.0
1423459363852900741,245,1423459363846896886,1.811,0.2,0.245,0.0,0.0,0.0,1.0
1423459364116628450,246,1423459364076621055,1.825,0.206,0.252,0.0,0.0,0.0,1.0
1423459364330337966,247,1423459364306395053,1.822,0.208,0.246,0.0,0.0,0.0,1.0
1423459364794520684,248,1423459364767901897,1.841,0.203,0.249,0.0,0.0,0.0,1.0
1423459365008221898,249,1423459364996638059,1.855,0.212,0.26,0.0,0.0,0.0,1.0
1423459365271966208,250,1423459365245347976,1.865,0.207,0.259,0.0,0.0,0.0,1.0
1423459365535580593,251,1423459365486146926,1.865,0.212,0.257,0.0,0.0,0.0,1.0
1423459365749227113,252,1423459365721848011,1.876,0.211,0.248,0.0,0.0,0.0,1.0
1423459365962913095,253,1423459365948645114,1.878,0.212,0.257,0.0,0.0,0.0,1.0
1423459366426880203,254,1423459366426110029,1.891,0.215,0.257,0.0,0.0,0.0,1.0
1423459366690641955,255,1423459366667920112,1.907,0.211,0.254,0.0,0.0,0.0,1.0
1423459366954309028,256,1423459366909626960,1.901,0.216,0.245,0.0,0.0,0.0,1.0
1423459367167900510,257,1423459367148375034,1.919,0.213,0.256,0.0,0.0,0.0,1.0
1423459367431477994,258,1423459367386106967,1.924,0.212,0.246,0.0,0.0,0.0,1.0
1423459367645214763,259,1423459367626840114,1.937,0.219,0.261,0.0,0.0,0.0,1.0
1423459367909040928,260,1423459367867571115,1.944,0.217,0.256,0.0,0.0,0.0,1.0
1423459368122731108,261,1423459368107312917,1.946,0.224,0.257,0.0,0.0,0.0,1.0
1423459368386487007,262,1423459368350033044,1.96,0.217,0.25,0.0,0.0,0.0,1.0
1423459368600288539,263,1423459368586787939,1.956,0.222,0.254,0.0,0.0,0.0,1.0
1423459369114674432,264,1423459369067317008,1.973,0.222,0.251,0.0,0.0,0.0,1.0
1423459369328414583,265,1423459369306108951,1.988,0.224,0.253,0.0,0.0,0.0,1.0
1423459369592143804,266,1423459369548794031,1.981,0.225,0.245,0.0,0.0,0.0,1.0
1423459370056276490,267,1423459370027246952,2.003,0.22,0.246,0.0,0.0,0.0,1.0
1423459370269996194,268,1423459370267103910,2.016,0.229,0.26,0.0,0.0,0.0,1.0
1423459371034426431,269,1423459370985260009,2.037,0.222,0.254,0.0,0.0,0.0,1.0
1423459371248142398,270,1423459371228071928,2.042,0.232,0.254,0.0,0.0,0.0,1.0
1423459371461912085,271,1423459371457815885,2.054,0.222,0.259,0.0,0.0,0.0,1.0
1423459371725619049,272,1423459371687560081,2.051,0.235,0.254,0.0,0.0,0.0,1.0
1423459372189696162,273,1423459372149043083,2.062,0.237,0.247,0.0,0.0,0.0,1.0
1423459372403355919,274,1423459372389775991,2.081,0.227,0.258,0.0,0.0,0.0,1.0
1423459372667010519,275,1423459372627475023,2.077,0.236,0.253,0.0,0.0,0.0,1.0
1423459372880610516,276,1423459372854332923,2.093,0.233,0.253,0.0,0.0,0.0,1.0
1423459373094195985,277,1423459373086057901,2.086,0.237,0.248,0.0,0.0,0.0,1.0
1423459373558222989,278,1423459373548614025,2.106,0.234,0.244,0.0,0.0,0.0,1.0
1423459373821885512,279,1423459373776443004,2.12,0.239,0.254,0.0,0.0,0.0,1.0
1423459374035605014,280,1423459374007208108,2.115,0.24,0.248,0.0,0.0,0.0,1.0
1423459374499587920,281,1423459374467678070,2.134,0.236,0.245,0.0,0.0,0.0,1.0
1423459374763359071,282,1423459374721462965,2.148,0.242,0.256,0.0,0.0,0.0,1.0
1423459374977008813,283,1423459374930233955,2.151,0.244,0.252,0.0,0.0,0.0,1.0
1423459375441003442,284,1423459375398664951,2.165,0.238,0.249,0.0,0.0,0.0,1.0
1423459375654592375,285,1423459375627451896,2.173,0.247,0.26,0.0,0.0,0.0,1.0
1423459375918286377,286,1423459375887160062,2.166,0.246,0.244,0.0,0.0,0.0,1.0
1423459376131902913,287,1423459376118859052,2.184,0.246,0.252,0.0,0.0,0.0,1.0
1423459376395611602,288,1423459376358597993,2.198,0.244,0.253,0.0,0.0,0.0,1.0
1423459376609310866,289,1423459376587348937,2.198,0.248,0.256,0.0,0.0,0.0,1.0
1423459376823033552,290,1423459376817198991,2.213,0.243,0.255,0.0,0.0,0.0,1.0
1423459377086853076,291,1423459377046905994,2.211,0.246,0.247,0.0,0.0,0.0,1.0
1423459377300536401,292,1423459377287655115,2.223,0.25,0.25,0.0,0.0,0.0,1.0
1423459377564258903,293,1423459377519407033,2.221,0.254,0.245,0.0,0.0,0.0,1.0
1423459378028210671,294,1423459377996927976,2.241,0.246,0.248,0.0,0.0,0.0,1.0
1423459378241852712,295,1423459378226742029,2.255,0.255,0.26,0.0,0.0,0.0,1.0
1423459378505519805,296,1423459378458441019,2.257,0.256,0.251,0.0,0.0,0.0,1.0
1423459378719101925,297,1423459378700176954,2.264,0.259,0.256,0.0,0.0,0.0,1.0
1423459378982904955,298,1423459378941946983,2.271,0.249,0.252,0.0,0.0,0.0,1.0
1423459379196575837,299,1423459379167642116,2.281,0.258,0.254,0.0,0.0,0.0,1.0
1423459379410172824,300,1423459379397509098,2.289,0.251,0.259,0.0,0.0,0.0,1.0
1423459379673977933,301,1423459379628226041,2.29,0.262,0.256,0.0,0.0,0.0,1.0
1423459379887615291,302,1423459379858989953,2.301,0.257,0.25,0.0,0.0,0.0,1.0
1423459380101331150,303,1423459380087680101,2.31,0.263,0.261,0.0,0.0,0.0,1.0
1423459380365043991,304,1423459380318464994,2.318,0.251,0.258,0.0,0.0,0.0,1.0
1423459380578740373,305,1423459380558186054,2.318,0.259,0.248,0.0,0.0,0.0,1.0
1423459380842570630,306,1423459380797997951,2.332,0.263,0.254,0.0,0.0,0.0,1.0
1423459381056193922,307,1423459381037792921,2.327,0.264,0.246,0.0,0.0,0.0,1.0
1423459381520100422,308,1423459381507219076,2.347,0.26,0.245,0.0,0.0,0.0,1.0
1423459381783753320,309,1423459381744941949,2.362,0.269,0.258,0.0,0.0,0.0,1.0
1423459381997354698,310,1423459381986768007,2.359,0.266,0.253,0.0,0.0,0.0,1.0
1423459382261080787,311,1423459382227534055,2.377,0.27,0.256,0.0,0.0,0.0,1.0
1423459382474761036,312,1423459382457268953,2.38,0.264,0.251,0.0,0.0,0.0,1.0
1423459382738542748,313,1423459382698971986,2.387,0.274,0.258,0.0,0.0,0.0,1.0
1423459383452959214,314,1423459383408248901,2.415,0.272,0.254,0.0,0.0,0.0,1.0
1423459383666667652,315,1423459383647003889,2.413,0.278,0.256,0.0,0.0,0.0,1.0
1423459384130742681,316,1423459384118530988,2.432,0.277,0.25,0.0,0.0,0.0,1.0
1423459384594704839,317,1423459384586986064,2.437,0.282,0.245,0.0,0.0,0.0,1.0
1423459385058749250,318,1423459385048528909,2.461,0.276,0.249,0.0,0.0,0.0,1.0
1423459385322432649,319,1423459385288248062,2.475,0.284,0.261,0.0,0.0,0.0,1.0
1423459385536110042,320,1423459385529987096,2.48,0.277,0.26,0.0,0.0,0.0,1.0
1423459386050140128,321,1423459386006566047,2.495,0.276,0.254,0.0,0.0,0.0,1.0
1423459386263735803,322,1423459386237266063,2.501,0.286,0.26,0.0,0.0,0.0,1.0
1423459386477297860,323,1423459386476001024,2.511,0.277,0.262,0.0,0.0,0.0,1.0
1423459386740958777,324,1423459386724762916,2.516,0.286,0.258,0.0,0.0,0.0,1.0
1423459386954590831,325,1423459386929615020,2.523,0.278,0.257,0.0,0.0,0.0,1.0
1423459387168205112,326,1423459387158292055,2.522,0.291,0.249,0.0,0.0,0.0,1.0
1423459387482039477,327,1423459387477001905,2.533,0.283,0.261,0.0,0.0,0.0,1.0
1423459387745676224,328,1423459387722775936,2.546,0.283,0.25,0.0,0.0,0.0,1.0
1423459387959176518,329,1423459387958523035,2.555,0.292,0.262,0.0,0.0,0.0,1.0
1423459388222892848,330,1423459388197211980,2.563,0.284,0.259,0.0,0.0,0.0,1.0
1423459388486622983,331,1423459388439013957,2.566,0.294,0.258,0.0,0.0,0.0,1.0
1423459388700326340,332,1423459388667726993,2.583,0.293,0.251,0.0,0.0,0.0,1.0
1423459388964128966,333,1423459388920476913,2.582,0.293,0.259,0.0,0.0,0.0,1.0
1423459389428148782,334,1423459389388972997,2.597,0.292,0.251,0.0,0.0,0.0,1.0
1423459389641819972,335,1423459389627747058,2.61,0.294,0.256,0.0,0.0,0.0,1.0
1423459389905656381,336,1423459389859478950,2.604,0.299,0.247,0.0,0.0,0.0,1.0
1423459390319699075,337,1423459390319062948,2.626,0.292,0.246,0.0,0.0,0.0,1.0
1423459391284373876,338,1423459391277043104,2.656,0.296,0.25,0.0,0.0,0.0,1.0
1423459391548115154,339,1423459391507865905,2.668,0.304,0.257,0.0,0.0,0.0,1.0
1423459391761736307,340,1423459391754661083,2.675,0.296,0.263,0.0,0.0,0.0,1.0
1423459392025475637,341,1423459391990379095,2.677,0.306,0.258,0.0,0.0,0.0,1.0
1423459392239216355,342,1423459392228157997,2.69,0.301,0.257,0.0,0.0,0.0,1.0
1423459392502934119,343,1423459392467940092,2.682,0.31,0.25,0.0,0.0,0.0,1.0
1423459392966973308,344,1423459392939425945,2.703,0.311,0.259,0.0,0.0,0.0,1.0
1423459393180677987,345,1423459393177145957,2.719,0.311,0.257,0.0,0.0,0.0,1.0
1423459393444471497,346,1423459393427860021,2.717,0.314,0.258,0.0,0.0,0.0,1.0
1423459393958678522,347,1423459393908384084,2.738,0.309,0.251,0.0,0.0,0.0,1.0
1423459394172389666,348,1423459394150181055,2.746,0.318,0.264,0.0,0.0,0.0,1.0
1423459394436112273,349,1423459394387886047,2.752,0.308,0.264,0.0,0.0,0.0,1.0
1423459394649752962,350,1423459394628598928,2.755,0.32,0.259,0.0,0.0,0.0,1.0
1423459394913493641,351,1423459394871342897,2.768,0.312,0.257,0.0,0.0,0.0,1.0
1423459395577777800,352,1423459395558727979,2.785,0.319,0.256,0.0,0.0,0.0,1.0
1423459395791404229,353,1423459395787427902,2.797,0.317,0.255,0.0,0.0,0.0,1.0
1423459396055047088,354,1423459396018168926,2.79,0.324,0.252,0.0,0.0,0.0,1.0
1423459396519122288,355,1423459396477688074,2.812,0.323,0.256,0.0,0.0,0.0,1.0
1423459396732967919,356,1423459396731496095,2.824,0.323,0.256,0.0,0.0,0.0,1.0
1423459396996699806,357,1423459396951277017,2.819,0.324,0.249,0.0,0.0,0.0,1.0
1423459397460696796,358,1423459397428808927,2.843,0.32,0.253,0.0,0.0,0.0,1.0
1423459397674301724,359,1423459397658562898,2.851,0.324,0.256,0.0,0.0,0.0,1.0
1423459397938225361,360,1423459397890356063,2.851,0.327,0.254,0.0,0.0,0.0,1.0
1423459398352133190,361,1423459398348876953,2.873,0.322,0.255,0.0,0.0,0.0,1.0
1423459398615861476,362,1423459398587665081,2.879,0.333,0.261,0.0,0.0,0.0,1.0
1423459398829535166,363,1423459398819335937,2.889,0.321,0.263,0.0,0.0,0.0,1.0
1423459399093269236,364,1423459399060082912,2.89,0.333,0.258,0.0,0.0,0.0,1.0
1423459399307002629,365,1423459399297785997,2.904,0.328,0.258,0.0,0.0,0.0,1.0
1423459399570779815,366,1423459399530616044,2.9,0.336,0.254,0.0,0.0,0.0,1.0
1423459400034711162,367,1423459399988091945,2.919,0.33,0.25,0.0,0.0,0.0,1.0
1423459400248368472,368,1423459400217824935,2.926,0.327,0.261,0.0,0.0,0.0,1.0
1423459400462107358,369,1423459400447658061,2.928,0.339,0.249,0.0,0.0,0.0,1.0
1423459400926124491,370,1423459400907095909,2.947,0.329,0.251,0.0,0.0,0.0,1.0
1423459401189853186,371,1423459401151899099,2.963,0.336,0.264,0.0,0.0,0.0,1.0
1423459401403481262,372,1423459401378628015,2.956,0.336,0.252,0.0,0.0,0.0,1.0
1423459401867473795,373,1423459401838177919,2.977,0.33,0.254,0.0,0.0,0.0,1.0
1423459402081153980,374,1423459402066977977,2.986,0.337,0.257,0.0,0.0,0.0,1.0
1423459402344884062,375,1423459402303668975,2.985,0.336,0.256,0.0,0.0,0.0,1.0
1423459402558573004,376,1423459402531368017,3.001,0.34,0.258,0.0,0.0,0.0,1.0
1423459402772232528,377,1423459402757195949,3.003,0.332,0.255,0.0,0.0,0.0,1.0
1423459403036007806,378,1423459402987936019,3.013,0.341,0.258,0.0,0.0,0.0,1.0
1423459403249775145,379,1423459403231739044,3.021,0.331,0.263,0.0,0.0,0.0,1.0
1423459403463444356,380,1423459403458417892,3.025,0.347,0.261,0.0,0.0,0.0,1.0
1423459403727206493,381,1423459403697196006,3.042,0.343,0.257,0.0,0.0,0.0,1.0
1423459403940928239,382,1423459403929883003,3.036,0.345,0.259,0.0,0.0,0.0,1.0
1423459404405035438,383,1423459404387392044,3.054,0.343,0.256,0.0,0.0,0.0,1.0
1423459404618658577,384,1423459404618135929,3.067,0.346,0.259,0.0,0.0,0.0,1.0
1423459404882370335,385,1423459404847865104,3.058,0.348,0.249,0.0,0.0,0.0,1.0
1423459405346348183,386,1423459405307383060,3.081,0.343,0.25,0.0,0.0,0.0,1.0
1423459405560020131,387,1423459405540183067,3.091,0.349,0.257,0.0,0.0,0.0,1.0
1423459405773671767,388,1423459405767951011,3.088,0.351,0.251,0.0,0.0,0.0,1.0
1423459406037430201,389,1423459405997755050,3.103,0.351,0.261,0.0,0.0,0.0,1.0
1423459406251043962,390,1423459406227435111,3.108,0.345,0.254,0.0,0.0,0.0,1.0
1423459406464689419,391,1423459406458148956,3.118,0.354,0.261,0.0,0.0,0.0,1.0
1423459406728418653,392,1423459406723907947,3.12,0.348,0.262,0.0,0.0,0.0,1.0
1423459406942088228,393,1423459406940684080,3.126,0.357,0.261,0.0,0.0,0.0,1.0
1423459407205769816,394,1423459407178411006,3.141,0.35,0.257,0.0,0.0,0.0,1.0
1423459408120319021,395,1423459408106451988,3.162,0.349,0.261,0.0,0.0,0.0,1.0
1423459408384073000,396,1423459408340226888,3.162,0.36,0.255,0.0,0.0,0.0,1.0
1423459408848061866,397,1423459408819660902,3.182,0.354,0.251,0.0,0.0,0.0,1.0
1423459409061757872,398,1423459409048408985,3.194,0.359,0.262,0.0,0.0,0.0,1.0
1423459409325594922,399,1423459409278112888,3.186,0.362,0.25,0.0,0.0,0.0,1.0
1423459409789649458,400,1423459409744715929,3.209,0.356,0.253,0.0,0.0,0.0,1.0
1423459410003392432,401,1423459409977463006,3.224,0.364,0.266,0.0,0.0,0.0,1.0
1423459410217206940,402,1423459410207194089,3.218,0.361,0.257,0.0,0.0,0.0,1.0
1423459410480969131,403,1423459410438939094,3.231,0.366,0.263,0.0,0.0,0.0,1.0
1423459410694701686,404,1423459410669656038,3.234,0.358,0.252,0.0,0.0,0.0,1.0
1423459410908472775,405,1423459410899463891,3.248,0.366,0.267,0.0,0.0,0.0,1.0
1423459411172318951,406,1423459411130192995,3.253,0.359,0.264,0.0,0.0,0.0,1.0
1423459411386010537,407,1423459411367919921,3.258,0.369,0.26,0.0,0.0,0.0,1.0
1423459411649815569,408,1423459411599756002,3.27,0.366,0.254,0.0,0.0,0.0,1.0
1423459411863534221,409,1423459411828445911,3.27,0.37,0.262,0.0,0.0,0.0,1.0
1423459412427803608,410,1423459412387871980,3.286,0.362,0.252,0.0,0.0,0.0,1.0
1423459412641477170,411,1423459412618563890,3.299,0.369,0.258,0.0,0.0,0.0,1.0
1423459412905357699,412,1423459412859297037,3.299,0.366,0.259,0.0,0.0,0.0,1.0
1423459413369300519,413,1423459413330825090,3.314,0.365,0.256,0.0,0.0,0.0,1.0
1423459413582931236,414,1423459413559628009,3.327,0.372,0.262,0.0,0.0,0.0,1.0
1423459413796606669,415,1423459413789442062,3.328,0.371,0.259,0.0,0.0,0.0,1.0
1423459414060344542,416,1423459414018112897,3.34,0.373,0.261,0.0,0.0,0.0,1.0
1423459414274050362,417,1423459414247945070,3.351,0.371,0.254,0.0,0.0,0.0,1.0
1423459414537826060,418,1423459414488615036,3.353,0.376,0.264,0.0,0.0,0.0,1.0
1423459415001845589,419,1423459414967204093,3.366,0.378,0.261,0.0,0.0,0.0,1.0
1423459415215433526,420,1423459415199924945,3.379,0.375,0.258,0.0,0.0,0.0,1.0
1423459415479086012,421,1423459415437701940,3.378,0.38,0.26,0.0,0.0,0.0,1.0
1423459415943072850,422,1423459415908301115,3.391,0.378,0.253,0.0,0.0,0.0,1.0
1423459416256843868,423,1423459416247970104,3.405,0.38,0.259,0.0,0.0,0.0,1.0
1423459416870979414,424,1423459416857342004,3.422,0.379,0.255,0.0,0.0,0.0,1.0
1423459417134628695,425,1423459417088064908,3.434,0.384,0.262,0.0,0.0,0.0,1.0
1423459417348293601,426,1423459417319869995,3.435,0.379,0.26,0.0,0.0,0.0,1.0
1423459417561893308,427,1423459417549612998,3.445,0.386,0.262,0.0,0.0,0.0,1.0
1423459417825564902,428,1423459417777345895,3.449,0.38,0.257,0.0,0.0,0.0,1.0
1423459418039210619,429,1423459418019118070,3.458,0.39,0.26,0.0,0.0,0.0,1.0
1423459418302860304,430,1423459418267848968,3.462,0.383,0.262,0.0,0.0,0.0,1.0
1423459418516514575,431,1423459418508630037,3.469,0.386,0.251,0.0,0.0,0.0,1.0
1423459418780184946,432,1423459418768378019,3.481,0.383,0.26,0.0,0.0,0.0,1.0
1423459419043909964,433,1423459418998140096,3.478,0.394,0.252,0.0,0.0,0.0,1.0
1423459419507846133,434,1423459419458628892,3.499,0.388,0.253,0.0,0.0,0.0,1.0
1423459420422353726,435,1423459420386667013,3.523,0.395,0.259,0.0,0.0,0.0,1.0
1423459420635974607,436,1423459420627516984,3.539,0.399,0.267,0.0,0.0,0.0,1.0
1423459421350284674,437,1423459421317764997,3.553,0.393,0.26,0.0,0.0,0.0,1.0
1423459421563894701,438,1423459421559442043,3.559,0.404,0.259,0.0,0.0,0.0,1.0
1423459422027906367,439,1423459422026946067,3.575,0.402,0.26,0.0,0.0,0.0,1.0
1423459422291581148,440,1423459422269702911,3.577,0.397,0.264,0.0,0.0,0.0,1.0
1423459422505221563,441,1423459422491483926,3.583,0.407,0.26,0.0,0.0,0.0,1.0
1423459423019245295,442,1423459422998953104,3.595,0.403,0.252,0.0,0.0,0.0,1.0
1423459423483193955,443,1423459423469536066,3.614,0.405,0.262,0.0,0.0,0.0,1.0
1423459423746880931,444,1423459423707267045,3.62,0.411,0.261,0.0,0.0,0.0,1.0
1423459423960528404,445,1423459423940958976,3.63,0.409,0.254,0.0,0.0,0.0,1.0
1423459424224248289,446,1423459424177735090,3.631,0.412,0.261,0.0,0.0,0.0,1.0
1423459424688268022,447,1423459424639312982,3.645,0.414,0.259,0.0,0.0,0.0,1.0
1423459424901873093,448,1423459424870058059,3.654,0.411,0.258,0.0,0.0,0.0,1.0
1423459425115534023,449,1423459425097786903,3.653,0.416,0.258,0.0,0.0,0.0,1.0
1423459425379323976,450,1423459425330607891,3.665,0.408,0.262,0.0,0.0,0.0,1.0
1423459425592991100,451,1423459425569323062,3.665,0.416,0.255,0.0,0.0,0.0,1.0
1423459425806677954,452,1423459425798096895,3.673,0.408,0.263,0.0,0.0,0.0,1.0
1423459426070386533,453,1423459426028834104,3.675,0.419,0.25,0.0,0.0,0.0,1.0
1423459426534400814,454,1423459426489310026,3.693,0.414,0.251,0.0,0.0,0.0,1.0
1423459426748052968,455,1423459426738130092,3.707,0.42,0.259,0.0,0.0,0.0,1.0
1423459427011744132,456,1423459426969882965,3.708,0.415,0.262,0.0,0.0,0.0,1.0
1423459427225373357,457,1423459427198611021,3.72,0.423,0.259,0.0,0.0,0.0,1.0
1423459427438959090,458,1423459427438378095,3.73,0.421,0.254,0.0,0.0,0.0,1.0
1423459427702720904,459,1423459427669245004,3.733,0.427,0.264,0.0,0.0,0.0,1.0
1423459427916365076,460,1423459427896872043,3.736,0.421,0.264,0.0,0.0,0.0,1.0
1423459428180047319,461,1423459428130640983,3.742,0.429,0.26,0.0,0.0,0.0,1.0
1423459428393687199,462,1423459428368346929,3.749,0.419,0.261,0.0,0.0,0.0,1.0
1423459428657402021,463,1423459428621069908,3.758,0.429,0.262,0.0,0.0,0.0,1.0
1423459428921130810,464,1423459428875751018,3.763,0.422,0.261,0.0,0.0,0.0,1.0
1423459429134805020,465,1423459429098526000,3.77,0.426,0.252,0.0,0.0,0.0,1.0
1423459429348470990,466,1423459429329353094,3.782,0.43,0.26,0.0,0.0,0.0,1.0
1423459429612183209,467,1423459429568114042,3.777,0.434,0.251,0.0,0.0,0.0,1.0
1423459430076152145,468,1423459430037678003,3.799,0.425,0.255,0.0,0.0,0.0,1.0
1423459430289768279,469,1423459430269355058,3.808,0.434,0.259,0.0,0.0,0.0,1.0
1423459430503412464,470,1423459430498148918,3.81,0.432,0.258,0.0,0.0,0.0,1.0
1423459430767134494,471,1423459430745908975,3.821,0.435,0.261,0.0,0.0,0.0,1.0
1423459431030830912,472,1423459430988598108,3.827,0.436,0.253,0.0,0.0,0.0,1.0
1423459431244446964,473,1423459431218398094,3.83,0.439,0.26,0.0,0.0,0.0,1.0
1423459431458097321,474,1423459431448152065,3.836,0.427,0.264,0.0,0.0,0.0,1.0
1423459431721813524,475,1423459431689866065,3.845,0.438,0.257,0.0,0.0,0.0,1.0
1423459432636379806,476,1423459432606956958,3.87,0.443,0.261,0.0,0.0,0.0,1.0
1423459432849982760,477,1423459432838794946,3.886,0.442,0.262,0.0,0.0,0.0,1.0
1423459433113716467,478,1423459433068526029,3.879,0.445,0.249,0.0,0.0,0.0,1.0
1423459433577707383,479,1423459433530997991,3.899,0.437,0.253,0.0,0.0,0.0,1.0
1423459433791322507,480,1423459433758753061,3.912,0.446,0.261,0.0,0.0,0.0,1.0
1423459434004949345,481,1423459433987545967,3.905,0.445,0.253,0.0,0.0,0.0,1.0
1423459434268686138,482,1423459434252218008,3.923,0.448,0.26,0.0,0.0,0.0,1.0
1423459434532361552,483,1423459434488959074,3.936,0.445,0.256,0.0,0.0,0.0,1.0
1423459434746055568,484,1423459434734743118,3.936,0.449,0.263,0.0,0.0,0.0,1.0
1423459435210032402,485,1423459435198246955,3.949,0.452,0.257,0.0,0.0,0.0,1.0
1423459435473736068,486,1423459435428009986,3.962,0.447,0.257,0.0,0.0,0.0,1.0
1423459435687377649,487,1423459435659698009,3.959,0.451,0.262,0.0,0.0,0.0,1.0
1423459436151502250,488,1423459436120259046,3.972,0.45,0.252,0.0,0.0,0.0,1.0
1423459436365120596,489,1423459436351016998,3.986,0.452,0.259,0.0,0.0,0.0,1.0
1423459436779007163,490,1423459436756647109,3.977,0.455,0.25,0.0,0.0,0.0,1.0
1423459437042729618,491,1423459436998357057,3.998,0.452,0.256,0.0,0.0,0.0,1.0
1423459437256301382,492,1423459437233052968,4.01,0.455,0.261,0.0,0.0,0.0,1.0
1423459437469934211,493,1423459437467833042,4.004,0.459,0.251,0.0,0.0,0.0,1.0
1423459437984032870,494,1423459437940336942,4.021,0.454,0.257,0.0,0.0,0.0,1.0
1423459438197697849,495,1423459438168066024,4.036,0.46,0.263,0.0,0.0,0.0,1.0
1423459438411317066,496,1423459438398823022,4.029,0.458,0.257,0.0,0.0,0.0,1.0
1423459438875268520,497,1423459438871444940,4.045,0.455,0.253,0.0,0.0,0.0,1.0
1423459439138906042,498,1423459439097138881,4.055,0.463,0.266,0.0,0.0,0.0,1.0
1423459439853232625,499,1423459439817450046,4.067,0.46,0.255,0.0,0.0,0.0,1.0
1423459440066850206,500,1423459440058141946,4.079,0.467,0.267,0.0,0.0,0.0,1.0
1423459440530800980,501,1423459440520725011,4.09,0.469,0.26,0.0,0.0,0.0,1.0
1423459440794506391,502,1423459440752338886,4.093,0.463,0.258,0.0,0.0,0.0,1.0
1423459441008147653,503,1423459440989141941,4.097,0.475,0.249,0.0,0.0,0.0,1.0
1423459441472165412,504,1423459441458667039,4.115,0.47,0.253,0.0,0.0,0.0,1.0
1423459441735834482,505,1423459441689400911,4.127,0.476,0.259,0.0,0.0,0.0,1.0
1423459441949476883,506,1423459441919249057,4.115,0.478,0.249,0.0,0.0,0.0,1.0
1423459442413464485,507,1423459442379766941,4.138,0.475,0.249,0.0,0.0,0.0,1.0
1423459442627111752,508,1423459442608535051,4.149,0.483,0.259,0.0,0.0,0.0,1.0
1423459443341364411,509,1423459443296829938,4.16,0.478,0.256,0.0,0.0,0.0,1.0
1423459443554973214,510,1423459443531512022,4.17,0.488,0.263,0.0,0.0,0.0,1.0
1423459443768574060,511,1423459443759352922,4.173,0.481,0.264,0.0,0.0,0.0,1.0
1423459444032260885,512,1423459443999149084,4.179,0.492,0.263,0.0,0.0,0.0,1.0
1423459444245919979,513,1423459444228884935,4.183,0.488,0.254,0.0,0.0,0.0,1.0
1423459445210559746,514,1423459445168859004,4.203,0.496,0.255,0.0,0.0,0.0,1.0
1423459445424168501,515,1423459445408627986,4.203,0.504,0.254,0.0,0.0,0.0,1.0
1423459445687908940,516,1423459445638371944,4.22,0.501,0.258,0.0,0.0,0.0,1.0
1423459445901558410,517,1423459445871081113,4.216,0.499,0.255,0.0,0.0,0.0,1.0
1423459446115164663,518,1423459446097884893,4.229,0.504,0.264,0.0,0.0,0.0,1.0
1423459446829474079,519,1423459446818154096,4.236,0.502,0.253,0.0,0.0,0.0,1.0
1423459447093161831,520,1423459447048882007,4.247,0.512,0.263,0.0,0.0,0.0,1.0
1423459447306830138,521,1423459447280605077,4.236,0.51,0.252,0.0,0.0,0.0,1.0
1423459447520484467,522,1423459447507419109,4.254,0.515,0.259,0.0,0.0,0.0,1.0
1423459447784207152,523,1423459447746119976,4.256,0.513,0.254,0.0,0.0,0.0,1.0
1423459448498581497,524,1423459448448468923,4.27,0.52,0.259,0.0,0.0,0.0,1.0
1423459448712200066,525,1423459448694176912,4.276,0.521,0.255,0.0,0.0,0.0,1.0
1423459449426601365,526,1423459449388405084,4.284,0.525,0.252,0.0,0.0,0.0,1.0
1423459449640241441,527,1423459449618176937,4.293,0.53,0.256,0.0,0.0,0.0,1.0
1423459450354562725,528,1423459450319415092,4.301,0.528,0.252,0.0,0.0,0.0,1.0
1423459450568229595,529,1423459450550226926,4.311,0.535,0.262,0.0,0.0,0.0,1.0
1423459450781899994,530,1423459450778986930,4.306,0.535,0.257,0.0,0.0,0.0,1.0
1423459451245845253,531,1423459451238449096,4.318,0.534,0.255,0.0,0.0,0.0,1.0
1423459451509568388,532,1423459451469198942,4.327,0.542,0.265,0.0,0.0,0.0,1.0
1423459451723237806,533,1423459451698956966,4.318,0.545,0.249,0.0,0.0,0.0,1.0
1423459451936945073,534,1423459451931734085,4.335,0.546,0.261,0.0,0.0,0.0,1.0
1423459452200656767,535,1423459452159552097,4.339,0.543,0.255,0.0,0.0,0.0,1.0
1423459452864882322,536,1423459452860764980,4.349,0.553,0.259,0.0,0.0,0.0,1.0
1423459453128657311,537,1423459453088576078,4.354,0.553,0.255,0.0,0.0,0.0,1.0
1423459453342295551,538,1423459453320312976,4.347,0.559,0.249,0.0,0.0,0.0,1.0
1423459453806245062,539,1423459453777837991,4.364,0.556,0.258,0.0,0.0,0.0,1.0
1423459454019845435,540,1423459454008605957,4.371,0.561,0.256,0.0,0.0,0.0,1.0
1423459454283529310,541,1423459454238352060,4.362,0.565,0.25,0.0,0.0,0.0,1.0
1423459454747447371,542,1423459454722827911,4.378,0.561,0.254,0.0,0.0,0.0,1.0
1423459454961099282,543,1423459454933619976,4.386,0.566,0.259,0.0,0.0,0.0,1.0
1423459455675402491,544,1423459455627846956,4.397,0.568,0.251,0.0,0.0,0.0,1.0
1423459455889127548,545,1423459455872522115,4.407,0.578,0.259,0.0,0.0,0.0,1.0
1423459456102736542,546,1423459456098357915,4.405,0.578,0.26,0.0,0.0,0.0,1.0
1423459456366449035,547,1423459456331068038,4.403,0.578,0.26,0.0,0.0,0.0,1.0
1423459456580112253,548,1423459456560792922,4.404,0.577,0.261,0.0,0.0,0.0,1.0
1423459457494697207,549,1423459457487951040,4.404,0.577,0.261,0.0,0.0,0.0,1.0
