%time,field.header.seq,field.header.stamp,field.point.x,field.point.y,field.point.z,field.time_ref
1423459292440965840,113,1423459292403201103,0.302,0.039,0.25,1423495768700000047
1423459292654487729,114,1423459292633949041,0.302,0.039,0.25,1423495769000000000
1423459292868131745,115,1423459292865796089,0.302,0.04,0.25,1423495769200000047
1423459293131729934,116,1423459293093580007,0.302,0.04,0.25,1423495769400000095
1423459293345353574,117,1423459293326256036,0.302,0.039,0.25,1423495769700000047
1423459293558988032,118,1423459293555082082,0.302,0.039,0.25,1423495769900000095
1423459293822656112,119,1423459293784799098,0.302,0.039,0.25,1423495770099999904
1423459294036274909,120,1423459294014662027,0.302,0.039,0.25,1423495770299999952
1423459294249911310,121,1423459294244326114,0.302,0.04,0.25,1423495770599999904
1423459294513624556,122,1423459294484049081,0.302,0.039,0.25,1423495770799999952
1423459294777434983,123,1423459294731822013,0.302,0.04,0.25,1423495771099999904
1423459294991092362,124,1423459294964553117,0.302,0.04,0.25,1423495771299999952
1423459295204842359,125,1423459295195245981,0.312,0.034,0.246,1423495771500000000
1423459295668768701,126,1423459295663795948,0.32,0.038,0.25,1423495772000000000
1423459295932454806,127,1423459295903482913,0.313,0.035,0.243,1423495772200000047
1423459296196152765,128,1423459296157150030,0.321,0.04,0.253,1423495772500000000
1423459296860497694,129,1423459296854435920,0.326,0.035,0.245,1423495773200000047
1423459297124271753,130,1423459297094218015,0.333,0.042,0.257,1423495773400000095
1423459297337945623,131,1423459297336903095,0.337,0.042,0.25,1423495773700000047
1423459297601653688,132,1423459297573771953,0.338,0.04,0.256,1423495773900000095
1423459297815465384,133,1423459297804498910,0.349,0.036,0.25,1423495774099999904
1423459298079257692,134,1423459298034257888,0.343,0.037,0.259,1423495774400000095
1423459298292926648,135,1423459298266072988,0.349,0.041,0.249,1423495774599999904
1423459298506662591,136,1423459298493834018,0.352,0.035,0.254,1423495774799999952
1423459298770442747,137,1423459298733525037,0.362,0.032,0.254,1423495775099999904
1423459299234439508,138,1423459299215051889,0.364,0.042,0.251,1423495775500000000
1423459299448085320,139,1423459299444828987,0.365,0.03,0.247,1423495775799999952
1423459299912062141,140,1423459299904366016,0.369,0.039,0.245,1423495776200000047
1423459300426147065,141,1423459300375772953,0.377,0.029,0.244,1423495776700000047
1423459300840023925,142,1423459300834270000,0.381,0.039,0.246,1423495777200000047
1423459301103685017,143,1423459301066014051,0.392,0.038,0.257,1423495777400000095
1423459301317294478,144,1423459301293842077,0.393,0.031,0.251,1423495777599999904
1423459301580975796,145,1423459301543513059,0.398,0.038,0.257,1423495777900000095
1423459301794538944,146,1423459301774277925,0.402,0.038,0.251,1423495778099999904
1423459302058216174,147,1423459302016027927,0.402,0.035,0.252,1423495778299999952
1423459302271846913,148,1423459302256777048,0.41,0.036,0.251,1423495778599999904
1423459302485492155,149,1423459302475564956,0.407,0.035,0.251,1423495778799999952
1423459302749163402,150,1423459302728370904,0.415,0.04,0.25,1423495779099999904
1423459303062985573,151,1423459303021066904,0.412,0.033,0.241,1423495779400000095
1423459303626970190,152,1423459303625416040,0.426,0.044,0.252,1423495780000000000
1423459303890736345,153,1423459303854198932,0.424,0.036,0.243,1423495780200000047
1423459304354671072,154,1423459304316687107,0.429,0.043,0.246,1423495780599999904
1423459304818636836,155,1423459304784216880,0.432,0.038,0.248,1423495781099999904
1423459305032287943,156,1423459305025002956,0.444,0.046,0.258,1423495781400000095
1423459305295996019,157,1423459305265678882,0.443,0.045,0.252,1423495781599999904
1423459305509672303,158,1423459305504508018,0.437,0.045,0.255,1423495781799999952
1423459305773417228,159,1423459305749192953,0.443,0.041,0.252,1423495782099999904
1423459305987126291,160,1423459305984929084,0.445,0.043,0.251,1423495782299999952
1423459306250936868,161,1423459306228667974,0.458,0.046,0.251,1423495782599999904
1423459306514774102,162,1423459306465434074,0.448,0.039,0.244,1423495782799999952
1423459306778566178,163,1423459306737147092,0.455,0.041,0.254,1423495783099999904
1423459306942127870,164,1423459306940974950,0.456,0.051,0.253,1423495783299999952
1423459307406137996,165,1423459307394453048,0.463,0.043,0.245,1423495783700000047
1423459307920239364,166,1423459307886993885,0.472,0.051,0.249,1423495784200000047
1423459308133975183,167,1423459308127712011,0.476,0.051,0.253,1423495784500000000
1423459308397586604,168,1423459308355456113,0.474,0.043,0.243,1423495784700000047
1423459309312155285,169,1423459309283417940,0.489,0.049,0.25,1423495785599999904
1423459309575911208,170,1423459309528140068,0.492,0.053,0.253,1423495785900000095
1423459309989873032,171,1423459309984617948,0.496,0.051,0.25,1423495786299999952
1423459310253569258,172,1423459310225404977,0.505,0.05,0.251,1423495786599999904
1423459310467230091,173,1423459310465233087,0.5,0.052,0.245,1423495786799999952
1423459310981203107,174,1423459310967622041,0.511,0.052,0.25,1423495787299999952
1423459311445190674,175,1423459311424206972,0.516,0.057,0.247,1423495787799999952
1423459311658834539,176,1423459311655945062,0.524,0.057,0.253,1423495788000000000
1423459311922666788,177,1423459311886699914,0.522,0.052,0.243,1423495788200000047
1423459312136252572,178,1423459312120538949,0.529,0.059,0.258,1423495788400000095
1423459312349907383,179,1423459312347251892,0.533,0.06,0.251,1423495788700000047
1423459312613697286,180,1423459312575016975,0.534,0.06,0.255,1423495788900000095
1423459312827345154,181,1423459312814769029,0.534,0.056,0.247,1423495789099999904
1423459313091066748,182,1423459313046463966,0.538,0.06,0.253,1423495789400000095
1423459313404840727,183,1423459313357223033,0.546,0.061,0.251,1423495789700000047
1423459313618508409,184,1423459313594928026,0.543,0.056,0.247,1423495789900000095
1423459314332911304,185,1423459314294109106,0.553,0.064,0.256,1423495790599999904
1423459314546586553,186,1423459314537905931,0.558,0.06,0.25,1423495790900000095
1423459314810320904,187,1423459314776606082,0.56,0.062,0.255,1423495791099999904
1423459315023962422,188,1423459315015438079,0.56,0.064,0.246,1423495791299999952
1423459315287795283,189,1423459315244250059,0.563,0.063,0.25,1423495791599999904
1423459315501461429,190,1423459315474988937,0.57,0.06,0.251,1423495791799999952
1423459315965448680,191,1423459315935605049,0.58,0.065,0.251,1423495792299999952
1423459316179087418,192,1423459316176275014,0.575,0.06,0.243,1423495792500000000
1423459316693242859,193,1423459316644893884,0.581,0.063,0.246,1423495793000000000
1423459317107322243,194,1423459317104371070,0.586,0.062,0.244,1423495793400000095
1423459317371092874,195,1423459317338125944,0.595,0.067,0.255,1423495793700000047
1423459317584860525,196,1423459317574896097,0.593,0.068,0.249,1423495793900000095
1423459317848546374,197,1423459317814666986,0.598,0.069,0.257,1423495794099999904
1423459318062206021,198,1423459318045358896,0.599,0.068,0.252,1423495794400000095
1423459318526209148,199,1423459318504925966,0.605,0.071,0.25,1423495794799999952
1423459318789976585,200,1423459318754648923,0.605,0.072,0.256,1423495795099999904
1423459319003691970,201,1423459318984357118,0.611,0.068,0.25,1423495795299999952
1423459319217409661,202,1423459319216109037,0.613,0.07,0.256,1423495795500000000
1423459319481130994,203,1423459319444920063,0.612,0.068,0.247,1423495795799999952
1423459319694792768,204,1423459319674690961,0.617,0.072,0.254,1423495796000000000
1423459319908468357,205,1423459319902455091,0.624,0.069,0.252,1423495796200000047
1423459320172312859,206,1423459320137192010,0.622,0.071,0.249,1423495796500000000
1423459320385960171,207,1423459320366920948,0.632,0.072,0.252,1423495796700000047
1423459320599610644,208,1423459320595668077,0.631,0.071,0.25,1423495796900000095
1423459321514280437,209,1423459321513676881,0.641,0.07,0.245,1423495797799999952
1423459322028352068,210,1423459321985184907,0.646,0.079,0.252,1423495798299999952
1423459322242040496,211,1423459322214869022,0.652,0.077,0.255,1423495798500000000
1423459322455600520,212,1423459322445729970,0.65,0.07,0.245,1423495798799999952
1423459322719337800,213,1423459322675548076,0.66,0.077,0.257,1423495799000000000
1423459322933021864,214,1423459322904208898,0.657,0.075,0.251,1423495799200000047
1423459323146691732,215,1423459323136934995,0.661,0.078,0.257,1423495799500000000
1423459323410422560,216,1423459323365647077,0.663,0.076,0.254,1423495799700000047
1423459323874363319,217,1423459323835187911,0.673,0.08,0.251,1423495800200000047
1423459324088096614,218,1423459324074932098,0.671,0.082,0.254,1423495800400000095
1423459324351835595,219,1423459324315695047,0.679,0.078,0.251,1423495800599999904
1423459324565474228,220,1423459324557394981,0.681,0.082,0.259,1423495800900000095
1423459324829063823,221,1423459324795172929,0.686,0.081,0.252,1423495801099999904
1423459325042722554,222,1423459325024957895,0.682,0.076,0.243,1423495801400000095
1423459325506595408,223,1423459325505445003,0.685,0.081,0.245,1423495801799999952
1423459325770375419,224,1423459325743172883,0.693,0.084,0.253,1423495802099999904
1423459325984067719,225,1423459325964977979,0.692,0.078,0.249,1423495802299999952
1423459326247854327,226,1423459326206687927,0.699,0.086,0.26,1423495802500000000
1423459326461508460,227,1423459326435492038,0.699,0.084,0.251,1423495802799999952
1423459326675223283,228,1423459326670231103,0.703,0.089,0.255,1423495803000000000
1423459326939053450,229,1423459326903980016,0.703,0.082,0.249,1423495803200000047
1423459327152834136,230,1423459327137691974,0.707,0.091,0.257,1423495803500000000
1423459327366482023,231,1423459327365438938,0.708,0.093,0.25,1423495803700000047
1423459327630121941,232,1423459327605248928,0.71,0.092,0.253,1423495803900000095
1423459327843773059,233,1423459327835058927,0.713,0.09,0.248,1423495804200000047
1423459328107495904,234,1423459328069767951,0.71,0.093,0.25,1423495804400000095
1423459328321309751,235,1423459328295548915,0.719,0.097,0.251,1423495804599999904
1423459328535057521,236,1423459328527316093,0.713,0.091,0.249,1423495804900000095
1423459328798756718,237,1423459328756079912,0.72,0.094,0.252,1423495805099999904
1423459329012392662,238,1423459329004790067,0.717,0.098,0.244,1423495805299999952
1423459329276238160,239,1423459329234568119,0.726,0.1,0.252,1423495805599999904
1423459329489909173,240,1423459329476272106,0.728,0.093,0.248,1423495805799999952
1423459330004017052,241,1423459329954685926,0.754,0.095,0.256,1423495806299999952
1423459330217600484,242,1423459330194478988,0.751,0.1,0.257,1423495806500000000
1423459330481372220,243,1423459330436223983,0.769,0.096,0.252,1423495806799999952
1423459330694937965,244,1423459330665045976,0.769,0.1,0.252,1423495807000000000
1423459330908571951,245,1423459330895747900,0.791,0.1,0.255,1423495807200000047
1423459331172344368,246,1423459331127458095,0.779,0.101,0.254,1423495807500000000
1423459331385985235,247,1423459331356273889,0.798,0.098,0.253,1423495807700000047
1423459331599781039,248,1423459331585056066,0.792,0.103,0.252,1423495807900000095
1423459331863484987,249,1423459331814774036,0.819,0.103,0.254,1423495808099999904
1423459332077134982,250,1423459332045511960,0.81,0.101,0.248,1423495808400000095
1423459332340753202,251,1423459332312258005,0.827,0.101,0.255,1423495808599999904
1423459332554557547,252,1423459332527038097,0.819,0.102,0.247,1423495808900000095
1423459333018595808,253,1423459333005462884,0.841,0.103,0.248,1423495809299999952
1423459333783016126,254,1423459333733632087,0.864,0.113,0.257,1423495810099999904
1423459333996727507,255,1423459333965475082,0.883,0.106,0.254,1423495810299999952
1423459334460783024,256,1423459334437974929,0.901,0.111,0.257,1423495810799999952
1423459334674529922,257,1423459334667737960,0.892,0.115,0.255,1423495811000000000
1423459334938288662,258,1423459334895502090,0.91,0.108,0.254,1423495811200000047
1423459335151910536,259,1423459335128252983,0.905,0.117,0.254,1423495811500000000
1423459335365613712,260,1423459335357048988,0.93,0.114,0.254,1423495811700000047
1423459335629270544,261,1423459335585769891,0.922,0.115,0.25,1423495811900000095
1423459335842908756,262,1423459335816510915,0.938,0.111,0.256,1423495812099999904
1423459336056523012,263,1423459336045295953,0.934,0.118,0.246,1423495812400000095
1423459336570640899,264,1423459336527844905,0.949,0.121,0.254,1423495812900000095
1423459336784211344,265,1423459336755518913,0.968,0.122,0.257,1423495813099999904
1423459336997926940,266,1423459336986268997,0.969,0.119,0.252,1423495813299999952
1423459337461988102,267,1423459337446770906,0.982,0.119,0.248,1423495813799999952
1423459337725727664,268,1423459337676561117,0.995,0.125,0.256,1423495814000000000
1423459338089591004,269,1423459338046107053,1.012,0.12,0.257,1423495814400000095
1423459338353219818,270,1423459338344765901,1.007,0.121,0.246,1423495814700000047
1423459338767115748,271,1423459338753334045,1.021,0.129,0.25,1423495815099999904
1423459339030828514,272,1423459339006066083,1.037,0.129,0.256,1423495815299999952
1423459339244498802,273,1423459339236825942,1.043,0.125,0.251,1423495815599999904
1423459339708562603,274,1423459339695355892,1.069,0.127,0.259,1423495816000000000
1423459339972122627,275,1423459339929011106,1.059,0.134,0.255,1423495816299999952
1423459340185730706,276,1423459340166723012,1.079,0.132,0.253,1423495816500000000
1423459340399365341,277,1423459340396538019,1.072,0.136,0.256,1423495816700000047
1423459340863350812,278,1423459340857131004,1.088,0.133,0.248,1423495817200000047
1423459341127061590,279,1423459341084954977,1.103,0.131,0.254,1423495817400000095
1423459341591053092,280,1423459341549398899,1.123,0.134,0.256,1423495817900000095
1423459341804677989,281,1423459341786076068,1.119,0.139,0.256,1423495818099999904
1423459342268676746,282,1423459342245732069,1.131,0.143,0.248,1423495818599999904
1423459342482309696,283,1423459342471407890,1.143,0.148,0.257,1423495818799999952
1423459342746065941,284,1423459342734241008,1.153,0.137,0.251,1423495819099999904
1423459343009770286,285,1423459342976914882,1.158,0.145,0.26,1423495819299999952
1423459343223390714,286,1423459343206614971,1.169,0.145,0.255,1423495819500000000
1423459343487127902,287,1423459343437395095,1.17,0.146,0.258,1423495819799999952
1423459343700755145,288,1423459343668201923,1.188,0.143,0.253,1423495820000000000
1423459343914339759,289,1423459343905916929,1.18,0.147,0.253,1423495820200000047
1423459344428378512,290,1423459344386409997,1.199,0.145,0.25,1423495820700000047
1423459344642419188,291,1423459344627264022,1.215,0.149,0.253,1423495821000000000
1423459344906111590,292,1423459344867918014,1.208,0.148,0.249,1423495821200000047
1423459345370043037,293,1423459345347423076,1.229,0.145,0.248,1423495821700000047
1423459346284516126,294,1423459346275352001,1.261,0.15,0.251,1423495822599999904
1423459346548120273,295,1423459346506091117,1.27,0.156,0.253,1423495822799999952
1423459346761819053,296,1423459346754913091,1.264,0.155,0.248,1423495823099999904
1423459347025635066,297,1423459346986664056,1.284,0.157,0.258,1423495823299999952
1423459347239488027,298,1423459347216408967,1.295,0.151,0.255,1423495823500000000
1423459347453203503,299,1423459347447134017,1.299,0.16,0.256,1423495823799999952
1423459347716983727,300,1423459347676943063,1.316,0.153,0.259,1423495824000000000
1423459347930737621,301,1423459347920695066,1.307,0.161,0.255,1423495824200000047
1423459348194465569,302,1423459348148453950,1.325,0.159,0.253,1423495824500000000
1423459348408112538,303,1423459348377157926,1.32,0.163,0.255,1423495824700000047
1423459348872098732,304,1423459348837694883,1.34,0.159,0.246,1423495825200000047
1423459349085665469,305,1423459349066467046,1.355,0.163,0.255,1423495825400000095
1423459349349346802,306,1423459349301162958,1.352,0.166,0.251,1423495825599999904
1423459349763371270,307,1423459349755722045,1.371,0.159,0.246,1423495826099999904
1423459350027139150,308,1423459349997435092,1.384,0.165,0.255,1423495826299999952
1423459350240781069,309,1423459350226253986,1.384,0.163,0.253,1423495826599999904
1423459350704865641,310,1423459350698729991,1.406,0.158,0.253,1423495827000000000
1423459350968578911,311,1423459350930476903,1.41,0.168,0.258,1423495827299999952
1423459351182157042,312,1423459351160203933,1.429,0.159,0.258,1423495827500000000
1423459351395770376,313,1423459351386876106,1.426,0.166,0.257,1423495827700000047
1423459351659547445,314,1423459351616712093,1.437,0.168,0.251,1423495827900000095
1423459351873315607,315,1423459351846404075,1.434,0.171,0.255,1423495828200000047
1423459352087196275,316,1423459352076169013,1.457,0.163,0.258,1423495828400000095
1423459352350890480,317,1423459352328826904,1.452,0.17,0.252,1423495828599999904
1423459352564593830,318,1423459352539716005,1.468,0.172,0.254,1423495828900000095
1423459352778247921,319,1423459352766470909,1.459,0.174,0.248,1423495829099999904
1423459353242331731,320,1423459353227998018,1.483,0.17,0.244,1423495829599999904
1423459353506098291,321,1423459353466686964,1.486,0.175,0.248,1423495829799999952
1423459353719725359,322,1423459353694550991,1.489,0.174,0.248,1423495830000000000
1423459354183663110,323,1423459354157083034,1.513,0.172,0.248,1423495830500000000
1423459354397472946,324,1423459354396739959,1.522,0.176,0.254,1423495830700000047
1423459354661394346,325,1423459354633521080,1.522,0.177,0.252,1423495831000000000
1423459354875146348,326,1423459354860285997,1.534,0.18,0.257,1423495831200000047
1423459355339069316,327,1423459355318795919,1.549,0.183,0.259,1423495831599999904
1423459355552714808,328,1423459355548609018,1.567,0.173,0.26,1423495831900000095
1423459356016876528,329,1423459356008063077,1.575,0.176,0.256,1423495832299999952
1423459356280595582,330,1423459356235807895,1.583,0.184,0.258,1423495832599999904
1423459356494326155,331,1423459356466626882,1.595,0.178,0.259,1423495832799999952
1423459356758068729,332,1423459356722265005,1.588,0.187,0.253,1423495833000000000
1423459356971647985,333,1423459356928127050,1.604,0.184,0.254,1423495833299999952
1423459357185298677,334,1423459357155872106,1.599,0.19,0.251,1423495833500000000
1423459357398893881,335,1423459357387608051,1.623,0.183,0.257,1423495833700000047
1423459357662689258,336,1423459357616427898,1.619,0.188,0.25,1423495833900000095
1423459357876425372,337,1423459357846168041,1.635,0.192,0.255,1423495834200000047
1423459358590838744,338,1423459358555423974,1.648,0.192,0.251,1423495834900000095
1423459358804463829,339,1423459358788203001,1.662,0.198,0.254,1423495835099999904
1423459359018055588,340,1423459359016927003,1.666,0.194,0.255,1423495835299999952
1423459359532123014,341,1423459359486491918,1.678,0.191,0.251,1423495835799999952
1423459359745917889,342,1423459359722177028,1.691,0.2,0.261,1423495836000000000
1423459359959640885,343,1423459359953998088,1.7,0.192,0.26,1423495836299999952
1423459360223569826,344,1423459360175719022,1.699,0.201,0.257,1423495836500000000
1423459360437279782,345,1423459360416476964,1.717,0.196,0.254,1423495836700000047
1423459360701110018,346,1423459360657202959,1.713,0.2,0.253,1423495837000000000
1423459360914799289,347,1423459360894965887,1.734,0.196,0.255,1423495837200000047
1423459361178639911,348,1423459361139620065,1.728,0.198,0.249,1423495837500000000
1423459361392375191,349,1423459361377424955,1.742,0.199,0.254,1423495837700000047
1423459361656226694,350,1423459361621119976,1.741,0.205,0.249,1423495837900000095
1423459362120218962,351,1423459362075683116,1.757,0.196,0.245,1423495838400000095
1423459362333822929,352,1423459362306435108,1.771,0.202,0.257,1423495838599999904
1423459362697762679,353,1423459362692060947,1.772,0.202,0.251,1423495839000000000
1423459362961353584,354,1423459362918808937,1.782,0.199,0.249,1423495839200000047
1423459363174993180,355,1423459363149552106,1.798,0.202,0.254,1423495839500000000
1423459363388600731,356,1423459363376394033,1.794,0.207,0.248,1423495839700000047
1423459363852966521,357,1423459363846896886,1.811,0.2,0.245,1423495840200000047
1423459364116643167,358,1423459364076621055,1.825,0.206,0.252,1423495840400000095
1423459364330449781,359,1423459364306395053,1.822,0.208,0.246,1423495840599999904
1423459364794507093,360,1423459364767901897,1.841,0.203,0.249,1423495841099999904
1423459365008153324,361,1423459364996638059,1.855,0.212,0.26,1423495841299999952
1423459365271819666,362,1423459365245347976,1.865,0.207,0.259,1423495841599999904
1423459365535652701,363,1423459365486146926,1.865,0.212,0.257,1423495841799999952
1423459365749323205,364,1423459365721848011,1.876,0.211,0.248,1423495842000000000
1423459365962985869,365,1423459365948645114,1.878,0.212,0.257,1423495842299999952
1423459366426865970,366,1423459366426110029,1.891,0.215,0.257,1423495842799999952
1423459366690625785,367,1423459366667920112,1.907,0.211,0.254,1423495843000000000
1423459366954224644,368,1423459366909626960,1.901,0.216,0.245,1423495843200000047
1423459367167783711,369,1423459367148375034,1.919,0.213,0.256,1423495843500000000
1423459367431503219,370,1423459367386106967,1.924,0.212,0.246,1423495843700000047
1423459367645214757,371,1423459367626840114,1.937,0.219,0.261,1423495844000000000
1423459367908961480,372,1423459367867571115,1.944,0.217,0.256,1423495844200000047
1423459368122621015,373,1423459368107312917,1.946,0.224,0.257,1423495844400000095
1423459368386598551,374,1423459368350033044,1.96,0.217,0.25,1423495844700000047
1423459368600376154,375,1423459368586787939,1.956,0.222,0.254,1423495844900000095
1423459369114613380,376,1423459369067317008,1.973,0.222,0.251,1423495845400000095
1423459369328317510,377,1423459369306108951,1.988,0.224,0.253,1423495845599999904
1423459369592041932,378,1423459369548794031,1.981,0.225,0.245,1423495845900000095
1423459370056062153,379,1423459370027246952,2.003,0.22,0.246,1423495846400000095
1423459370269726861,380,1423459370267103910,2.016,0.229,0.26,1423495846599999904
1423459371034196453,381,1423459370985260009,2.037,0.222,0.254,1423495847299999952
1423459371247882217,382,1423459371228071928,2.042,0.232,0.254,1423495847599999904
1423459371461532243,383,1423459371457815885,2.054,0.222,0.259,1423495847799999952
1423459371725234097,384,1423459371687560081,2.051,0.235,0.254,1423495848000000000
1423459372189260252,385,1423459372149043083,2.062,0.237,0.247,1423495848500000000
1423459372402913726,386,1423459372389775991,2.081,0.227,0.258,1423495848700000047
1423459372666622241,387,1423459372627475023,2.077,0.236,0.253,1423495849000000000
1423459372880250998,388,1423459372854332923,2.093,0.233,0.253,1423495849200000047
1423459373093912839,389,1423459373086057901,2.086,0.237,0.248,1423495849400000095
1423459373557882605,390,1423459373548614025,2.106,0.234,0.244,1423495849900000095
1423459373821600870,391,1423459373776443004,2.12,0.239,0.254,1423495850099999904
1423459374035225043,392,1423459374007208108,2.115,0.24,0.248,1423495850299999952
1423459374499238552,393,1423459374467678070,2.134,0.236,0.245,1423495850799999952
1423459374763000563,394,1423459374721462965,2.148,0.242,0.256,1423495851000000000
1423459374976641832,395,1423459374930233955,2.151,0.244,0.252,1423495851299999952
1423459375440659853,396,1423459375398664951,2.165,0.238,0.249,1423495851700000047
1423459375654304905,397,1423459375627451896,2.173,0.247,0.26,1423495852000000000
1423459375918029458,398,1423459375887160062,2.166,0.246,0.244,1423495852200000047
1423459376131673140,399,1423459376118859052,2.184,0.246,0.252,1423495852400000095
1423459376395379136,400,1423459376358597993,2.198,0.244,0.253,1423495852700000047
1423459376609052037,401,1423459376587348937,2.198,0.248,0.256,1423495852900000095
1423459376822758175,402,1423459376817198991,2.213,0.243,0.255,1423495853099999904
1423459377086475280,403,1423459377046905994,2.211,0.246,0.247,1423495853400000095
1423459377300116637,404,1423459377287655115,2.223,0.25,0.25,1423495853599999904
1423459377563852668,405,1423459377519407033,2.221,0.254,0.245,1423495853799999952
1423459378027932367,406,1423459377996927976,2.241,0.246,0.248,1423495854299999952
1423459378241567497,407,1423459378226742029,2.255,0.255,0.26,1423495854599999904
1423459378505265181,408,1423459378458441019,2.257,0.256,0.251,1423495854799999952
1423459378718941391,409,1423459378700176954,2.264,0.259,0.256,1423495855000000000
1423459378982638855,410,1423459378941946983,2.271,0.249,0.252,1423495855299999952
1423459379196287506,411,1423459379167642116,2.281,0.258,0.254,1423495855500000000
1423459379409960676,412,1423459379397509098,2.289,0.251,0.259,1423495855700000047
1423459379673678692,413,1423459379628226041,2.29,0.262,0.256,1423495856000000000
1423459379887369942,414,1423459379858989953,2.301,0.257,0.25,1423495856200000047
1423459380101006560,415,1423459380087680101,2.31,0.263,0.261,1423495856400000095
1423459380364767799,416,1423459380318464994,2.318,0.251,0.258,1423495856599999904
1423459380578428602,417,1423459380558186054,2.318,0.259,0.248,1423495856900000095
1423459380842153839,418,1423459380797997951,2.332,0.263,0.254,1423495857099999904
1423459381055769018,419,1423459381037792921,2.327,0.264,0.246,1423495857400000095
1423459381519730623,420,1423459381507219076,2.347,0.26,0.245,1423495857799999952
1423459381783481237,421,1423459381744941949,2.362,0.269,0.258,1423495858099999904
1423459381997153709,422,1423459381986768007,2.359,0.266,0.253,1423495858299999952
1423459382261047734,423,1423459382227534055,2.377,0.27,0.256,1423495858599999904
1423459382474684480,424,1423459382457268953,2.38,0.264,0.251,1423495858799999952
1423459382738476307,425,1423459382698971986,2.387,0.274,0.258,1423495859000000000
1423459383452842281,426,1423459383408248901,2.415,0.272,0.254,1423495859700000047
1423459383666581709,427,1423459383647003889,2.413,0.278,0.256,1423495860000000000
1423459384130581678,428,1423459384118530988,2.432,0.277,0.25,1423495860400000095
1423459384594570755,429,1423459384586986064,2.437,0.282,0.245,1423495860900000095
1423459385058430591,430,1423459385048528909,2.461,0.276,0.249,1423495861400000095
1423459385322079815,431,1423459385288248062,2.475,0.284,0.261,1423495861599999904
1423459385535705762,432,1423459385529987096,2.48,0.277,0.26,1423495861900000095
1423459386049757112,433,1423459386006566047,2.495,0.276,0.254,1423495862299999952
1423459386263384667,434,1423459386237266063,2.501,0.286,0.26,1423495862599999904
1423459386477018559,435,1423459386476001024,2.511,0.277,0.262,1423495862799999952
1423459386740677767,436,1423459386724762916,2.516,0.286,0.258,1423495863000000000
1423459386954287704,437,1423459386929615020,2.523,0.278,0.257,1423495863299999952
1423459387167947523,438,1423459387158292055,2.522,0.291,0.249,1423495863500000000
1423459387481680887,439,1423459387477001905,2.533,0.283,0.261,1423495863799999952
1423459387745443493,440,1423459387722775936,2.546,0.283,0.25,1423495864000000000
1423459387959040702,441,1423459387958523035,2.555,0.292,0.262,1423495864299999952
1423459388222790449,442,1423459388197211980,2.563,0.284,0.259,1423495864500000000
1423459388486505429,443,1423459388439013957,2.566,0.294,0.258,1423495864799999952
1423459388700255872,444,1423459388667726993,2.583,0.293,0.251,1423495865000000000
1423459388963976048,445,1423459388920476913,2.582,0.293,0.259,1423495865200000047
1423459389428010721,446,1423459389388972997,2.597,0.292,0.251,1423495865700000047
1423459389641780430,447,1423459389627747058,2.61,0.294,0.256,1423495866000000000
1423459389905643809,448,1423459389859478950,2.604,0.299,0.247,1423495866200000047
1423459390319802985,449,1423459390319062948,2.626,0.292,0.246,1423495866599999904
1423459391284494968,450,1423459391277043104,2.656,0.296,0.25,1423495867599999904
1423459391548358782,451,1423459391507865905,2.668,0.304,0.257,1423495867799999952
1423459391762028402,452,1423459391754661083,2.675,0.296,0.263,1423495868099999904
1423459392025785684,453,1423459391990379095,2.677,0.306,0.258,1423495868299999952
1423459392239475894,454,1423459392228157997,2.69,0.301,0.257,1423495868599999904
1423459392503156325,455,1423459392467940092,2.682,0.31,0.25,1423495868799999952
1423459392967021206,456,1423459392939425945,2.703,0.311,0.259,1423495869299999952
1423459393180788425,457,1423459393177145957,2.719,0.311,0.257,1423495869500000000
1423459393444462189,458,1423459393427860021,2.717,0.314,0.258,1423495869799999952
1423459393958724927,459,1423459393908384084,2.738,0.309,0.251,1423495870200000047
1423459394172450245,460,1423459394150181055,2.746,0.318,0.264,1423495870500000000
1423459394436156568,461,1423459394387886047,2.752,0.308,0.264,1423495870700000047
1423459394649892576,462,1423459394628598928,2.755,0.32,0.259,1423495871000000000
1423459394913573464,463,1423459394871342897,2.768,0.312,0.257,1423495871200000047
1423459395577887992,464,1423459395558727979,2.785,0.319,0.256,1423495871900000095
1423459395791504381,465,1423459395787427902,2.797,0.317,0.255,1423495872099999904
1423459396055232674,466,1423459396018168926,2.79,0.324,0.252,1423495872299999952
1423459396519198284,467,1423459396477688074,2.812,0.323,0.256,1423495872799999952
1423459396732859671,468,1423459396731496095,2.824,0.323,0.256,1423495873099999904
1423459396996627815,469,1423459396951277017,2.819,0.324,0.249,1423495873299999952
1423459397460621023,470,1423459397428808927,2.843,0.32,0.253,1423495873799999952
1423459397674300380,471,1423459397658562898,2.851,0.324,0.256,1423495874000000000
1423459397938088552,472,1423459397890356063,2.851,0.327,0.254,1423495874200000047
1423459398352068179,473,1423459398348876953,2.873,0.322,0.255,1423495874700000047
1423459398615765547,474,1423459398587665081,2.879,0.333,0.261,1423495874900000095
1423459398829469654,475,1423459398819335937,2.889,0.321,0.263,1423495875099999904
1423459399093167689,476,1423459399060082912,2.89,0.333,0.258,1423495875400000095
1423459399306833457,477,1423459399297785997,2.904,0.328,0.258,1423495875599999904
1423459399570504343,478,1423459399530616044,2.9,0.336,0.254,1423495875900000095
1423459400034502178,479,1423459399988091945,2.919,0.33,0.25,1423495876299999952
1423459400248142692,480,1423459400217824935,2.926,0.327,0.261,1423495876500000000
1423459400461777644,481,1423459400447658061,2.928,0.339,0.249,1423495876799999952
1423459400925800721,482,1423459400907095909,2.947,0.329,0.251,1423495877200000047
1423459401189528074,483,1423459401151899099,2.963,0.336,0.264,1423495877500000000
1423459401403161637,484,1423459401378628015,2.956,0.336,0.252,1423495877700000047
1423459401867184951,485,1423459401838177919,2.977,0.33,0.254,1423495878200000047
1423459402080830817,486,1423459402066977977,2.986,0.337,0.257,1423495878400000095
1423459402344471161,487,1423459402303668975,2.985,0.336,0.256,1423495878599999904
1423459402558136831,488,1423459402531368017,3.001,0.34,0.258,1423495878900000095
1423459402771783729,489,1423459402757195949,3.003,0.332,0.255,1423495879099999904
1423459403035557974,490,1423459402987936019,3.013,0.341,0.258,1423495879299999952
1423459403249250489,491,1423459403231739044,3.021,0.331,0.263,1423495879599999904
1423459403462904493,492,1423459403458417892,3.025,0.347,0.261,1423495879799999952
1423459403726555022,493,1423459403697196006,3.042,0.343,0.257,1423495880000000000
1423459403940245075,494,1423459403929883003,3.036,0.345,0.259,1423495880299999952
1423459404404209883,495,1423459404387392044,3.054,0.343,0.256,1423495880700000047
1423459404667949656,496,1423459404618135929,3.067,0.346,0.259,1423495880900000095
1423459404881622432,497,1423459404847865104,3.058,0.348,0.249,1423495881200000047
1423459405345643670,498,1423459405307383060,3.081,0.343,0.25,1423495881599999904
1423459405559280077,499,1423459405540183067,3.091,0.349,0.257,1423495881900000095
1423459405772978718,500,1423459405767951011,3.088,0.351,0.251,1423495882099999904
1423459406036691663,501,1423459405997755050,3.103,0.351,0.261,1423495882299999952
1423459406250557487,502,1423459406227435111,3.108,0.345,0.254,1423495882599999904
1423459406464200842,503,1423459406458148956,3.118,0.354,0.261,1423495882799999952
1423459406727894458,504,1423459406723907947,3.12,0.348,0.262,1423495883000000000
1423459406941556149,505,1423459406940684080,3.126,0.357,0.261,1423495883299999952
1423459407205281300,506,1423459407178411006,3.141,0.35,0.257,1423495883500000000
1423459408119904477,507,1423459408106451988,3.162,0.349,0.261,1423495884400000095
1423459408383679936,508,1423459408340226888,3.162,0.36,0.255,1423495884700000047
1423459408848006431,509,1423459408819660902,3.182,0.354,0.251,1423495885099999904
1423459409061743862,510,1423459409048408985,3.194,0.359,0.262,1423495885400000095
1423459409325529374,511,1423459409278112888,3.186,0.362,0.25,1423495885599999904
1423459409789766328,512,1423459409744715929,3.209,0.356,0.253,1423495886099999904
1423459410003413333,513,1423459409977463006,3.224,0.364,0.266,1423495886299999952
1423459410217156338,514,1423459410207194089,3.218,0.361,0.257,1423495886500000000
1423459410480997198,515,1423459410438939094,3.231,0.366,0.263,1423495886799999952
1423459410694714279,516,1423459410669656038,3.234,0.358,0.252,1423495887000000000
1423459410908467280,517,1423459410899463891,3.248,0.366,0.267,1423495887200000047
1423459411172274158,518,1423459411130192995,3.253,0.359,0.264,1423495887500000000
1423459411385959238,519,1423459411367919921,3.258,0.369,0.26,1423495887700000047
1423459411649843702,520,1423459411599756002,3.27,0.366,0.254,1423495887900000095
1423459411863522358,521,1423459411828445911,3.27,0.37,0.262,1423495888200000047
1423459412427875530,522,1423459412387871980,3.286,0.362,0.252,1423495888700000047
1423459412641544546,523,1423459412618563890,3.299,0.369,0.258,1423495888900000095
1423459412905248845,524,1423459412859297037,3.299,0.366,0.259,1423495889200000047
1423459413369287119,525,1423459413330825090,3.314,0.365,0.256,1423495889700000047
1423459413582923819,526,1423459413559628009,3.327,0.372,0.262,1423495889900000095
1423459413796590529,527,1423459413789442062,3.328,0.371,0.259,1423495890099999904
1423459414060332968,528,1423459414018112897,3.34,0.373,0.261,1423495890299999952
1423459414274160137,529,1423459414247945070,3.351,0.371,0.254,1423495890599999904
1423459414537884741,530,1423459414488615036,3.353,0.376,0.264,1423495890799999952
1423459415001967463,531,1423459414967204093,3.366,0.378,0.261,1423495891299999952
1423459415215618469,532,1423459415199924945,3.379,0.375,0.258,1423495891500000000
1423459415479332092,533,1423459415437701940,3.378,0.38,0.26,1423495891799999952
1423459415943432916,534,1423459415908301115,3.391,0.378,0.253,1423495892200000047
1423459416257258652,535,1423459416247970104,3.405,0.38,0.259,1423495892599999904
1423459416871379808,536,1423459416857342004,3.422,0.379,0.255,1423495893200000047
1423459417135077912,537,1423459417088064908,3.434,0.384,0.262,1423495893400000095
1423459417348698413,538,1423459417319869995,3.435,0.379,0.26,1423495893599999904
1423459417562313764,539,1423459417549612998,3.445,0.386,0.262,1423495893900000095
1423459417825998179,540,1423459417777345895,3.449,0.38,0.257,1423495894099999904
1423459418039655451,541,1423459418019118070,3.458,0.39,0.26,1423495894299999952
1423459418303347145,542,1423459418267848968,3.462,0.383,0.262,1423495894599999904
1423459418516950815,543,1423459418508630037,3.469,0.386,0.251,1423495894799999952
1423459418780610670,544,1423459418768378019,3.481,0.383,0.26,1423495895099999904
1423459419044343595,545,1423459418998140096,3.478,0.394,0.252,1423495895299999952
1423459419508335088,546,1423459419458628892,3.499,0.388,0.253,1423495895799999952
1423459420422869096,547,1423459420386667013,3.523,0.395,0.259,1423495896700000047
1423459420636581529,548,1423459420627516984,3.539,0.399,0.267,1423495897000000000
1423459421350846114,549,1423459421317764997,3.553,0.393,0.26,1423495897599999904
1423459421564492032,550,1423459421559442043,3.559,0.404,0.259,1423495897900000095
1423459422028491917,551,1423459422026946067,3.575,0.402,0.26,1423495898400000095
1423459422292242018,552,1423459422269702911,3.577,0.397,0.264,1423495898599999904
1423459422506054999,553,1423459422491483926,3.583,0.407,0.26,1423495898799999952
1423459423020085903,554,1423459422998953104,3.595,0.403,0.252,1423495899299999952
1423459423484109957,555,1423459423469536066,3.614,0.405,0.262,1423495899799999952
1423459423747934516,556,1423459423707267045,3.62,0.411,0.261,1423495900000000000
1423459423961650040,557,1423459423940958976,3.63,0.409,0.254,1423495900299999952
1423459424225412732,558,1423459424177735090,3.631,0.412,0.261,1423495900500000000
1423459424689408124,559,1423459424639312982,3.645,0.414,0.259,1423495901000000000
1423459424903075161,560,1423459424870058059,3.654,0.411,0.258,1423495901200000047
1423459425116686250,561,1423459425097786903,3.653,0.416,0.258,1423495901400000095
1423459425380341078,562,1423459425330607891,3.665,0.408,0.262,1423495901700000047
1423459425593976454,563,1423459425569323062,3.665,0.416,0.255,1423495901900000095
1423459425807615184,564,1423459425798096895,3.673,0.408,0.263,1423495902099999904
1423459426071258681,565,1423459426028834104,3.675,0.419,0.25,1423495902400000095
1423459426535237939,566,1423459426489310026,3.693,0.414,0.251,1423495902799999952
1423459426748956725,567,1423459426738130092,3.707,0.42,0.259,1423495903099999904
1423459427012803545,568,1423459426969882965,3.708,0.415,0.262,1423495903299999952
1423459427226451977,569,1423459427198611021,3.72,0.423,0.259,1423495903500000000
1423459427440065359,570,1423459427438378095,3.73,0.421,0.254,1423495903799999952
1423459427703785640,571,1423459427669245004,3.733,0.427,0.264,1423495904000000000
1423459427917425562,572,1423459427896872043,3.736,0.421,0.264,1423495904200000047
1423459428131070216,573,1423459428130640983,3.742,0.429,0.26,1423495904500000000
1423459428394715669,574,1423459428368346929,3.749,0.419,0.261,1423495904700000047
1423459428658519842,575,1423459428621069908,3.758,0.429,0.262,1423495904900000095
1423459428922241855,576,1423459428875751018,3.763,0.422,0.261,1423495905200000047
1423459429135878168,577,1423459429098526000,3.77,0.426,0.252,1423495905400000095
1423459429349584538,578,1423459429329353094,3.782,0.43,0.26,1423495905700000047
1423459429613311390,579,1423459429568114042,3.777,0.434,0.251,1423495905900000095
1423459430077334578,580,1423459430037678003,3.799,0.425,0.255,1423495906400000095
1423459430291041557,581,1423459430269355058,3.808,0.434,0.259,1423495906599999904
1423459430504684869,582,1423459430498148918,3.81,0.432,0.258,1423495906799999952
1423459430768461322,583,1423459430745908975,3.821,0.435,0.261,1423495907099999904
1423459431032220363,584,1423459430988598108,3.827,0.436,0.253,1423495907299999952
1423459431245877561,585,1423459431218398094,3.83,0.439,0.26,1423495907500000000
1423459431459497617,586,1423459431448152065,3.836,0.427,0.264,1423495907799999952
1423459431723287225,587,1423459431689866065,3.845,0.438,0.257,1423495908000000000
1423459432637895001,588,1423459432606956958,3.87,0.443,0.261,1423495908900000095
1423459432851612421,589,1423459432838794946,3.886,0.442,0.262,1423495909200000047
1423459433115304601,590,1423459433068526029,3.879,0.445,0.249,1423495909400000095
1423459433579287207,591,1423459433530997991,3.899,0.437,0.253,1423495909900000095
1423459433792969465,592,1423459433758753061,3.912,0.446,0.261,1423495910099999904
1423459434006505780,593,1423459433987545967,3.905,0.445,0.253,1423495910299999952
1423459434270218842,594,1423459434252218008,3.923,0.448,0.26,1423495910599999904
1423459434533898669,595,1423459434488959074,3.936,0.445,0.256,1423495910799999952
1423459434747586140,596,1423459434734743118,3.936,0.449,0.263,1423495911099999904
1423459435211663649,597,1423459435198246955,3.949,0.452,0.257,1423495911500000000
1423459435475314805,598,1423459435428009986,3.962,0.447,0.257,1423495911799999952
1423459435689034581,599,1423459435659698009,3.959,0.451,0.262,1423495912000000000
1423459436153020944,600,1423459436120259046,3.972,0.45,0.252,1423495912400000095
1423459436366689854,601,1423459436351016998,3.986,0.452,0.259,1423495912700000047
1423459436780619016,602,1423459436756647109,3.977,0.455,0.25,1423495913099999904
1423459437044358529,603,1423459436998357057,3.998,0.452,0.256,1423495913299999952
1423459437258065303,604,1423459437233052968,4.01,0.455,0.261,1423495913599999904
1423459437471700813,605,1423459437467833042,4.004,0.459,0.251,1423495913799999952
1423459437985730368,606,1423459437940336942,4.021,0.454,0.257,1423495914299999952
1423459438199430041,607,1423459438168066024,4.036,0.46,0.263,1423495914500000000
1423459438413126511,608,1423459438398823022,4.029,0.458,0.257,1423495914700000047
1423459438877129659,609,1423459438871444940,4.045,0.455,0.253,1423495915200000047
1423459439140842867,610,1423459439097138881,4.055,0.463,0.266,1423495915400000095
1423459439855050194,611,1423459439817450046,4.067,0.46,0.255,1423495916099999904
1423459440068689831,612,1423459440058141946,4.079,0.467,0.267,1423495916400000095
1423459440532669463,613,1423459440520725011,4.09,0.469,0.26,1423495916799999952
1423459440796375470,614,1423459440752338886,4.093,0.463,0.258,1423495917099999904
1423459441010039791,615,1423459440989141941,4.097,0.475,0.249,1423495917299999952
1423459441474163875,616,1423459441458667039,4.115,0.47,0.253,1423495917799999952
1423459441737912548,617,1423459441689400911,4.127,0.476,0.259,1423495918000000000
1423459441951635242,618,1423459441919249057,4.115,0.478,0.249,1423495918200000047
1423459442415636666,619,1423459442379766941,4.138,0.475,0.249,1423495918700000047
1423459442629335249,620,1423459442608535051,4.149,0.483,0.259,1423495918900000095
1423459443343599910,621,1423459443296829938,4.16,0.478,0.256,1423495919599999904
1423459443557158393,622,1423459443531512022,4.17,0.488,0.263,1423495919900000095
1423459443770759969,623,1423459443759352922,4.173,0.481,0.264,1423495920099999904
1423459444034487904,624,1423459443999149084,4.179,0.492,0.263,1423495920299999952
1423459444248107565,625,1423459444228884935,4.183,0.488,0.254,1423495920599999904
1423459445212724209,626,1423459445168859004,4.203,0.496,0.255,1423495921500000000
1423459445426383306,627,1423459445408627986,4.203,0.504,0.254,1423495921700000047
1423459445639987664,628,1423459445638371944,4.22,0.501,0.258,1423495922000000000
1423459445903712039,629,1423459445871081113,4.216,0.499,0.255,1423495922200000047
1423459446117381346,630,1423459446097884893,4.229,0.504,0.264,1423495922400000095
1423459446831666145,631,1423459446818154096,4.236,0.502,0.253,1423495923099999904
1423459447095365685,632,1423459447048882007,4.247,0.512,0.263,1423495923400000095
1423459447308949971,633,1423459447280605077,4.236,0.51,0.252,1423495923599999904
1423459447522579569,634,1423459447507419109,4.254,0.515,0.259,1423495923799999952
1423459447786296833,635,1423459447746119976,4.256,0.513,0.254,1423495924099999904
1423459448450538142,636,1423459448448468923,4.27,0.52,0.259,1423495924799999952
1423459448714245207,637,1423459448694176912,4.276,0.521,0.255,1423495925000000000
1423459449428599840,638,1423459449388405084,4.284,0.525,0.252,1423495925700000047
1423459449642289215,639,1423459449618176937,4.293,0.53,0.256,1423495925900000095
1423459450356603406,640,1423459450319415092,4.301,0.528,0.252,1423495926599999904
1423459450570217002,641,1423459450550226926,4.311,0.535,0.262,1423495926900000095
1423459450783834028,642,1423459450778986930,4.306,0.535,0.257,1423495927099999904
1423459451247843400,643,1423459451238449096,4.318,0.534,0.255,1423495927599999904
1423459451511530022,644,1423459451469198942,4.327,0.542,0.265,1423495927799999952
1423459451725124268,645,1423459451698956966,4.318,0.545,0.249,1423495928000000000
1423459451938693430,646,1423459451931734085,4.335,0.546,0.261,1423495928299999952
1423459452202456326,647,1423459452159552097,4.339,0.543,0.255,1423495928500000000
1423459452866702536,648,1423459452860764980,4.349,0.553,0.259,1423495929200000047
1423459453130452323,649,1423459453088576078,4.354,0.553,0.255,1423495929400000095
1423459453344054709,650,1423459453320312976,4.347,0.559,0.249,1423495929599999904
1423459453808100558,651,1423459453777837991,4.364,0.556,0.258,1423495930099999904
1423459454021746338,652,1423459454008605957,4.371,0.561,0.256,1423495930299999952
1423459454285516017,653,1423459454238352060,4.362,0.565,0.25,1423495930599999904
1423459454749506470,654,1423459454722827911,4.378,0.561,0.254,1423495931000000000
1423459454963062637,655,1423459454933619976,4.386,0.566,0.259,1423495931299999952
1423459455677452377,656,1423459455627846956,4.397,0.568,0.251,1423495932000000000
1423459455891105847,657,1423459455872522115,4.407,0.578,0.259,1423495932200000047
1423459456104742035,658,1423459456098357915,4.405,0.578,0.26,1423495932400000095
1423459456368445786,659,1423459456331068038,4.403,0.578,0.26,1423495932700000047
1423459456582121769,660,1423459456560792922,4.404,0.577,0.261,1423495932900000095
1423459457496763923,661,1423459457487951040,4.404,0.577,0.261,1423495933799999952
