%time,field.transforms0.header.seq,field.transforms0.header.stamp,field.transforms0.transform.translation.x,field.transforms0.transform.translation.y,field.transforms0.transform.translation.z,field.transforms0.transform.rotation.x,field.transforms0.transform.rotation.y,field.transforms0.transform.rotation.z,field.transforms0.transform.rotation.w
1423458518023700351,0,1423458518023582776,6.69707345963,9.07396030426,11.6130943298,0.0257039672842,0.999644203868,-1.51932699921e-11,0.00712542897246
1423458518043723081,0,1423458518043582338,6.69579219818,9.07412719727,11.6139173508,0.0257499348552,0.999643097404,-1.51933700783e-11,0.00711467965136
1423458518063705300,0,1423458518063577499,6.6961889267,9.07491016388,11.6132707596,0.0257190590004,0.999643967414,-1.51932388791e-11,0.00710411262547
1423458518083720371,0,1423458518083579038,6.69530487061,9.07528018951,11.6135654449,0.0257612426392,0.999643136139,-1.51931038194e-11,0.00706815022708
1423458518083824018,0,1423458518083633195,6.69564390182,9.0752286911,11.6136522293,0.025743015731,0.999643580416,-1.5193173856e-11,0.00707172353644
1423458518103859299,0,1423458518103614952,6.69723176956,9.07486248016,11.6129426956,0.0256962571418,0.999644465453,-1.51929534924e-11,0.00711653417725
1423458518123671126,0,1423458518123579412,6.69712638855,9.07482337952,11.6129169464,0.0256788356451,0.999644877688,-1.51929061213e-11,0.0071215104975
1423458518143690823,0,1423458518143584082,6.69601106644,9.07481956482,11.6133060455,0.0257304155547,0.999643718115,-1.51930095087e-11,0.00709806651481
1423458518163713679,0,1423458518163574571,6.69584417343,9.0752363205,11.6130123138,0.0257270775939,0.999643748606,-1.51929288399e-11,0.0071058673732
1423458518183715194,0,1423458518183577103,6.69647932053,9.07485485077,11.6129198074,0.0257032008896,0.999644264566,-1.51929724348e-11,0.00711967579917
1423458518183974336,0,1423458518183627365,6.69681787491,9.07546806335,11.6122465134,0.0256972722497,0.999644469372,-1.5192473557e-11,0.0071123170361
1423458518203713468,0,1423458518203575547,6.6961350441,9.07600498199,11.6121253967,0.0256990977445,0.999644616905,-1.51922804816e-11,0.00708493251916
1423458518223738104,0,1423458518223582093,6.69490861893,9.07624816895,11.6126384735,0.0257389371173,0.99964376691,-1.51923556007e-11,0.00706019788245
1423458518243750558,0,1423458518243575128,6.69451093674,9.07748031616,11.6120376587,0.0257410674481,0.999643760636,-1.51917586572e-11,0.0070533161447
1423458518263716202,0,1423458518263573591,6.69464635849,9.07677555084,11.6123132706,0.0257504057408,0.999643512445,-1.51918442612e-11,0.00705440501401
1423458518283692190,0,1423458518283578546,6.69531822205,9.07618808746,11.6125059128,0.0257315708931,0.999643840251,-1.51921421779e-11,0.00707664527138
1423458518283948472,0,1423458518283634066,6.69716119766,9.07533073425,11.6117620468,0.0256936667518,0.999644524651,-1.51923850009e-11,0.00711757155729
1423458518303718558,0,1423458518303574859,6.69656896591,9.07541561127,11.611998558,0.025704862845,0.999644374559,-1.51922080538e-11,0.00709819967701
1423458518323699209,0,1423458518323575165,6.69509792328,9.07615375519,11.6123456955,0.0257506533725,0.99964341039,-1.51918935884e-11,0.00706794986669
1423458518343696007,0,1423458518343580648,6.69539165497,9.07526016235,11.6131715775,0.0257491397915,0.999643306291,-1.51925438902e-11,0.00708815831539
1423458518363720248,0,1423458518363571496,6.69628047943,9.07559108734,11.6125907898,0.0257240015198,0.999643874195,-1.51924232483e-11,0.00709933311888
1423458518383771867,0,1423458518383575720,6.69470739365,9.07727622986,11.612288475,0.0257727564072,0.999642993408,-1.51917373725e-11,0.007046329386
1423458518383785564,0,1423458518383624375,6.69540691376,9.07665157318,11.612323761,0.0257478972649,0.999643413508,-1.51919692724e-11,0.00707754316968
1423458518403666318,0,1423458518403575137,6.6958117485,9.07611560822,11.612578392,0.0257325482819,0.999643719925,-1.51922517334e-11,0.00709007576471
1423458518423731735,0,1423458518423575202,6.69599246979,9.07557582855,11.6129627228,0.0257254263307,0.999643882375,-1.51925732853e-11,0.00709301559673
1423458518443718045,0,1423458518443576794,6.69628667831,9.07507801056,11.6128845215,0.0257077866007,0.999644275893,-1.51926741636e-11,0.00710150559564
1423458518463726584,0,1423458518463581677,6.69694471359,9.07503890991,11.6126747131,0.0256805570066,0.999644781894,-1.51923283804e-11,0.00712874636855
1423458518483741380,0,1423458518483577092,6.69659233093,9.075258255,11.6127033234,0.0256915889198,0.999644631549,-1.51924155071e-11,0.00711005438938
1423458518483754932,0,1423458518483624222,6.6959104538,9.07571315765,11.6129922867,0.0257136178929,0.999644198139,-1.51922397477e-11,0.00709133140897
1423458518503738619,0,1423458518503578424,6.69708538055,9.07482147217,11.6131210327,0.025673931213,0.999644986552,-1.51926546863e-11,0.00712391166027
1423458518523704921,0,1423458518523573511,6.69868564606,9.07534790039,11.6117601395,0.0256342608967,0.999645810901,-1.51920565897e-11,0.0071510430095
1423458518543733942,0,1423458518543575928,6.69843101501,9.07587146759,11.6112384796,0.0256409096426,0.999645744387,-1.51915508817e-11,0.00713648943522
1423458518563709515,0,1423458518563575637,6.69755029678,9.07607078552,11.611577034,0.0256614954799,0.999645329054,-1.51916394594e-11,0.0071206566153
1423458518583733698,0,1423458518583586680,6.69969654083,9.07575416565,11.6110248566,0.0255789225542,0.999647163616,-1.51918969881e-11,0.00716009751644
1423458518583819069,0,1423458518583627533,6.69851398468,9.0759677887,11.6115131378,0.0256210720608,0.999646250051,-1.51917029567e-11,0.00713690586575
1423458518603718175,0,1423458518603575455,6.69714975357,9.07549953461,11.612736702,0.0256761550604,0.999644993938,-1.51920345426e-11,0.00711485453756
1423458518623749210,0,1423458518623579369,6.69737195969,9.07612228394,11.6119565964,0.0256780885539,0.999644901138,-1.51917814817e-11,0.00712091264401
1423458518643701586,0,1423458518643576188,6.69786453247,9.07562923431,11.6118860245,0.025663395886,0.999645087696,-1.51920346091e-11,0.0071476399445
1423458518663729406,0,1423458518663577423,6.69664812088,9.07582378387,11.6124753952,0.0256856980068,0.999644933522,-1.51921560398e-11,0.00708885046422
1423458518683901196,0,1423458518683575005,6.69691419601,9.0758638382,11.6122283936,0.0256629139376,0.999645371106,-1.51920003945e-11,0.00710963248452
1423458518684234858,0,1423458518683615962,6.69663143158,9.07623958588,11.6122436523,0.0256625510939,0.999645423314,-1.5192014948e-11,0.00710359901232
1423458518703728582,0,1423458518703587200,6.69636774063,9.07636260986,11.6119594574,0.0256693839811,0.999645225307,-1.51919032892e-11,0.0071067747681
1423458518723688403,0,1423458518723573873,6.69662237167,9.07593727112,11.6121673584,0.0256742232916,0.999645098092,-1.51920443751e-11,0.00710718788872
1423458518743684326,0,1423458518743572101,6.69548845291,9.07524013519,11.6134262085,0.0257157220321,0.999644181457,-1.51925489461e-11,0.00708605102355
1423458518763692068,0,1423458518763574652,6.69582796097,9.07556152344,11.6132001877,0.025712073616,0.99964424334,-1.5192508608e-11,0.00709055903983
1423458518783739642,0,1423458518783579914,6.69641065598,9.07564640045,11.6125936508,0.0257066855058,0.999644261296,-1.51922640858e-11,0.00710754376626
1423458518783802250,0,1423458518783637695,6.69644069672,9.07596111298,11.6125545502,0.0257099097855,0.999644296594,-1.51921958711e-11,0.00709089734601
1423458518803730742,0,1423458518803576599,6.69781446457,9.07594871521,11.6119337082,0.0256675287899,0.999645155432,-1.51919902504e-11,0.00712328479346
1423458518823711467,0,1423458518823583654,6.69657564163,9.07730102539,11.6117858887,0.0256973670282,0.999644835148,-1.51914930624e-11,0.00706037461594
1423458518843722839,0,1423458518843577453,6.69586324692,9.07725524902,11.6123447418,0.0257110918985,0.999644462769,-1.51917514304e-11,0.00706313020319
1423458518863711836,0,1423458518863567955,6.69693470001,9.07702159882,11.6117486954,0.0256754208931,0.99964518895,-1.51914228003e-11,0.00709006146873
1423458518883724587,0,1423458518883579371,6.69590425491,9.07689857483,11.6123352051,0.0257151480987,0.999644354962,-1.51916301578e-11,0.00706362169834
1423458518883774868,0,1423458518883630529,6.69591999054,9.07703590393,11.6124811172,0.0257260476614,0.99964407015,-1.51916643394e-11,0.00706423990655
1423458518903735078,0,1423458518903576373,6.69693279266,9.07637882233,11.6125030518,0.0256882090712,0.999644835582,-1.519204728e-11,0.00709356111263
1423458518923711471,0,1423458518923572234,6.6975569725,9.0761346817,11.6122264862,0.0256571099625,0.999645642925,-1.51921654319e-11,0.00709234020805
1423458518943719168,0,1423458518943587284,6.69739627838,9.07522773743,11.6128072739,0.0256571298773,0.999645573898,-1.51927365126e-11,0.0071019907579
1423458518963724909,0,1423458518963579776,6.69724798203,9.0755109787,11.6126270294,0.0256501465832,0.999645762462,-1.51925784696e-11,0.00710067399161
1423458518983789710,0,1423458518983576365,6.69691705704,9.07601356506,11.6124782562,0.0256715812486,0.999645228238,-1.51921426401e-11,0.00709842079338
1423458518983804312,0,1423458518983622055,6.69589042664,9.07677555084,11.612493515,0.0256917916792,0.999644895603,-1.51917511431e-11,0.00707209559513
1423458519003735358,0,1423458519003577873,6.69502544403,9.07682609558,11.6129722595,0.0257184525334,0.999644294483,-1.51919785518e-11,0.00706014920327
1423458519023719921,0,1423458519023582023,6.69376993179,9.07800197601,11.6127901077,0.0257599628705,0.999643401842,-1.51916802983e-11,0.00703515933494
1423458519043698453,0,1423458519043576401,6.69601011276,9.07658576965,11.6133794785,0.0257191937694,0.999644158612,-1.51919503566e-11,0.00707666761895
1423458519063715588,0,1423458519063582075,6.69649982452,9.07587432861,11.6133031845,0.025708819815,0.999644354123,-1.51923906565e-11,0.00708673790512
1423458519083877022,0,1423458519083584943,6.69596242905,9.07644367218,11.6133499146,0.0257204522484,0.99964405469,-1.51921124279e-11,0.00708676648052
1423458519083910816,0,1423458519083657906,6.69484758377,9.07702827454,11.6134586334,0.0257554181725,0.999643326043,-1.51921137131e-11,0.00706251602934
1423458519103714602,0,1423458519103575170,6.69575452805,9.07663059235,11.6131534576,0.0257280692008,0.999643971643,-1.51920465269e-11,0.00707081422652
1423458519123725386,0,1423458519123575441,6.69600248337,9.07657527924,11.6127157211,0.0257026579546,0.999644580463,-1.5192068158e-11,0.00707715515633
1423458519143733620,0,1423458519143574317,6.69662714005,9.07559967041,11.6131505966,0.0257051669531,0.999644224569,-1.51925248367e-11,0.00711819347246
1423458519163695191,0,1423458519163574318,6.6969742775,9.0758638382,11.612903595,0.025707023799,0.99964420541,-1.51924874113e-11,0.00711417723891
1423458519183729099,0,1423458519183593507,6.69899606705,9.07514381409,11.6125278473,0.0256546242074,0.999645214696,-1.51923445791e-11,0.00716135409005
1423458519183740796,0,1423458519183642032,6.69795465469,9.07458400726,11.6132278442,0.0256934829638,0.999644150061,-1.5192686e-11,0.00717064724595
1423458519203686024,0,1423458519203570658,6.69662904739,9.07646179199,11.6128015518,0.0257205056162,0.999643856625,-1.5191901747e-11,0.007114457245
1423458519223731241,0,1423458519223574327,6.69645166397,9.07589244843,11.6132564545,0.0257008083221,0.999644363903,-1.51924458218e-11,0.00711436348996
1423458519243778666,0,1423458519243577470,6.69479560852,9.07586956024,11.6139526367,0.0257523708985,0.999643188389,-1.51926232302e-11,0.00709304599522
1423458519263726782,0,1423458519263571440,6.696641922,9.0760269165,11.6130313873,0.0256905372123,0.999644616465,-1.51923437469e-11,0.00711597285086
1423458519283691166,0,1423458519283580707,6.69707965851,9.07631015778,11.6123437881,0.0256630090581,0.999645397201,-1.51921286841e-11,0.00710561898123
1423458519283748930,0,1423458519283647220,6.69727993011,9.0753736496,11.6132192612,0.0256726087511,0.999644987256,-1.51926519641e-11,0.00712857722425
1423458519303734492,0,1423458519303586833,6.69823455811,9.07607269287,11.6118850708,0.0256197215598,0.999646307956,-1.51920792685e-11,0.00713364256347
1423458519323697476,0,1423458519323571740,6.6985578537,9.07614707947,11.6118812561,0.0256341781251,0.999645861176,-1.51919019499e-11,0.00714430857183
1423458519343705417,0,1423458519343580914,6.697453022,9.0763130188,11.6121349335,0.025680829519,0.99964474895,-1.5191920805e-11,0.00713238329392
1423458519363745486,0,1423458519363574253,6.69802284241,9.07611370087,11.6119670868,0.0256606168698,0.999645164561,-1.519185424e-11,0.00714686722111
1423458519383715468,0,1423458519383581515,6.69716930389,9.07543563843,11.613038063,0.0256848806322,0.999644638237,-1.51925256267e-11,0.00713331272121
1423458519383779564,0,1423458519383628327,6.69735145569,9.07602500916,11.612452507,0.0256687230377,0.999645001963,-1.51921598261e-11,0.00714049767969
1423458519403741755,0,1423458519403580535,6.69576931,9.07681083679,11.6128339767,0.0257238487569,0.999644012873,-1.51921860562e-11,0.00708033417639
1423458519423804264,0,1423458519423611236,6.69639587402,9.07728099823,11.6118068695,0.0256842431577,0.999644917135,-1.51915782038e-11,0.00709642859383
1423458519443708384,0,1423458519443580680,6.69535541534,9.07711791992,11.6125631332,0.0257208181757,0.999644114,-1.51918107703e-11,0.00707706565665
1423458519463731763,0,1423458519463580062,6.6943860054,9.07872962952,11.6119966507,0.025737625529,0.99964403031,-1.51911741958e-11,0.00702760972065
1423458519484203766,0,1423458519483577516,6.69528961182,9.07866001129,11.6114177704,0.0257170608057,0.999644375305,-1.51911697936e-11,0.00705377229789
1423458519484209210,0,1423458519483637975,6.69400167465,9.07836818695,11.6123466492,0.0257649325564,0.999643340021,-1.51913025806e-11,0.00702573849581
1423458519503713316,0,1423458519503573427,6.69451570511,9.0775680542,11.6131258011,0.025760616548,0.999643406403,-1.51919774334e-11,0.00703211702035
1423458519523724716,0,1423458519523574481,6.69441318512,9.0777053833,11.6127071381,0.0257664766097,0.999643302152,-1.51917777994e-11,0.00702546412156
1423458519543720360,0,1423458519543584636,6.69465398788,9.07735919952,11.6123361588,0.0257627700244,0.999643301663,-1.51917131653e-11,0.00703911366219
1423458519563721839,0,1423458519563575008,6.69598293304,9.07610988617,11.613073349,0.0257226156119,0.999644057793,-1.51922527536e-11,0.00707847198729
1423458519583724169,0,1423458519583575792,6.69604730606,9.07718658447,11.6121225357,0.025710692967,0.999644548109,-1.5191666105e-11,0.00705249624399
1423458519583789836,0,1423458519583623520,6.69598245621,9.07857131958,11.6110973358,0.0256974700746,0.999645032849,-1.5190708152e-11,0.00703195081299
1423458519603708260,0,1423458519603570291,6.69634246826,9.07733345032,11.6116981506,0.0256925978891,0.999644823529,-1.51912329922e-11,0.00707935062089
1423458519623721938,0,1423458519623573556,6.69706249237,9.07674503326,11.6117219925,0.025674370623,0.999645246277,-1.51916162057e-11,0.00708578069863
1423458519643746236,0,1423458519643586668,6.69789838791,9.076795578,11.6113300323,0.0256482976392,0.99964577732,-1.51915101431e-11,0.00710525968267
1423458519663731106,0,1423458519663579805,6.69793605804,9.07669830322,11.6114625931,0.0256304232725,0.999646264121,-1.51916206668e-11,0.00710126978656
1423458519683742867,0,1423458519683576676,6.69787693024,9.07725524902,11.6110010147,0.025641854922,0.999646059123,-1.51909767453e-11,0.00708884735142
1423458519683890694,0,1423458519683623952,6.69532060623,9.0773897171,11.6121530533,0.0257128894284,0.999644639409,-1.51911861975e-11,0.00703151607589
1423458519703721991,0,1423458519703573392,6.69526290894,9.0774230957,11.6119785309,0.0257030812099,0.999645018248,-1.51913322013e-11,0.00701349474348
1423458519723710971,0,1423458519723572326,6.69501543045,9.07685279846,11.6128988266,0.025719883895,0.999644504496,-1.5191831842e-11,0.00702511230063
1423458519743737949,0,1423458519743577117,6.69515037537,9.0771188736,11.6128339767,0.0257284267099,0.999644247561,-1.51915212704e-11,0.00703038949077
1423458519763726722,0,1423458519763576188,6.69453430176,9.07703208923,11.6130208969,0.0257494571246,0.999643782462,-1.51914564303e-11,0.00701951863476
1423458519783731952,0,1423458519783584803,6.69650554657,9.07686138153,11.6117086411,0.0256900700945,0.999645018246,-1.51914504755e-11,0.00706100519915
1423458519783778380,0,1423458519783624000,6.69602394104,9.07670116425,11.6118850708,0.0257057017597,0.999644621281,-1.5191587445e-11,0.0070603145618
1423458519803731942,0,1423458519803573288,6.69570016861,9.0763168335,11.6123733521,0.0257137997797,0.999644411317,-1.51919445639e-11,0.00706055405187
1423458519823750939,0,1423458519823574676,6.69525671005,9.07648849487,11.6124639511,0.0257320748446,0.999643933316,-1.51917819004e-11,0.00706165057775
1423458519843711167,0,1423458519843574897,6.6959195137,9.07618999481,11.6125078201,0.0257061034977,0.999644489259,-1.51921424013e-11,0.00707752343516
1423458519863703445,0,1423458519863574836,6.69598245621,9.07602977753,11.6127033234,0.0256885565076,0.999645007142,-1.51922410372e-11,0.00706808040837
1423458519883719236,0,1423458519883574589,6.69630718231,9.07579898834,11.6128234863,0.0256733193332,0.999645282087,-1.51923662499e-11,0.00708453771734
1423458519883806751,0,1423458519883619992,6.69671154022,9.07549476624,11.6127319336,0.0256725102961,0.999645273034,-1.51924664949e-11,0.00708874576985
1423458519903736472,0,1423458519903581725,6.69712686539,9.07604312897,11.612241745,0.0256668948435,0.999645458038,-1.51922410175e-11,0.00708298902404
1423458519923721631,0,1423458519923574517,6.69732236862,9.07715034485,11.6114854813,0.0256597343394,0.999645571199,-1.5191566122e-11,0.00709295541514
1423458519943714074,0,1423458519943572724,6.69859886169,9.07682704926,11.6105279922,0.0256214401413,0.999646407685,-1.51915238279e-11,0.00711346658141
1423458519963724938,0,1423458519963572417,6.69824123383,9.07659053802,11.6109552383,0.0256250517664,0.999646296094,-1.51916046442e-11,0.0071161384898
1423458519983720747,0,1423458519983576565,6.69764089584,9.07642745972,11.6115341187,0.0256415847994,0.999645891528,-1.51919643133e-11,0.00711341549674
1423458519983801766,0,1423458519983634265,6.69562005997,9.07769584656,11.6119098663,0.0257053343629,0.999644491394,-1.51914204672e-11,0.00708001484168
1423458520003688033,0,1423458520003568394,6.69453048706,9.07778644562,11.6120023727,0.02571527982,0.999644615372,-1.51914924707e-11,0.0070261896855
1423458520023713588,0,1423458520023587753,6.6950469017,9.07734203339,11.61195755,0.0257097552058,0.999644586359,-1.51912857554e-11,0.00705049298047
1423458520043734431,0,1423458520043585617,6.69620227814,9.07623291016,11.6120700836,0.0256805884669,0.999645137207,-1.51916544139e-11,0.00707863222743
1423458520063751009,0,1423458520063570437,6.69692468643,9.07609844208,11.611989975,0.0256799254333,0.999644922002,-1.5191693774e-11,0.00711135320969
1423458520083716250,0,1423458520083576548,6.69684076309,9.07576179504,11.6125907898,0.0256781969389,0.999645001208,-1.51919342705e-11,0.00710645910875
1423458520083877230,0,1423458520083627554,6.69638872147,9.07591915131,11.6128854752,0.0257114369063,0.999644253203,-1.51920054261e-11,0.00709147724247
1423458520103719128,0,1423458520103573418,6.69489526749,9.07696247101,11.6130218506,0.0257430773639,0.999643720196,-1.51918116574e-11,0.00705171194254
1423458520123716144,0,1423458520123570315,6.69281864166,9.07692718506,11.6145219803,0.0258041978272,0.999642526367,-1.5192426135e-11,0.0069973461475
1423458520143713609,0,1423458520143584393,6.69388628006,9.0766658783,11.6138820648,0.0258017964645,0.999642336731,-1.51923792343e-11,0.00703320088047
1423458520163742339,0,1423458520163572099,6.69661998749,9.07591342926,11.6128387451,0.0257077093923,0.999644378863,-1.51921338568e-11,0.00708727630266
1423458520183739343,0,1423458520183573083,6.69472885132,9.07616519928,11.6136426926,0.0257555487811,0.999643253607,-1.51923175237e-11,0.00707228573989
1423458520183759432,0,1423458520183626886,6.69634485245,9.07501316071,11.6139478683,0.0257270014337,0.999643697803,-1.51930408366e-11,0.00711328609153
1423458520203721353,0,1423458520203573297,6.69805908203,9.07514858246,11.6128425598,0.0256532689138,0.999645292825,-1.51927762504e-11,0.00715530064488
1423458520223753235,0,1423458520223601859,6.69696140289,9.07523727417,11.6132583618,0.0257004826559,0.999644295856,-1.51928601382e-11,0.00712509323609
1423458520243730205,0,1423458520243579349,6.6959233284,9.07535934448,11.6137781143,0.0257523089456,0.999642945646,-1.51928285988e-11,0.00712739811716
1423458520263734300,0,1423458520263587733,6.69638872147,9.07511425018,11.6135530472,0.0257340480359,0.999643385893,-1.51930553656e-11,0.00713160656632
1423458520283739464,0,1423458520283597262,6.69672632217,9.07498073578,11.6133537292,0.0257130243743,0.999643993907,-1.51928899169e-11,0.00712220637925
1423458520283749743,0,1423458520283649017,6.69656944275,9.07553100586,11.6129426956,0.0257077616765,0.999644226481,-1.51926995348e-11,0.00710854780166
1423458520303716825,0,1423458520303575367,6.69462299347,9.07652854919,11.6133852005,0.0257512591878,0.999643474381,-1.51922026185e-11,0.00705668313921
1423458520323710674,0,1423458520323582074,6.69209289551,9.0793466568,11.6124267578,0.0258176474653,0.999642305815,-1.51910833479e-11,0.00697921944401
1423458520343731283,0,1423458520343578196,6.69552612305,9.07903194427,11.6105575562,0.025728193294,0.999644076114,-1.51906221222e-11,0.00705557647353
1423458520363692793,0,1423458520363577646,6.69633960724,9.07595348358,11.6120376587,0.0257060228414,0.999644327371,-1.51924975153e-11,0.00710064393449
1423458520383698668,0,1423458520383591768,6.69726848602,9.07562255859,11.6118793488,0.0256930678825,0.999644519703,-1.51921813634e-11,0.00712042776052
1423458520383710646,0,1423458520383642157,6.69730186462,9.07451915741,11.6128225327,0.0257077119977,0.999643959271,-1.51926033257e-11,0.00714620438405
1423458520403673642,0,1423458520403576798,6.69665241241,9.07617664337,11.6123380661,0.0256906696301,0.999644840257,-1.51921009773e-11,0.00708398489009
1423458520423691493,0,1423458520423551192,6.69671869278,9.0754365921,11.6130933762,0.0256950991422,0.99964465758,-1.51927721035e-11,0.00709369099025
1423458520443754263,0,1423458520443576316,6.69585609436,9.07608032227,11.6129961014,0.0257061576671,0.999644598626,-1.51924301343e-11,0.00706186210835
1423458520463710076,0,1423458520463572638,6.69665575027,9.07581996918,11.6128549576,0.0256962092008,0.999644576694,-1.51923115154e-11,0.00710106460929
1423458520483694524,0,1423458520483576089,6.69706583023,9.07465267181,11.6133384705,0.0256900888629,0.99964458234,-1.51928328451e-11,0.00712238253208
1423458520483752844,0,1423458520483627434,6.69644546509,9.07483291626,11.6137208939,0.0257011353155,0.999644361646,-1.51929450377e-11,0.00711349928733
1423458520503713906,0,1423458520503581533,6.69660139084,9.07433986664,11.6139431,0.0257208912319,0.999643796521,-1.51931083703e-11,0.00712150490811
1423458520523695751,0,1423458520523573583,6.69565725327,9.07467556,11.6141490936,0.0257636571445,0.999642851765,-1.5192908333e-11,0.0070994989957
1423458520543742478,0,1423458520543576981,6.69501399994,9.07507419586,11.6142196655,0.0257728893217,0.999642799552,-1.51927658794e-11,0.00707329335261
1423458520563715974,0,1423458520563572204,6.69471120834,9.07562446594,11.6137313843,0.0257596810871,0.999643156294,-1.51925815003e-11,0.00707099039828
1423458520583714346,0,1423458520583571988,6.69486236572,9.07663345337,11.6133089066,0.0257395010651,0.999643802948,-1.51919023187e-11,0.00705303573014
1423458520583770016,0,1423458520583609814,6.69666099548,9.07703113556,11.6116132736,0.0256600753999,0.999645571471,-1.51913997423e-11,0.00709168301232
1423458520603732212,0,1423458520603572350,6.69567108154,9.07594108582,11.6127872467,0.0257372796831,0.99964357797,-1.51918012376e-11,0.00709291602452
1423458520623730389,0,1423458520623585602,6.69615793228,9.07556819916,11.6126289368,0.0257191608243,0.999643932189,-1.51919592748e-11,0.00710869914263
1423458520643716211,0,1423458520643577180,6.69722270966,9.075548172,11.6123209,0.0256737137812,0.999645050775,-1.51921729399e-11,0.00711567863329
1423458520663735597,0,1423458520663575618,6.69710540771,9.07608222961,11.6120557785,0.0256730713208,0.999645065209,-1.51918128545e-11,0.00711596878709
1423458520683733337,0,1423458520683575784,6.69819402695,9.07513046265,11.6120767593,0.0256430744122,0.999645608442,-1.51923643269e-11,0.00714774488037
1423458520683819056,0,1423458520683625940,6.69693231583,9.0758600235,11.6120071411,0.0256806938546,0.999644936903,-1.51920680555e-11,0.00710648210519
1423458520703696482,0,1423458520703569834,6.69673061371,9.07592582703,11.61195755,0.0256784045228,0.999645041203,-1.51922126728e-11,0.00710008026167
1423458520723719743,0,1423458520723574003,6.69609832764,9.07685661316,11.6117200851,0.0257037128362,0.999644555359,-1.51917941117e-11,0.00707686984155
1423458520743733025,0,1423458520743586517,6.69644594193,9.07615184784,11.6124458313,0.025708027054,0.999644296453,-1.51920775989e-11,0.00709773999429
1423458520763758714,0,1423458520763570688,6.69611024857,9.07668685913,11.6117963791,0.0257080982457,0.999644438323,-1.51916534298e-11,0.00707747237455
1423458520783725005,0,1423458520783574896,6.69599294662,9.07680511475,11.6117353439,0.025706454723,0.999644469538,-1.51916965287e-11,0.007079032893
1423458520783907044,0,1423458520783621237,6.69621515274,9.07648849487,11.6120481491,0.0256897446375,0.99964489222,-1.51919436274e-11,0.00708000556903
1423458520803727658,0,1423458520803570556,6.69691514969,9.07597064972,11.6122846603,0.0256671352662,0.999645361201,-1.51922711766e-11,0.00709577314679
1423458520823715647,0,1423458520823574067,6.69593334198,9.07591342926,11.6130886078,0.0257139989398,0.999644289792,-1.5192342909e-11,0.00707701520843
1423458520843723239,0,1423458520843575554,6.69638490677,9.07561016083,11.6130886078,0.0256885240281,0.999644869704,-1.51926432844e-11,0.00708760940671
1423458520863746330,0,1423458520863583556,6.6961812973,9.07383918762,11.6143550873,0.0257081631649,0.999644193855,-1.51933262175e-11,0.00711168325668
1423458520883727641,0,1423458520883576215,6.69702005386,9.07448291779,11.6137599945,0.0256870678623,0.999644654744,-1.51929880067e-11,0.00712311631497
1423458520883972659,0,1423458520883629441,6.69700574875,9.07611846924,11.6126117706,0.0256771691564,0.99964502416,-1.51922564237e-11,0.00710694420451
1423458520903732466,0,1423458520903575022,6.69745206833,9.07502841949,11.6131038666,0.0256624579972,0.999645325094,-1.51929459316e-11,0.00711774314665
1423458520923730913,0,1423458520923589471,6.69727516174,9.07592964172,11.6126756668,0.0256722371553,0.999645136857,-1.51922278946e-11,0.00710890966505
1423458520943722348,0,1423458520943575961,6.69709062576,9.07570552826,11.6129016876,0.0256805172359,0.999644994593,-1.51924939096e-11,0.00709900133648
1423458520963707308,0,1423458520963580616,6.69670534134,9.07587528229,11.6130418777,0.0256994558366,0.999644588819,-1.51924671051e-11,0.00708759579097
1423458520983760298,0,1423458520983585798,6.69637966156,9.07575702667,11.6133728027,0.0257118772284,0.999644125932,-1.5192758519e-11,0.00710780265477
1423458520983849769,0,1423458520983629455,6.69482851028,9.07692909241,11.6132068634,0.0257471223689,0.999643558468,-1.51923496852e-11,0.0070598656807
1423458521003763943,0,1423458521003579238,6.69437885284,9.07688713074,11.6133594513,0.0257575637163,0.999643308409,-1.51921849675e-11,0.0070571853727
1423458521023738059,0,1423458521023580750,6.69476795197,9.07666683197,11.613404274,0.0257372534609,0.999643756106,-1.51919827478e-11,0.00706786125903
1423458521043714404,0,1423458521043573552,6.69631624222,9.0753364563,11.6132707596,0.0256987487417,0.999644445759,-1.51925171909e-11,0.00711030064783
1423458521063703054,0,1423458521063574213,6.69726657867,9.07589912415,11.6123085022,0.0256761152257,0.999645002398,-1.51921749495e-11,0.00711380964425
1423458521083731578,0,1423458521083579706,6.69609928131,9.07624912262,11.6130924225,0.0257200822677,0.999643955717,-1.51920559066e-11,0.00710205365324
1423458521083834376,0,1423458521083637007,6.69741153717,9.07530021667,11.613240242,0.0256838302282,0.999644491731,-1.51923927408e-11,0.00715758455107
1423458521103702503,0,1423458521103580055,6.69874858856,9.07504177094,11.612534523,0.0256111756849,0.999646239314,-1.51923409106e-11,0.00717383473507
1423458521123719829,0,1423458521123581119,6.69800615311,9.07416248322,11.6133327484,0.0256462844361,0.999645363627,-1.51931569488e-11,0.00717043046842
1423458521143710212,0,1423458521143575950,6.69858312607,9.07454204559,11.6128635406,0.0256349254911,0.999645666449,-1.51927035445e-11,0.0071688314833
1423458521163695532,0,1423458521163572124,6.69888210297,9.07456016541,11.6127319336,0.0256111140156,0.999646323638,-1.51926213773e-11,0.00716229547931
1423458521183722188,0,1423458521183578968,6.69788742065,9.0757188797,11.6122074127,0.0256454084611,0.999645581956,-1.51920751177e-11,0.00714307363657
1423458521183822241,0,1423458521183631345,6.69778442383,9.07634830475,11.6117267609,0.0256433034769,0.999645734333,-1.51917377461e-11,0.00712929282145
1423458521203730666,0,1423458521203578578,6.69698667526,9.0761346817,11.6121406555,0.0256798373442,0.999644937777,-1.51919126751e-11,0.0071094535747
1423458521223764325,0,1423458521223583291,6.69877529144,9.07582569122,11.6112661362,0.025613715365,0.99964635763,-1.51918462496e-11,0.00714823494894
1423458521243728431,0,1423458521243578776,6.69828748703,9.07502651215,11.6123409271,0.025643403645,0.999645502145,-1.51924672427e-11,0.00716141685095
1423458521263769426,0,1423458521263581775,6.6985206604,9.07521915436,11.6122322083,0.0256412848188,0.999645605845,-1.51926544932e-11,0.00715452498946
1423458521283709826,0,1423458521283596550,6.69744825363,9.07571601868,11.612288475,0.0256630826059,0.99964522368,-1.51923296108e-11,0.00712972397881
1423458521283724042,0,1423458521283652962,6.69785451889,9.07438182831,11.6129770279,0.0256560273595,0.999645276227,-1.51932257656e-11,0.00714772525264
1423458521303742523,0,1423458521303575007,6.69765472412,9.07438564301,11.6130723953,0.0256570878361,0.999645272227,-1.51929946196e-11,0.00714447740352
1423458521323729078,0,1423458521323593063,6.69804048538,9.07586956024,11.6118268967,0.0256309777367,0.999646073429,-1.51922091057e-11,0.00712606895409
1423458521343729773,0,1423458521343585288,6.69747495651,9.07462024689,11.6128816605,0.0256566476634,0.999645369096,-1.51928846887e-11,0.0071324943409
1423458521363693887,0,1423458521363573550,6.6967291832,9.0748090744,11.613363266,0.0256934800286,0.999644420017,-1.51930270673e-11,0.00713292458133
1423458521383741406,0,1423458521383574699,6.69563102722,9.07647609711,11.6128740311,0.025732106344,0.999643736919,-1.51920993344e-11,0.00708928353836
1423458521383754616,0,1423458521383628978,6.69647264481,9.07517910004,11.6133775711,0.0256985281427,0.999644438595,-1.51930672401e-11,0.00711210501273
1423458521403697324,0,1423458521403571363,6.69793987274,9.07449626923,11.6130952835,0.0256669287415,0.999644928155,-1.51932754968e-11,0.00715726089709
1423458521423740668,0,1423458521423573800,6.69789505005,9.07395362854,11.6137475967,0.025663329996,0.99964503115,-1.51936580651e-11,0.00715578028949
1423458521443706079,0,1423458521443572124,6.69866418839,9.07469463348,11.6126976013,0.025606225171,0.999646514894,-1.51930933022e-11,0.00715307581225
1423458521463724813,0,1423458521463580911,6.69664669037,9.07545757294,11.6133337021,0.0256733546769,0.999645055336,-1.51929143214e-11,0.00711633342104
1423458521483699331,0,1423458521483576027,6.69773292542,9.07512283325,11.6127433777,0.0256208536686,0.999646232723,-1.5192980347e-11,0.00714011623298
1423458521483717348,0,1423458521483625257,6.69448709488,9.0784406662,11.6120691299,0.0257137480478,0.999644612442,-1.51915598139e-11,0.00703221002832
1423458521503712772,0,1423458521503570323,6.69567632675,9.07757377625,11.6121206284,0.0256874780966,0.999645079592,-1.5191661797e-11,0.00706175028024
1423458521523708782,0,1423458521523573623,6.69594240189,9.07725429535,11.6121349335,0.0256620575158,0.999645820199,-1.51919604625e-11,0.00704932362602
1423458521543722179,0,1423458521543574096,6.69625234604,9.07646751404,11.6125850677,0.0256578811896,0.999645777041,-1.51920712039e-11,0.0070706136273
1423458521563706996,0,1423458521563570924,6.69618654251,9.07647323608,11.612537384,0.025680851994,0.999645206638,-1.51922385747e-11,0.00706786292617
1423458521583735472,0,1423458521583588960,6.69765090942,9.07658004761,11.6118240356,0.0256326367324,0.999645991206,-1.51916990271e-11,0.00713163372908
1423458521583835261,0,1423458521583638379,6.69795274734,9.07718372345,11.6111698151,0.0256123580181,0.999646588743,-1.51910411744e-11,0.00712072540502
1423458521603724695,0,1423458521603575438,6.6975646019,9.07685565948,11.6113920212,0.0256277146985,0.999646248511,-1.5191235388e-11,0.00711323254801
1423458521623710114,0,1423458521623571489,6.69766569138,9.07678890228,11.6115074158,0.0256196785315,0.999646557506,-1.51914216065e-11,0.0070987420553
1423458521643706353,0,1423458521643576559,6.69880914688,9.07684516907,11.6109676361,0.0255832224148,0.999647330758,-1.51911624618e-11,0.00712129477322
1423458521663713278,0,1423458521663571313,6.69901657104,9.0766916275,11.6110038757,0.0256049458501,0.999646758386,-1.51912788863e-11,0.00712356627921
1423458521683740540,0,1423458521683574549,6.69933509827,9.07641983032,11.610710144,0.0255909921143,0.999647019942,-1.51912677533e-11,0.00713699124481
1423458521683790967,0,1423458521683616395,6.69891691208,9.07732200623,11.6104860306,0.0255871646094,0.999647240911,-1.51908118252e-11,0.00711974345864
1423458521703701040,0,1423458521703581775,6.69750356674,9.07813930511,11.61049366,0.0256191210287,0.999646902526,-1.51903130962e-11,0.00705201445224
1423458521723773803,0,1423458521723601313,6.69752407074,9.07802963257,11.6106987,0.0256372715497,0.999646327257,-1.51904927143e-11,0.00706758157578
1423458521743786087,0,1423458521743579967,6.69600105286,9.0777759552,11.6117267609,0.0256974389513,0.999644923809,-1.51907298738e-11,0.00704754804976
1423458521763805019,0,1423458521763573618,6.69495391846,9.07675075531,11.613067627,0.0257539293818,0.99964334504,-1.51913906543e-11,0.00706525575687
1423458521783732530,0,1423458521783576158,6.69772768021,9.07326507568,11.613984108,0.0256833106176,0.999644499088,-1.51930874159e-11,0.00715842158567
1423458521783838682,0,1423458521783621603,6.69684314728,9.07481002808,11.613530159,0.0257004194707,0.999644351051,-1.51927976948e-11,0.00711757331517
1423458521803744809,0,1423458521803576090,6.6981253624,9.07486057281,11.6127300262,0.0256568193917,0.999645405094,-1.51924203723e-11,0.00712682907617
1423458521823727862,0,1423458521823587440,6.69842386246,9.07559394836,11.6119565964,0.0256462450729,0.999645682331,-1.51922691703e-11,0.00712600239576
1423458521843732103,0,1423458521843573360,6.69880199432,9.07486534119,11.6125936508,0.0256247491737,0.99964613356,-1.51928000233e-11,0.00714002018347
1423458521863734973,0,1423458521863574865,6.69693088531,9.07493114471,11.6136837006,0.0257009554264,0.999644336612,-1.51929941704e-11,0.00711766606106
1423458521883729247,0,1423458521883579224,6.69689702988,9.07597541809,11.6129102707,0.0257056119158,0.999644345172,-1.51922529956e-11,0.00709962542748
1423458521883961178,0,1423458521883631463,6.69806337357,9.07485103607,11.6129865646,0.0256648292316,0.999645087119,-1.51929065445e-11,0.00714257232029
1423458521903711220,0,1423458521903568887,6.69760608673,9.07504081726,11.6128549576,0.0256764831569,0.999644838638,-1.51926235561e-11,0.00713546058929
1423458521923700438,0,1423458521923574572,6.69472360611,9.07590961456,11.6136436462,0.0257609048448,0.999643269364,-1.51926561098e-11,0.00705051742551
1423458521943745018,0,1423458521943589074,6.69423770905,9.07592773438,11.6138429642,0.0257713956225,0.999642913578,-1.5192722227e-11,0.00706261296627
1423458521963719989,0,1423458521963572338,6.69531965256,9.07455158234,11.614356041,0.025757669821,0.999642917298,-1.51934952658e-11,0.00711198580207
1423458521983760031,0,1423458521983579045,6.69548845291,9.07459068298,11.6144390106,0.0257561708996,0.999642908588,-1.51934318684e-11,0.00711863541104
1423458521983772007,0,1423458521983631089,6.69448232651,9.0747833252,11.6147403717,0.0257937504331,0.999641978313,-1.51935649058e-11,0.00711320126484
1423458522003834718,0,1423458522003575325,6.69519138336,9.07505130768,11.6141729355,0.0257742264306,0.99964244662,-1.519336568e-11,0.00711815757007
1423458522023717678,0,1423458522023573600,6.69614934921,9.07453727722,11.6138305664,0.02573540767,0.999643337996,-1.51934590184e-11,0.00713341372404
1423458522043699848,0,1423458522043577197,6.69778871536,9.07580852509,11.6120948792,0.0256540625571,0.999645330399,-1.51924591155e-11,0.00714720127107
1423458522063722357,0,1423458522063598519,6.69727087021,9.07541751862,11.6126794815,0.0256803256208,0.999644659263,-1.51924943151e-11,0.0071467533355
1423458522083722042,0,1423458522083583105,6.69913625717,9.07527542114,11.6116304398,0.025639763894,0.99964533638,-1.51920163776e-11,0.00719749690691
1423458522083809975,0,1423458522083634377,6.6968421936,9.07609367371,11.6122131348,0.0256988448901,0.999644354493,-1.51920440979e-11,0.00712277345282
1423458522103681468,0,1423458522103574921,6.69636726379,9.07554531097,11.6132678986,0.0256967724647,0.999644477618,-1.519244892e-11,0.00711296370549
1423458522123731874,0,1423458522123586706,6.69588804245,9.07424163818,11.6144857407,0.0257362837722,0.99964334662,-1.51934536542e-11,0.00712904318037
1423458522143727573,0,1423458522143575868,6.69745063782,9.07450294495,11.6133651733,0.0256827061689,0.999644511423,-1.5193109598e-11,0.00715886756249
1423458522163739842,0,1423458522163572811,6.69786214828,9.07455444336,11.613114357,0.0256695693913,0.99964482879,-1.5193199703e-11,0.00716166738217
1423458522183729069,0,1423458522183584724,6.6979265213,9.07518768311,11.6125059128,0.025652825883,0.999645338397,-1.51927852106e-11,0.00715052060632
1423458522183743993,0,1423458522183623511,6.69872045517,9.07510566711,11.6122322083,0.0256304850419,0.99964573312,-1.51926110193e-11,0.00717540878599
1423458522203727898,0,1423458522203573484,6.69930267334,9.07462024689,11.6123313904,0.025610753639,0.999646064705,-1.51928471375e-11,0.00719962617584
1423458522223723939,0,1423458522223573525,6.69787025452,9.0753030777,11.6125898361,0.02566491722,0.999644851448,-1.51922304154e-11,0.00717516540015
1423458522243702222,0,1423458522243571699,6.69452857971,9.07682228088,11.6131563187,0.025740370652,0.999643447156,-1.51920316672e-11,0.00710013211313
1423458522263726991,0,1423458522263574919,6.69600820541,9.07697963715,11.6117773056,0.0257073258806,0.999644187588,-1.51915863624e-11,0.00711558981826
1423458522283727303,0,1423458522283577963,6.69726610184,9.07637786865,11.6118860245,0.0256727753525,0.999644902874,-1.51917732667e-11,0.00713980132834
1423458522283791859,0,1423458522283631902,6.69688987732,9.07730007172,11.6115903854,0.0256801288955,0.999644913321,-1.5191446132e-11,0.00711183888034
1423458522303724121,0,1423458522303579992,6.69621133804,9.0771780014,11.6120595932,0.0256900644146,0.999644857177,-1.51917464397e-11,0.0070837919955
1423458522323712451,0,1423458522323574734,6.69628143311,9.07661247253,11.6127929688,0.025704148214,0.99964434452,-1.51920246726e-11,0.00710501466019
1423458522343731922,0,1423458522343576570,6.69605588913,9.07645511627,11.6130056381,0.0257170909621,0.999643962148,-1.51919459943e-11,0.00711197391427
1423458522363715533,0,1423458522363569781,6.69741106033,9.07581520081,11.6129951477,0.0256749439537,0.999644894733,-1.51923988719e-11,0.00713314008886
1423458522383742156,0,1423458522383577016,6.69766044617,9.07545661926,11.6131057739,0.0256731586826,0.999644909636,-1.51926108991e-11,0.00713747591889
1423458522383796128,0,1423458522383628731,6.6956114769,9.07624530792,11.6134433746,0.0257276401156,0.999643934867,-1.51923608843e-11,0.00707757149443
1423458522403703472,0,1423458522403579987,6.69635057449,9.07701969147,11.6133117676,0.0257497946344,0.999643519336,-1.51920726523e-11,0.0070556591786
1423458522423717701,0,1423458522423578542,6.70028543472,9.07981681824,11.6125984192,0.0258921962585,0.999641081825,-1.51901792592e-11,0.00687762324621
1423458522443701290,0,1423458522443575442,6.71822786331,9.08494091034,11.6115980148,0.0260272911893,0.999639935276,-1.51865989251e-11,0.00652532869235
1423458522463747639,0,1423458522463600113,6.73928546906,9.08612823486,11.6139259338,0.0261858310952,0.999636482336,-1.51844496518e-11,0.00641914582294
1423458522483709078,0,1423458522483581972,6.76252412796,9.09257602692,11.6074495316,0.0261594639809,0.999636843235,-1.51799872392e-11,0.00647024656317
1423458522483798604,0,1423458522483631329,6.78956985474,9.09788894653,11.5978679657,0.0258078462543,0.999644098101,-1.51763073119e-11,0.00675516118266
1423458522503678480,0,1423458522503577161,6.8038187027,9.0892906189,11.5936756134,0.025620260131,0.999647242444,-1.51769465516e-11,0.00699949610095
1423458522523714689,0,1423458522523591349,6.8184261322,9.06026554108,11.5862197876,0.025344871304,0.999653015002,-1.51849755715e-11,0.00717545094093
1423458522543719017,0,1423458522543591221,6.83855295181,9.04355239868,11.5669250488,0.0250221035212,0.999657353578,-1.5196775827e-11,0.00768568627761
1423458522563728700,0,1423458522563579698,6.84495782852,9.06071186066,11.5603094101,0.0252233007589,0.9996501889,-1.51936291566e-11,0.00795518262258
1423458522583712845,0,1423458522583578022,6.85652017593,9.0826292038,11.5573301315,0.0253536018296,0.999647859955,-1.51877198674e-11,0.0078326854422
1423458522583728027,0,1423458522583629648,6.88169431686,9.11402320862,11.5688886642,0.0251013013572,0.999657064532,-1.51774717651e-11,0.00746176933284
1423458522603671588,0,1423458522603574377,6.90947437286,9.13421535492,11.5687932968,0.024645974203,0.999668801084,-1.51725222911e-11,0.00740703007568
1423458522623689598,0,1423458522623576280,6.92067909241,9.14333248138,11.5582618713,0.0244729096691,0.999669282345,-1.5173200375e-11,0.00789953340944
1423458522643687597,0,1423458522643572361,6.92427682877,9.14073371887,11.5345373154,0.0244171919999,0.999665454816,-1.51748544619e-11,0.00853107154313
1423458522663719449,0,1423458522663586873,6.91689252853,9.14989280701,11.5333518982,0.0248823725298,0.999656342714,-1.5173197379e-11,0.0082500914855
1423458522683710342,0,1423458522683578087,6.92545032501,9.15069389343,11.542265892,0.0253379964818,0.999649952728,-1.51692767801e-11,0.00761301162043
1423458522683727441,0,1423458522683633854,6.94718313217,9.14856433868,11.540848732,0.0258582950285,0.999641613968,-1.51607144711e-11,0.00692764040806
1423458522703742237,0,1423458522703601904,6.97494506836,9.13955783844,11.5410709381,0.0265163034259,0.999627521615,-1.51540638369e-11,0.00645783887992
1423458522723734320,0,1423458522723582024,7.03671169281,9.12038803101,11.5174417496,0.0260696341554,0.999638406626,-1.51506991633e-11,0.00659015727317
1423458522743703769,0,1423458522743578835,7.14480113983,9.06219482422,11.4989023209,0.0240130594725,0.999679908819,-1.51689333887e-11,0.00796573146768
1423458522763736272,0,1423458522763570119,7.23863220215,9.01023006439,11.4916648865,0.0207574018626,0.999732558506,-1.51706015926e-11,0.0101951817828
1423458522783768813,0,1423458522783597358,7.25979709625,8.95847415924,11.4861965179,0.0206865354516,0.999728844568,-1.51747547164e-11,0.0106913324609
1423458522783781008,0,1423458522783649246,7.29943180084,8.90558624268,11.4910449982,0.0211085364915,0.999731384459,-1.51804644673e-11,0.00957019413402
1423458522803704633,0,1423458522803572770,7.33842897415,8.88306522369,11.5080280304,0.0217671842738,0.999731597097,-1.51752602529e-11,0.0079324306208
1423458522823686372,0,1423458522823571908,7.3624162674,8.8722448349,11.5255470276,0.0228074393888,0.999719489387,-1.51635544087e-11,0.00638461033596
1423458522843702924,0,1423458522843575265,7.39779472351,8.8536195755,11.5270786285,0.0233334858756,0.999712069372,-1.51599286879e-11,0.00559703391088
1423458522863743786,0,1423458522863575711,7.46338891983,8.83006763458,11.4958600998,0.0222952344853,0.999734208945,-1.51679230437e-11,0.00586804772864
1423458522883743464,0,1423458522883573398,7.51952838898,8.81411361694,11.4607715607,0.0208920826247,0.99975964657,-1.51793435805e-11,0.00664604953306
1423458522883756067,0,1423458522883627531,7.57358169556,8.80162715912,11.4330234528,0.019362378965,0.999785546042,-1.51910723875e-11,0.00734576111331
1423458522903727798,0,1423458522903583461,7.61053466797,8.80531215668,11.4312505722,0.0184697450264,0.99980250246,-1.51970572202e-11,0.00733652459272
1423458522923692857,0,1423458522923574366,7.63713264465,8.82748603821,11.4321775436,0.0177877491971,0.999815369682,-1.51947146048e-11,0.00726791069038
1423458522943692566,0,1423458522943570433,7.55498933792,8.90655708313,11.4716920853,0.020813593157,0.999759848383,-1.51572866136e-11,0.00685856404234
1423458522963709609,0,1423458522963574152,7.40240240097,9.01930427551,11.4968156815,0.0274800099014,0.999609532658,-1.50859433617e-11,0.00506273403282
1423458522983687365,0,1423458522983577037,7.26837110519,9.1047334671,11.5068502426,0.0329263006852,0.999453212536,-1.50367821887e-11,0.00302236230288
1423458522983785240,0,1423458522983623067,7.21952009201,9.14302253723,11.5106153488,0.0340570698032,0.999415761185,-1.50162769578e-11,0.00287268015919
1423458523003708770,0,1423458523003570238,7.25017499924,9.11673069,11.4990844727,0.0325702435986,0.999461434548,-1.50372953405e-11,0.00400250962439
1423458523023739800,0,1423458523023583776,7.30985927582,9.09110546112,11.4936027527,0.0307625120537,0.999516420156,-1.50571206245e-11,0.00453802724255
1423458523043703488,0,1423458523043574038,7.40739870071,9.05540084839,11.4960680008,0.0281771984801,0.999593365558,-1.50770550134e-11,0.00437595918302
1423458523063699885,0,1423458523063570979,7.50543403625,9.01710700989,11.5004711151,0.0261083406763,0.999653090725,-1.50934621678e-11,0.0034717073307
1423458523083745472,0,1423458523083579787,7.59354925156,8.98822879791,11.4994668961,0.0249772738054,0.999685424756,-1.50998563515e-11,0.00227756972767
1423458523083802124,0,1423458523083637438,7.62175893784,8.98691940308,11.4968500137,0.0252648632444,0.999679177118,-1.50929818756e-11,0.00179708715848
1423458523103723289,0,1423458523103570140,7.63899469376,8.99680900574,11.4838790894,0.0255435630801,0.999671246796,-1.50863268569e-11,0.00221916968476
1423458523123697880,0,1423458523123574000,7.65449047089,9.0211725235,11.4699745178,0.0256841025244,0.999664527125,-1.50773386199e-11,0.00334067128152
1423458523143734472,0,1423458523143586361,7.64984703064,9.05879688263,11.4521083832,0.0262967655367,0.999645187469,-1.50647906071e-11,0.00424019968343
1423458523163710222,0,1423458523163568278,7.65258646011,9.09666824341,11.43724823,0.0271910067567,0.999619761893,-1.50521200269e-11,0.00458047871596
1423458523183698034,0,1423458523183577084,7.73529815674,9.09368991852,11.4359798431,0.0242902800727,0.999697251786,-1.50640607325e-11,0.00392263498018
1423458523183775407,0,1423458523183627067,7.77658367157,9.09957504272,11.4284477234,0.0228026411968,0.999733204952,-1.50754937392e-11,0.00368218290339
1423458523203724955,0,1423458523203574768,7.75956010818,9.15707206726,11.4039897919,0.0237494756949,0.999704772806,-1.50618379924e-11,0.005131240955
1423458523223712840,0,1423458523223570182,7.76612329483,9.23135757446,11.3670225143,0.025152148861,0.999649638875,-1.50339158727e-11,0.0082443255654
1423458523243738446,0,1423458523243609019,7.83091163635,9.27937698364,11.3308935165,0.0254457097652,0.999622982549,-1.50084285703e-11,0.0103154550824
1423458523263732694,0,1423458523263590662,7.88895082474,9.31006145477,11.318069458,0.0259207246769,0.999622940996,-1.4988609417e-11,0.00906045618879
1423458523283715901,0,1423458523283578890,7.94075584412,9.31509494781,11.3031644821,0.0260296494609,0.999637075023,-1.49706638342e-11,0.00694086365933
1423458523283790110,0,1423458523283625216,7.95387411118,9.29832744598,11.2917480469,0.0262499452899,0.999637474093,-1.49654499832e-11,0.0059883855238
1423458523303718483,0,1423458523303580272,7.9447927475,9.27332401276,11.3057441711,0.0262683798396,0.999636944301,-1.4968289144e-11,0.00599598280608
1423458523323924653,0,1423458523323757963,7.91281032562,9.2585477829,11.3230981827,0.0264659172315,0.999627433285,-1.49733056727e-11,0.00667456739326
1423458523343704067,0,1423458523343574555,7.88389825821,9.25497817993,11.3236894608,0.0269038919631,0.999610762448,-1.49761425961e-11,0.00738269566069
1423458523363703653,0,1423458523363574205,7.88027477264,9.25531768799,11.3207302094,0.0270101794397,0.999605903351,-1.49769398737e-11,0.00764775729536
1423458523383743952,0,1423458523383587657,7.88974142075,9.25895690918,11.3187704086,0.0271646912889,0.999604343135,-1.49782158096e-11,0.00729635066551
1423458523383794516,0,1423458523383636495,7.93468093872,9.27593708038,11.314827919,0.0266805738731,0.999622550708,-1.49726768209e-11,0.00655004526776
1423458523403715725,0,1423458523403578305,8.07813072205,9.30854129791,11.2984685898,0.022825461597,0.999730831907,-1.4972277621e-11,0.00415476070408
1423458523423718790,0,1423458523423581182,8.19764614105,9.37143421173,11.2519645691,0.0194401085347,0.999804758101,-1.49538953058e-11,0.00353947152609
1423458523443718453,0,1423458523443600915,8.3355512619,9.44308662415,11.1949329376,0.0164913674125,0.99984964235,-1.49355708159e-11,0.00535980349368
1423458523463713451,0,1423458523463575853,8.45744037628,9.50131893158,11.150812149,0.014462073029,0.999860988573,-1.49060631048e-11,0.00829770895764
1423458523483714386,0,1423458523483579466,8.55395793915,9.52304077148,11.1343631744,0.0143725834914,0.999853649725,-1.48966264787e-11,0.00927943826527
1423458523483865851,0,1423458523483633576,8.6199760437,9.53940486908,11.1353359222,0.014504884583,0.99986458881,-1.48829252412e-11,0.00777253929985
1423458523503708501,0,1423458523503582353,8.67064380646,9.54298591614,11.1300039291,0.0150483803968,0.999868858017,-1.48738037594e-11,0.00598439771198
1423458523523695849,0,1423458523523575389,8.73675727844,9.566198349,11.102809906,0.0139798422173,0.999888000843,-1.4852259725e-11,0.00534319958926
1423458523543684429,0,1423458523543581040,8.77863693237,9.57342243195,11.0878810883,0.0123229342129,0.999908290262,-1.48343724181e-11,0.00561750466636
1423458523563697218,0,1423458523563575980,8.79162311554,9.56080818176,11.0893783569,0.0112756278469,0.999917557819,-1.48284245487e-11,0.00614310843976
1423458523583692075,0,1423458523583583965,8.72144317627,9.52541255951,11.1135368347,0.0123750531402,0.999904694839,-1.48407203016e-11,0.00612040026909
1423458523584008714,0,1423458523583640779,8.6112985611,9.5068693161,11.1409864426,0.0163291059012,0.999847268236,-1.48607323242e-11,0.00622900485932
1423458523603686698,0,1423458523603574158,8.53031635284,9.48315906525,11.1437206268,0.0192010562237,0.9997898712,-1.48817589685e-11,0.0071786409696
1423458523623675359,0,1423458523623586511,8.43470859528,9.46464920044,11.1140928268,0.0226945084457,0.999708516162,-1.49105745156e-11,0.00823662552964
1423458523643731300,0,1423458523643576161,8.35343933105,9.47473526001,11.0780487061,0.0248197411311,0.999654462675,-1.49090265801e-11,0.00865654112016
1423458523663714073,0,1423458523663576091,8.29223823547,9.44630718231,11.0616397858,0.0266284840136,0.999617743746,-1.49322236885e-11,0.00743573981893
1423458523683704504,0,1423458523683575502,8.2803812027,9.4480342865,11.0602178574,0.0275896370561,0.999606738853,-1.49214591177e-11,0.00501792452673
1423458523683719174,0,1423458523683623118,8.29963684082,9.4487247467,11.0465965271,0.0284932170795,0.999590769673,-1.49086051024e-11,0.00253569831031
1423458523703714613,0,1423458523703573689,8.37525367737,9.4578666687,11.0431289673,0.0281910575122,0.999601264452,-1.48900080326e-11,0.00160511115472
1423458523723743575,0,1423458523723576492,8.50571537018,9.45220851898,11.0573949814,0.0259609614313,0.999657775117,-1.48806344837e-11,0.00321887101088
1423458523743694002,0,1423458523743588817,8.63669300079,9.46041584015,11.0823698044,0.0236747994142,0.99970483777,-1.48726592505e-11,0.005453550318
1423458523763741151,0,1423458523763575552,8.71263790131,9.4725227356,11.0840482712,0.0225454420631,0.999721191048,-1.48681804605e-11,0.00701735075349
1423458523783713345,0,1423458523783576279,8.7568769455,9.48866939545,11.0648727417,0.0219680731198,0.999735436753,-1.48626294401e-11,0.00681617666219
1423458523783754786,0,1423458523783624875,8.76064395905,9.49447917938,11.0429611206,0.0220710392563,0.99974058317,-1.48572630915e-11,0.00562455234402
1423458523803687992,0,1423458523803573675,8.7569437027,9.48982048035,11.042514801,0.0228616152817,0.999726313725,-1.48630413184e-11,0.00496429178547
1423458523823671993,0,1423458523823571389,8.78405570984,9.510430336,11.0908613205,0.0218545512796,0.999747582183,-1.48469135607e-11,0.0052106149184
1423458523843682861,0,1423458523843572067,8.83277416229,9.48709583282,11.1393623352,0.0196157987159,0.999783640008,-1.4848841355e-11,0.00692052117584
1423458523863702845,0,1423458523863581663,8.80761909485,9.4977350235,11.172162056,0.0197952220755,0.999777677927,-1.48292725811e-11,0.00726249973121
1423458523883745019,0,1423458523883578050,8.79030990601,9.47524738312,11.1473674774,0.0212369382142,0.999760694303,-1.48400065097e-11,0.00524848381545
1423458523883759424,0,1423458523883628767,8.79898834229,9.48329734802,11.1082572937,0.0225057835025,0.99974212099,-1.48342628331e-11,0.00303005386487
1423458523903743785,0,1423458523903605248,8.8229227066,9.50280475616,11.0903139114,0.0237419202411,0.999716960854,-1.4816576186e-11,0.00152295929809
1423458523923732053,0,1423458523923582414,8.89053821564,9.49817371368,11.0587501526,0.0237650200987,0.999716725841,-1.48217686059e-11,0.00130072782501
1423458523943718567,0,1423458523943576102,8.94961452484,9.52589035034,11.0181970596,0.023652439927,0.99971912891,-1.48181375332e-11,0.00149176948752
1423458523963711188,0,1423458523963576292,9.00634002686,9.52619743347,10.9614992142,0.022892062822,0.999734788491,-1.48199044387e-11,0.00251120318838
1423458523983767685,0,1423458523983594952,9.00101661682,9.53588485718,10.9614439011,0.0227100677311,0.999739031986,-1.48231478583e-11,0.00247401437012
1423458523983806516,0,1423458523983648981,9.00084114075,9.53800964355,10.9736061096,0.0227241237731,0.999740018776,-1.48219254576e-11,0.0018732477049
1423458524003712780,0,1423458524003577015,8.99371623993,9.52822303772,10.976360321,0.023170674287,0.999730830006,-1.48210850687e-11,0.00117787446225
1423458524023791072,0,1423458524023577874,9.00878047943,9.5245513916,10.9688587189,0.0234734698952,0.999724264252,-1.48138688089e-11,0.00062584040362
1423458524043739162,0,1423458524043596847,9.032330513,9.5124130249,10.973733902,0.0236010011562,0.999720928295,-1.4812230921e-11,0.00102872404077
1423458524063715072,0,1423458524063574862,9.11091423035,9.46733379364,10.9847507477,0.0222468395953,0.99974947375,-1.48097588256e-11,0.00246330357097
1423458524083673455,0,1423458524083580392,9.15349197388,9.41354370117,10.9827833176,0.0208529192089,0.999774879432,-1.48190083664e-11,0.00391742489456
1423458524083681827,0,1423458524083624642,9.19194316864,9.37851142883,10.962012291,0.0207567959145,0.999779829693,-1.4818261446e-11,0.00307368885372
1423458524103723922,0,1423458524103588187,9.26400470734,9.35211086273,10.9406843185,0.0203382634339,0.9997922964,-1.48216494747e-11,0.00131114457007
1423458524123936921,0,1423458524123768361,9.3232126236,9.37296962738,10.9278249741,0.0205414168314,0.999789002343,-1.48129989869e-11,-3.1449591684e-05
1423458524143684286,0,1423458524143572911,9.37981510162,9.41156101227,10.92557621,0.0211205966299,0.999775904551,-1.47963230382e-11,-0.00143564552886
1423458524163708203,0,1423458524163575181,9.46506500244,9.43841552734,10.9130392075,0.0208724633072,0.999780452349,-1.47855759854e-11,-0.00184048281291
1423458524183885207,0,1423458524183720959,9.54425144196,9.43800735474,10.87433815,0.0198282953234,0.999802324061,-1.47872228798e-11,-0.00146680138524
1423458524183897616,0,1423458524183785010,9.60145282745,9.42195034027,10.8321475983,0.0184150727229,0.999829854698,-1.47987743726e-11,-0.00107086459326
1423458524203694228,0,1423458524203575079,9.62903213501,9.39916801453,10.8137807846,0.0174401385157,0.99984721894,-1.48100019206e-11,-0.00117488147398
1423458524223715627,0,1423458524223584698,9.66794204712,9.36853599548,10.80585289,0.016323406582,0.999866123247,-1.48228983875e-11,-0.00113224592691
1423458524243694765,0,1423458524243573337,9.68170928955,9.37219619751,10.8291034698,0.015582983135,0.999877711661,-1.48277288593e-11,-0.00131619191802
1423458524263725030,0,1423458524263574243,9.5915222168,9.45329189301,10.8615293503,0.0189210686543,0.999819019644,-1.47739285465e-11,-0.00198018134995
1423458524283718593,0,1423458524283576629,9.41071224213,9.55971908569,10.8799619675,0.0256221389041,0.99966207914,-1.47037120664e-11,-0.004385604684
1423458524283853373,0,1423458524283625143,9.2459192276,9.63965320587,10.8908653259,0.031432521808,0.999481814711,-1.46561712349e-11,-0.00693531788734
1423458524303704313,0,1423458524303567147,9.175365448,9.67842674255,10.8866529465,0.0333114119184,0.999418839713,-1.46263882308e-11,-0.00723413179221
1423458524323742967,0,1423458524323591044,9.16344070435,9.66872406006,10.8670310974,0.0339903657485,0.999403715927,-1.46288601969e-11,-0.00607187180354
1423458524343713954,0,1423458524343587414,9.19986438751,9.66472244263,10.8468122482,0.0332139831046,0.999435069885,-1.46332232407e-11,-0.00513540756063
1423458524363706521,0,1423458524363571485,9.2922077179,9.63581848145,10.8462018967,0.0310410072792,0.999507515369,-1.46516249205e-11,-0.00460245445412
1423458524383738128,0,1423458524383576723,9.42149066925,9.58964252472,10.8554677963,0.0279032587228,0.999598336658,-1.4680201049e-11,-0.00495716683326
1423458524383752705,0,1423458524383627935,9.56141376495,9.55839061737,10.8705921173,0.0251880328327,0.99966582186,-1.46930594506e-11,-0.00581443088202
1423458524403719803,0,1423458524403574810,9.64235877991,9.54563426971,10.8759183884,0.0241261441354,0.999688098334,-1.46971041468e-11,-0.0064525358096
1423458524423690779,0,1423458524423569159,9.67677497864,9.56737804413,10.8547286987,0.0242132705419,0.999687768112,-1.46901757492e-11,-0.00617120864078
1423458524443723399,0,1423458524443581532,9.69812011719,9.60602283478,10.8239946365,0.0243390897145,0.999691922541,-1.46758920243e-11,-0.00486505065494
1423458524463732162,0,1423458524463583848,9.70505619049,9.6405582428,10.8127470016,0.0251232085088,0.999677933881,-1.4660882092e-11,-0.00358509498634
1423458524483754868,0,1423458524483573706,9.77792167664,9.60871601105,10.8159503937,0.0236687812305,0.999715808444,-1.46810080015e-11,-0.00284449348504
1423458524483768400,0,1423458524483620436,9.904337883,9.55540466309,10.8524417877,0.0198694698568,0.999797893325,-1.47173467117e-11,-0.00306213484574
1423458524503757661,0,1423458524503579623,9.91536140442,9.56530666351,10.8604402542,0.0184577012379,0.999823911593,-1.47184046593e-11,-0.00338512516453
1423458524523738766,0,1423458524523577951,9.86261749268,9.6094121933,10.8120622635,0.020795639273,0.999780666051,-1.47023700247e-11,-0.0024821721124
1423458524543764112,0,1423458524543576880,9.84003925323,9.65579032898,10.7636957169,0.0223289924764,0.999750095585,-1.46723504502e-11,-0.00107818053155
1423458524563730667,0,1423458524563579015,9.84758853912,9.67084407806,10.7456264496,0.023310294241,0.999728182928,-1.46519312621e-11,-0.000436396662909
1423458524583726297,0,1423458524583594616,9.87996387482,9.66906452179,10.7522706985,0.0237388254296,0.999717931708,-1.46388393374e-11,-0.000724699579201
1423458524583788096,0,1423458524583644617,9.91747951508,9.66469860077,10.7554941177,0.0236531604233,0.99971894798,-1.46289566899e-11,-0.00159782697743
1423458524603701794,0,1423458524603577779,9.92803955078,9.66353225708,10.755651474,0.0239395424785,0.999708709528,-1.46179793355e-11,-0.00306502841226
1423458524623707525,0,1423458524623579858,9.92823791504,9.655626297,10.7461948395,0.024278559162,0.99969935151,-1.46192112879e-11,-0.00342901678831
