%time,field.header.seq,field.header.stamp,field.point.x,field.point.y,field.point.z,field.time_ref
1423458518231515971,1444,1423458518220503091,0.189,0.27,0.254,1423494994599999904
1423458518495107249,1445,1423458518452291965,0.189,0.27,0.254,1423494994799999952
1423458518758740560,1446,1423458518709973096,0.189,0.27,0.254,1423494995000000000
1423458518972332102,1447,1423458518971709012,0.189,0.27,0.254,1423494995299999952
1423458519235901393,1448,1423458519201452016,0.189,0.27,0.254,1423494995500000000
1423458519449533073,1449,1423458519432235956,0.189,0.27,0.254,1423494995799999952
1423458519713160400,1450,1423458519672080993,0.189,0.27,0.254,1423494996000000000
1423458519926761350,1451,1423458519902801036,0.189,0.27,0.254,1423494996200000047
1423458520140417315,1452,1423458520133636951,0.189,0.27,0.254,1423494996500000000
1423458520404047502,1453,1423458520361346006,0.189,0.27,0.254,1423494996700000047
1423458520617684230,1454,1423458520591098070,0.189,0.27,0.254,1423494996900000095
1423458520831302675,1455,1423458520820843935,0.189,0.27,0.254,1423494997200000047
1423458521094965638,1456,1423458521051584005,0.189,0.27,0.254,1423494997400000095
1423458521308597591,1457,1423458521283351898,0.189,0.27,0.254,1423494997599999904
1423458521572274399,1458,1423458521522166013,0.189,0.27,0.254,1423494997900000095
1423458521785867965,1459,1423458521752881050,0.189,0.27,0.254,1423494998099999904
1423458521999501129,1460,1423458521992594957,0.189,0.27,0.254,1423494998299999952
1423458522263152252,1461,1423458522231395959,0.189,0.269,0.255,1423494998599999904
1423458522476756587,1462,1423458522461107015,0.189,0.27,0.254,1423494998799999952
1423458522740427381,1463,1423458522710741043,0.193,0.269,0.254,1423494999000000000
1423458522954027983,1464,1423458522944490909,0.207,0.264,0.253,1423494999299999952
1423458523217694193,1465,1423458523180237054,0.212,0.266,0.252,1423494999500000000
1423458523431287785,1466,1423458523422075986,0.223,0.269,0.251,1423494999799999952
1423458523694964541,1467,1423458523646781921,0.235,0.274,0.249,1423495000000000000
1423458523908582942,1468,1423458523881505966,0.237,0.27,0.249,1423495000200000047
1423458524172283011,1469,1423458524146168947,0.247,0.269,0.249,1423495000500000000
1423458524385885498,1470,1423458524371921062,0.262,0.267,0.248,1423495000700000047
1423458524649527246,1471,1423458524611675024,0.27,0.269,0.249,1423495000900000095
1423458524863134947,1472,1423458524851495027,0.271,0.268,0.248,1423495001200000047
1423458525126770039,1473,1423458525081182003,0.282,0.27,0.247,1423495001400000095
1423458525340375338,1474,1423458525323932886,0.294,0.269,0.25,1423495001700000047
1423458525553995145,1475,1423458525552712917,0.298,0.269,0.246,1423495001900000095
1423458525817681799,1476,1423458525781469106,0.306,0.265,0.247,1423495002099999904
1423458526031319187,1477,1423458526021557092,0.32,0.266,0.248,1423495002400000095
1423458526295003377,1478,1423458526255069971,0.331,0.268,0.247,1423495002599999904
1423458526508604387,1479,1423458526498805999,0.33,0.266,0.246,1423495002799999952
1423458526772284946,1480,1423458526734620094,0.345,0.268,0.249,1423495003099999904
1423458527035936830,1481,1423458526991332054,0.362,0.262,0.245,1423495003299999952
1423458527249532837,1482,1423458527234100103,0.367,0.264,0.247,1423495003599999904
1423458527513262755,1483,1423458527471857070,0.373,0.264,0.247,1423495003799999952
1423458527726888181,1484,1423458527716528892,0.385,0.267,0.247,1423495004099999904
1423458527990611063,1485,1423458527953284978,0.396,0.267,0.249,1423495004299999952
1423458528204279482,1486,1423458528192071914,0.399,0.267,0.247,1423495004500000000
1423458528467927434,1487,1423458528424866914,0.411,0.263,0.247,1423495004799999952
1423458528681567101,1488,1423458528652645111,0.424,0.264,0.249,1423495005000000000
1423458528945296469,1489,1423458528902390003,0.43,0.264,0.248,1423495005200000047
1423458529158933634,1490,1423458529144166946,0.432,0.265,0.246,1423495005500000000
1423458529422651700,1491,1423458529381902933,0.448,0.265,0.248,1423495005700000047
1423458530086894653,1492,1423458530082169055,0.47,0.263,0.247,1423495006400000095
1423458530350604426,1493,1423458530310883998,0.484,0.267,0.246,1423495006700000047
1423458530564266157,1494,1423458530544622898,0.489,0.267,0.246,1423495006900000095
1423458530828042314,1495,1423458530791414022,0.5,0.267,0.247,1423495007099999904
1423458531041698012,1496,1423458531022104978,0.512,0.263,0.245,1423495007400000095
1423458531255281300,1497,1423458531252863883,0.522,0.265,0.249,1423495007599999904
1423458531519109191,1498,1423458531482695102,0.526,0.265,0.247,1423495007799999952
1423458531782821641,1499,1423458531745397090,0.532,0.266,0.247,1423495008099999904
1423458531996529558,1500,1423458531972158908,0.546,0.267,0.249,1423495008299999952
1423458532210150035,1501,1423458532201948881,0.554,0.263,0.247,1423495008500000000
1423458532473862004,1502,1423458532451761007,0.559,0.264,0.247,1423495008799999952
1423458532737648464,1503,1423458532702394962,0.574,0.263,0.248,1423495009000000000
1423458532951279963,1504,1423458532922245979,0.588,0.267,0.247,1423495009299999952
1423458533164957212,1505,1423458533162930011,0.584,0.266,0.247,1423495009500000000
1423458533428656773,1506,1423458533391787052,0.595,0.267,0.248,1423495009700000047
1423458533642239377,1507,1423458533621439933,0.608,0.265,0.246,1423495010000000000
1423458533855885183,1508,1423458533854202985,0.616,0.266,0.247,1423495010200000047
1423458534119617962,1509,1423458534081062078,0.625,0.265,0.248,1423495010400000095
1423458534333247231,1510,1423458534310756921,0.639,0.269,0.247,1423495010700000047
1423458534546843845,1511,1423458534545521974,0.643,0.269,0.247,1423495010900000095
1423458534810564270,1512,1423458534792203903,0.649,0.27,0.247,1423495011099999904
1423458535024183565,1513,1423458535021981954,0.658,0.267,0.247,1423495011400000095
1423458535287861183,1514,1423458535252686023,0.674,0.267,0.25,1423495011599999904
1423458535501517618,1515,1423458535483401060,0.677,0.265,0.25,1423495011799999952
1423458535765246397,1516,1423458535715183019,0.684,0.272,0.246,1423495012099999904
1423458535978867546,1517,1423458535946950912,0.696,0.27,0.249,1423495012299999952
1423458536192446222,1518,1423458536182682037,0.707,0.27,0.246,1423495012500000000
1423458536456182217,1519,1423458536412502050,0.71,0.268,0.247,1423495012799999952
1423458536669875847,1520,1423458536645246982,0.724,0.268,0.249,1423495013000000000
1423458536883568665,1521,1423458536872076034,0.735,0.27,0.249,1423495013200000047
1423458537147208684,1522,1423458537116728067,0.736,0.272,0.248,1423495013500000000
1423458537360802248,1523,1423458537346533060,0.748,0.272,0.249,1423495013700000047
1423458537574369233,1524,1423458537571324110,0.754,0.27,0.248,1423495013900000095
1423458537838099013,1525,1423458537802046060,0.762,0.273,0.247,1423495014099999904
1423458538051723553,1526,1423458538032838106,0.773,0.272,0.249,1423495014400000095
1423458538265383020,1527,1423458538261626005,0.786,0.278,0.247,1423495014599999904
1423458538529217059,1528,1423458538501341104,0.79,0.277,0.248,1423495014799999952
1423458538742832528,1529,1423458538733110904,0.799,0.278,0.248,1423495015099999904
1423458539006625330,1530,1423458538982744932,0.81,0.276,0.246,1423495015299999952
1423458539220437926,1531,1423458539212516069,0.823,0.277,0.251,1423495015599999904
1423458539484161625,1532,1423458539442274093,0.827,0.276,0.25,1423495015799999952
1423458539697946383,1533,1423458539682020902,0.832,0.282,0.247,1423495016000000000
1423458539961771394,1534,1423458539922768115,0.848,0.282,0.25,1423495016299999952
1423458540175387531,1535,1423458540163507938,0.859,0.28,0.249,1423495016500000000
1423458540439151752,1536,1423458540402245998,0.863,0.284,0.248,1423495016700000047
1423458540652789205,1537,1423458540642962932,0.873,0.283,0.249,1423495017000000000
1423458540916479135,1538,1423458540876718997,0.888,0.287,0.248,1423495017200000047
1423458541130197972,1539,1423458541125400066,0.891,0.288,0.248,1423495017500000000
1423458541393907287,1540,1423458541362241983,0.9,0.29,0.248,1423495017700000047
1423458541607544472,1541,1423458541601995944,0.909,0.288,0.248,1423495017900000095
1423458541871212671,1542,1423458541843769073,0.922,0.29,0.252,1423495018200000047
1423458542585486556,1543,1423458542560955047,0.945,0.296,0.25,1423495018900000095
1423458542849146044,1544,1423458542802684068,0.957,0.293,0.248,1423495019099999904
1423458543062768414,1545,1423458543042413949,0.96,0.296,0.248,1423495019400000095
1423458543326440246,1546,1423458543282140970,0.972,0.296,0.249,1423495019599999904
1423458543540047899,1547,1423458543509941101,0.98,0.301,0.248,1423495019900000095
1423458543753627584,1548,1423458543744637012,0.985,0.301,0.248,1423495020099999904
1423458544017344140,1549,1423458543972440958,0.997,0.304,0.248,1423495020299999952
1423458544230979250,1550,1423458544203207969,1.011,0.302,0.247,1423495020500000000
1423458544444557953,1551,1423458544434917926,1.018,0.304,0.249,1423495020799999952
1423458544708262922,1552,1423458544694677114,1.023,0.305,0.249,1423495021000000000
1423458544971983478,1553,1423458544924386024,1.035,0.31,0.247,1423495021299999952
1423458545185638401,1554,1423458545154233932,1.045,0.312,0.251,1423495021500000000
1423458545399215561,1555,1423458545392968893,1.053,0.311,0.247,1423495021700000047
1423458545662884551,1556,1423458545633754014,1.054,0.313,0.247,1423495022000000000
1423458545876486059,1557,1423458545872515916,1.071,0.312,0.249,1423495022200000047
1423458546140185228,1558,1423458546112235069,1.081,0.315,0.25,1423495022500000000
1423458546403903456,1559,1423458546353938102,1.083,0.317,0.249,1423495022700000047
1423458546617599361,1560,1423458546594727993,1.096,0.319,0.25,1423495022900000095
1423458546881327560,1561,1423458546832432985,1.109,0.317,0.248,1423495023200000047
1423458547094918788,1562,1423458547072180032,1.116,0.319,0.25,1423495023400000095
1423458547358613919,1563,1423458547311942100,1.122,0.321,0.25,1423495023700000047
1423458547572292698,1564,1423458547554584026,1.133,0.326,0.249,1423495023900000095
1423458547785908369,1565,1423458547785379886,1.14,0.329,0.25,1423495024099999904
1423458548049585651,1566,1423458548023087978,1.149,0.329,0.248,1423495024400000095
1423458548263228430,1567,1423458548252876996,1.157,0.329,0.248,1423495024599999904
1423458548526954587,1568,1423458548483556985,1.172,0.331,0.252,1423495024799999952
1423458548890794788,1569,1423458548845185041,1.182,0.335,0.249,1423495025200000047
1423458549104402632,1570,1423458549091943979,1.183,0.336,0.249,1423495025400000095
1423458549368120874,1571,1423458549323718070,1.196,0.339,0.249,1423495025700000047
1423458549581767176,1572,1423458549562477111,1.207,0.338,0.248,1423495025900000095
1423458549795383345,1573,1423458549792279958,1.221,0.341,0.253,1423495026099999904
1423458550059203943,1574,1423458550023005008,1.223,0.342,0.25,1423495026400000095
1423458550272829560,1575,1423458550262839078,1.229,0.345,0.249,1423495026599999904
1423458550536625948,1576,1423458550518434047,1.243,0.349,0.251,1423495026900000095
1423458550750366172,1577,1423458550745260000,1.253,0.346,0.249,1423495027099999904
1423458551014105748,1578,1423458550984091043,1.255,0.35,0.249,1423495027299999952
1423458551227904920,1579,1423458551224019050,1.268,0.351,0.25,1423495027599999904
1423458551491549445,1580,1423458551452503919,1.281,0.354,0.25,1423495027799999952
1423458551705108845,1581,1423458551698292970,1.281,0.354,0.25,1423495028000000000
1423458551968867881,1582,1423458551935990095,1.292,0.359,0.25,1423495028299999952
1423458552182534064,1583,1423458552171933889,1.305,0.356,0.248,1423495028500000000
1423458552446237573,1584,1423458552412622928,1.314,0.36,0.253,1423495028799999952
1423458552659867356,1585,1423458552653333902,1.317,0.364,0.25,1423495029000000000
1423458552923492411,1586,1423458552893136024,1.33,0.368,0.249,1423495029200000047
1423458553137141879,1587,1423458553134891033,1.333,0.369,0.251,1423495029500000000
1423458553400831575,1588,1423458553363684892,1.342,0.371,0.25,1423495029700000047
1423458553614491743,1589,1423458553592421054,1.349,0.372,0.249,1423495029900000095
1423458553828112456,1590,1423458553823118925,1.364,0.373,0.253,1423495030200000047
1423458554091808836,1591,1423458554052875995,1.368,0.376,0.251,1423495030400000095
1423458554806130878,1592,1423458554762155055,1.398,0.381,0.25,1423495031099999904
1423458555019788626,1593,1423458554992907047,1.398,0.385,0.249,1423495031299999952
1423458555233400288,1594,1423458555223846912,1.409,0.388,0.25,1423495031599999904
1423458555497086365,1595,1423458555453363895,1.42,0.394,0.249,1423495031799999952
1423458555710731154,1596,1423458555681180953,1.426,0.395,0.249,1423495032000000000
1423458555924355958,1597,1423458555923911094,1.436,0.398,0.249,1423495032299999952
1423458556188078255,1598,1423458556163695096,1.448,0.398,0.248,1423495032500000000
1423458556451871938,1599,1423458556403358936,1.456,0.4,0.251,1423495032700000047
1423458556665534284,1600,1423458556644136905,1.459,0.402,0.25,1423495033000000000
1423458556929243504,1601,1423458556881951093,1.471,0.408,0.249,1423495033200000047
1423458557142984976,1602,1423458557113660097,1.478,0.408,0.253,1423495033500000000
1423458557356533032,1603,1423458557347451925,1.488,0.408,0.249,1423495033700000047
1423458557620141380,1604,1423458557583226919,1.493,0.412,0.248,1423495033900000095
1423458557833764170,1605,1423458557823959112,1.507,0.414,0.253,1423495034200000047
1423458558097491153,1606,1423458558063939094,1.509,0.416,0.251,1423495034400000095
1423458558311105771,1607,1423458558308475971,1.517,0.42,0.249,1423495034599999904
1423458558574832753,1608,1423458558537215948,1.528,0.425,0.25,1423495034900000095
1423458558788479123,1609,1423458558766047954,1.537,0.426,0.249,1423495035099999904
1423458559052299844,1610,1423458559003773927,1.544,0.427,0.249,1423495035299999952
1423458559265913753,1611,1423458559232538938,1.553,0.429,0.249,1423495035599999904
1423458559479572832,1612,1423458559464262008,1.563,0.436,0.248,1423495035799999952
1423458559743321857,1613,1423458559708030939,1.568,0.436,0.249,1423495036000000000
1423458559956942450,1614,1423458559945808887,1.58,0.438,0.249,1423495036299999952
1423458560220735033,1615,1423458560183474063,1.588,0.441,0.248,1423495036500000000
1423458560434398444,1616,1423458560423276901,1.601,0.442,0.251,1423495036799999952
1423458560698053179,1617,1423458560677018880,1.604,0.444,0.251,1423495037000000000
1423458560911724764,1618,1423458560902750015,1.61,0.448,0.25,1423495037200000047
1423458561175377013,1619,1423458561135463953,1.62,0.453,0.252,1423495037500000000
1423458561388998474,1620,1423458561363207101,1.63,0.45,0.249,1423495037700000047
1423458561602631648,1621,1423458561592992067,1.63,0.456,0.248,1423495037900000095
1423458561866341617,1622,1423458561823724031,1.645,0.456,0.25,1423495038200000047
1423458562079937623,1623,1423458562053515911,1.649,0.462,0.249,1423495038400000095
1423458562293509341,1624,1423458562281208038,1.655,0.461,0.249,1423495038599999904
1423458562557156664,1625,1423458562526061058,1.668,0.465,0.25,1423495038900000095
1423458562770825020,1626,1423458562763804912,1.682,0.464,0.249,1423495039099999904
1423458563034510607,1627,1423458563003413915,1.686,0.467,0.25,1423495039299999952
1423458563248106744,1628,1423458563243237018,1.694,0.472,0.25,1423495039599999904
1423458563511771545,1629,1423458563472979068,1.705,0.477,0.249,1423495039799999952
1423458563725372711,1630,1423458563712673902,1.707,0.478,0.249,1423495040099999904
1423458563938999289,1631,1423458563935475111,1.719,0.482,0.249,1423495040299999952
1423458564202741001,1632,1423458564173232078,1.73,0.482,0.248,1423495040500000000
1423458564416437145,1633,1423458564413005113,1.743,0.488,0.252,1423495040799999952
1423458564680073046,1634,1423458564653736114,1.745,0.493,0.248,1423495041000000000
1423458564893668929,1635,1423458564882484912,1.75,0.494,0.248,1423495041200000047
1423458565157342286,1636,1423458565125226974,1.761,0.499,0.25,1423495041500000000
1423458565370943944,1637,1423458565363056898,1.774,0.498,0.248,1423495041700000047
1423458565634671434,1638,1423458565602757930,1.775,0.502,0.247,1423495041900000095
1423458565848358905,1639,1423458565845523118,1.788,0.504,0.249,1423495042200000047
1423458566112013072,1640,1423458566083256006,1.801,0.514,0.247,1423495042400000095
1423458566325591250,1641,1423458566313020944,1.802,0.514,0.247,1423495042700000047
1423458567290288435,1642,1423458567253002882,1.834,0.522,0.249,1423495043599999904
1423458567503953418,1643,1423458567492734909,1.846,0.531,0.247,1423495043799999952
1423458567767690421,1644,1423458567734541893,1.852,0.531,0.25,1423495044099999904
1423458567981281271,1645,1423458567974297046,1.858,0.534,0.247,1423495044299999952
1423458568245016907,1646,1423458568203995943,1.866,0.539,0.245,1423495044500000000
1423458568458546346,1647,1423458568443763971,1.882,0.538,0.248,1423495044799999952
1423458568722243478,1648,1423458568705472946,1.884,0.542,0.248,1423495045000000000
1423458568935886889,1649,1423458568935256004,1.894,0.548,0.246,1423495045299999952
1423458569199553818,1650,1423458569155997991,1.902,0.55,0.248,1423495045500000000
1423458569413171777,1651,1423458569384187936,1.914,0.55,0.247,1423495045700000047
1423458569777043022,1652,1423458569754345893,1.912,0.555,0.246,1423495046099999904
1423458570090848927,1653,1423458570084261894,1.938,0.568,0.246,1423495046400000095
1423458570354638561,1654,1423458570312736034,1.937,0.565,0.247,1423495046700000047
1423458570568283074,1655,1423458570566462039,1.952,0.572,0.246,1423495046900000095
1423458570832074425,1656,1423458570793267011,1.962,0.574,0.245,1423495047099999904
1423458571045739658,1657,1423458571033082962,1.973,0.577,0.25,1423495047400000095
1423458571309416276,1658,1423458571272787094,1.975,0.581,0.248,1423495047599999904
1423458571523040851,1659,1423458571512567043,1.982,0.584,0.247,1423495047900000095
1423458571786789716,1660,1423458571745256900,1.991,0.59,0.248,1423495048099999904
1423458572000400656,1661,1423458571974076986,2.001,0.59,0.246,1423495048299999952
1423458572214053416,1662,1423458572204766988,2.002,0.594,0.246,1423495048500000000
1423458572477731610,1663,1423458572432581901,2.018,0.595,0.248,1423495048799999952
1423458572691331465,1664,1423458572676378965,2.023,0.604,0.247,1423495049000000000
1423458572904923836,1665,1423458572892173051,2.027,0.604,0.246,1423495049200000047
1423458573168578443,1666,1423458573125890970,2.039,0.61,0.247,1423495049500000000
1423458573582430452,1667,1423458573548470973,2.053,0.614,0.245,1423495049900000095
1423458573846091262,1668,1423458573833157062,2.064,0.617,0.247,1423495050200000047
1423458574259996600,1669,1423458574250808954,2.075,0.626,0.246,1423495050599999904
1423458574523739450,1670,1423458574473572969,2.084,0.631,0.247,1423495050799999952
1423458574737289238,1671,1423458574711311101,2.099,0.633,0.246,1423495051099999904
1423458575001035550,1672,1423458574955096006,2.101,0.638,0.246,1423495051299999952
1423458575214672479,1673,1423458575183871030,2.108,0.64,0.246,1423495051500000000
1423458575428314153,1674,1423458575412623882,2.119,0.649,0.245,1423495051799999952
1423458575692007146,1675,1423458575647314071,2.122,0.65,0.246,1423495052000000000
1423458575905585733,1676,1423458575883086919,2.133,0.651,0.246,1423495052200000047
1423458576169348453,1677,1423458576123861074,2.139,0.658,0.244,1423495052500000000
1423458576382969006,1678,1423458576364592075,2.153,0.659,0.248,1423495052700000047
1423458576646617276,1679,1423458576603270053,2.155,0.663,0.247,1423495052900000095
1423458576860269062,1680,1423458576832048892,2.162,0.668,0.246,1423495053200000047
1423458577073963696,1681,1423458577062803030,2.17,0.675,0.246,1423495053400000095
1423458577337611936,1682,1423458577292644023,2.181,0.674,0.247,1423495053599999904
1423458577551265315,1683,1423458577532309055,2.182,0.679,0.247,1423495053900000095
1423458577764899882,1684,1423458577755099058,2.196,0.684,0.247,1423495054099999904
1423458578028641215,1685,1423458577981898069,2.201,0.69,0.247,1423495054299999952
1423458578242297127,1686,1423458578212624073,2.204,0.691,0.246,1423495054599999904
1423458578455935175,1687,1423458578453327894,2.215,0.697,0.247,1423495054799999952
1423458578719597581,1688,1423458578705106973,2.228,0.698,0.246,1423495055000000000
1423458579433799157,1689,1423458579402329921,2.25,0.716,0.246,1423495055700000047
1423458579647552603,1690,1423458579634074926,2.253,0.718,0.247,1423495056000000000
1423458579911227096,1691,1423458579864782094,2.26,0.721,0.246,1423495056200000047
1423458580124891498,1692,1423458580101603031,2.27,0.725,0.245,1423495056400000095
1423458580338497314,1693,1423458580335314035,2.279,0.723,0.252,1423495056700000047
1423458580602116483,1694,1423458580590107917,2.286,0.736,0.247,1423495056900000095
1423458580815756329,1695,1423458580812792062,2.289,0.736,0.246,1423495057200000047
1423458581079518503,1696,1423458581055526971,2.3,0.742,0.247,1423495057400000095
1423458581293107168,1697,1423458581282390117,2.311,0.745,0.247,1423495057599999904
1423458581556753388,1698,1423458581513161897,2.31,0.749,0.246,1423495057900000095
1423458581770355916,1699,1423458581744910001,2.319,0.754,0.247,1423495058099999904
1423458582034032238,1700,1423458581984575986,2.329,0.762,0.246,1423495058299999952
1423458582247676638,1701,1423458582213416099,2.332,0.761,0.246,1423495058599999904
1423458582461248102,1702,1423458582444101095,2.342,0.767,0.247,1423495058799999952
1423458582724925471,1703,1423458582704793930,2.355,0.769,0.246,1423495059000000000
1423458582938543655,1704,1423458582924592018,2.36,0.773,0.251,1423495059299999952
1423458583202211784,1705,1423458583166351079,2.365,0.776,0.248,1423495059500000000
1423458583415881186,1706,1423458583394012928,2.375,0.787,0.246,1423495059700000047
1423458583629558848,1707,1423458583624756097,2.379,0.788,0.251,1423495060000000000
1423458583893378152,1708,1423458583865602970,2.385,0.793,0.247,1423495060200000047
1423458584107074837,1709,1423458584091381072,2.398,0.796,0.246,1423495060400000095
1423458584370833008,1710,1423458584325031995,2.407,0.798,0.251,1423495060700000047
1423458584584559776,1711,1423458584555742025,2.412,0.808,0.247,1423495060900000095
1423458584848286340,1712,1423458584809501886,2.415,0.809,0.247,1423495061200000047
1423458585061934939,1713,1423458585044318914,2.425,0.817,0.25,1423495061400000095
1423458585325658402,1714,1423458585294018983,2.437,0.818,0.247,1423495061599999904
1423458585539322189,1715,1423458585524714946,2.438,0.822,0.248,1423495061900000095
1423458585802993673,1716,1423458585763492107,2.45,0.828,0.248,1423495062099999904
1423458586016698812,1717,1423458586003184080,2.459,0.837,0.247,1423495062299999952
1423458586280401614,1718,1423458586243967056,2.463,0.839,0.248,1423495062599999904
1423458586493998384,1719,1423458586472748041,2.468,0.844,0.247,1423495062799999952
1423458586757729468,1720,1423458586710501909,2.478,0.848,0.246,1423495063099999904
1423458586971345453,1721,1423458586945291042,2.484,0.852,0.248,1423495063299999952
1423458587185034879,1722,1423458587173913955,2.489,0.853,0.248,1423495063500000000
1423458587448758551,1723,1423458587414731025,2.498,0.865,0.246,1423495063799999952
1423458587662380604,1724,1423458587644507884,2.503,0.866,0.251,1423495064000000000
1423458587875993539,1725,1423458587873197078,2.511,0.868,0.248,1423495064200000047
1423458588139681764,1726,1423458588103038072,2.519,0.874,0.247,1423495064400000095
1423458588353275822,1727,1423458588334798097,2.524,0.878,0.248,1423495064700000047
1423458588617040617,1728,1423458588573553085,2.529,0.883,0.249,1423495064900000095
1423458588830727508,1729,1423458588805274009,2.535,0.888,0.247,1423495065099999904
1423458589044334132,1730,1423458589033039093,2.541,0.895,0.248,1423495065400000095
1423458589308015805,1731,1423458589274760961,2.552,0.894,0.248,1423495065599999904
1423458589521742926,1732,1423458589513542890,2.555,0.902,0.247,1423495065900000095
1423458589785553751,1733,1423458589745371103,2.566,0.905,0.249,1423495066099999904
1423458589999205348,1734,1423458589984081029,2.57,0.914,0.246,1423495066299999952
1423458590262969976,1735,1423458590216833114,2.573,0.916,0.247,1423495066599999904
1423458590476894084,1736,1423458590452634096,2.579,0.921,0.248,1423495066799999952
1423458590740696344,1737,1423458590714411973,2.59,0.924,0.247,1423495067099999904
1423458591004542886,1738,1423458590954170942,2.59,0.928,0.249,1423495067299999952
1423458591218214747,1739,1423458591183886051,2.595,0.932,0.25,1423495067500000000
1423458591882489461,1740,1423458591873213052,2.613,0.944,0.249,1423495068200000047
1423458592146237057,1741,1423458592112991094,2.62,0.949,0.247,1423495068500000000
1423458592359930144,1742,1423458592345765113,2.631,0.951,0.251,1423495068700000047
1423458592623678799,1743,1423458592573512077,2.633,0.961,0.249,1423495068900000095
1423458592837363543,1744,1423458592803199052,2.636,0.961,0.248,1423495069099999904
1423458593050981693,1745,1423458593033005952,2.642,0.969,0.251,1423495069400000095
1423458593314691759,1746,1423458593273652076,2.652,0.97,0.249,1423495069599999904
1423458593528398847,1747,1423458593503357887,2.651,0.974,0.247,1423495069799999952
1423458593792236276,1748,1423458593747193098,2.661,0.979,0.249,1423495070099999904
1423458594006011302,1749,1423458593972949028,2.664,0.986,0.248,1423495070299999952
1423458594219773883,1750,1423458594203701972,2.667,0.987,0.25,1423495070500000000
1423458594483698495,1751,1423458594434448003,2.674,0.995,0.25,1423495070799999952
1423458594747427251,1752,1423458594697138071,2.681,0.997,0.249,1423495071000000000
1423458594961188364,1753,1423458594924943923,2.679,0.997,0.25,1423495071299999952
