%time,field.transforms0.header.seq,field.transforms0.header.stamp,field.transforms0.transform.translation.x,field.transforms0.transform.translation.y,field.transforms0.transform.translation.z,field.transforms0.transform.rotation.x,field.transforms0.transform.rotation.y,field.transforms0.transform.rotation.z,field.transforms0.transform.rotation.w
1423459717828503357,0,1423459717828334450,15.089969635,-2.87374258041,10.0608787537,0.0176692566285,-0.840073462474,1.19974429388e-11,0.542184816292
1423459717828649843,0,1423459717828398423,15.0900697708,-2.87383508682,10.0610246658,0.017639964983,-0.840077546724,1.1997376293e-11,0.542179441814
1423459717848480537,0,1423459717848323720,15.0902633667,-2.87296533585,10.0615234375,0.0176704577835,-0.840074158435,1.19973684817e-11,0.542183698806
1423459717868475351,0,1423459717868329299,15.0887479782,-2.87447357178,10.0624551773,0.017663724064,-0.840101224736,1.1997072622e-11,0.542141978681
1423459717888502369,0,1423459717888340118,15.0885572433,-2.87710833549,10.0614824295,0.0176177190951,-0.840149192063,1.19971806293e-11,0.542069138625
1423459717908476721,0,1423459717908317237,15.0891904831,-2.87556886673,10.0608386993,0.0176492467408,-0.840109838647,1.19974407757e-11,0.542129101873
1423459717928504750,0,1423459717928326045,15.0887155533,-2.87612867355,10.0613832474,0.0176544265671,-0.840128213194,1.19973003026e-11,0.54210045805
1423459717928590958,0,1423459717928381916,15.0892457962,-2.87533473969,10.0609369278,0.0176459455174,-0.840104531541,1.19974291884e-11,0.542137433397
1423459717948476793,0,1423459717948327488,15.0891799927,-2.87338018417,10.0610599518,0.0176656675037,-0.84008842686,1.19972623277e-11,0.542161746388
1423459717968485427,0,1423459717968323762,15.089307785,-2.8750576973,10.0605726242,0.0176057838488,-0.840098631105,1.19973451451e-11,0.542147882399
1423459717988485979,0,1423459717988324875,15.0881080627,-2.87570858002,10.0621623993,0.0176359367291,-0.84013410262,1.1997060177e-11,0.542091932564
1423459718008457688,0,1423459718008336093,15.0883932114,-2.87460303307,10.0616111755,0.0176351417577,-0.840118105355,1.19968757518e-11,0.542116750184
1423459718028447095,0,1423459718028327151,15.0883131027,-2.87078118324,10.0631809235,0.0177043645208,-0.84007984168,1.19964295728e-11,0.542173786787
1423459718028665386,0,1423459718028376896,15.0891075134,-2.86926198006,10.0629701614,0.0177306586463,-0.840060280162,1.19964466668e-11,0.542203236284
1423459718048468456,0,1423459718048323725,15.0892238617,-2.86906218529,10.0630779266,0.0177294960784,-0.840054743746,1.19963712198e-11,0.542211852027
1423459718068474271,0,1423459718068328425,15.0888233185,-2.87449979782,10.0618314743,0.0176300854484,-0.840109288089,1.19968065302e-11,0.542130578509
1423459718088450859,0,1423459718088328427,15.0893115997,-2.87012815475,10.0629796982,0.0177331420295,-0.840043295341,1.19966660852e-11,0.542229469529
1423459718108476077,0,1423459718108328212,15.0898761749,-2.86735105515,10.0636301041,0.0177849021406,-0.840018548842,1.19963545121e-11,0.542266110741
1423459718128457826,0,1423459718128335352,15.0877275467,-2.87254929543,10.0645809174,0.0177243949756,-0.840109359424,1.19963554523e-11,0.542127392806
1423459718128475449,0,1423459718128393863,15.0882663727,-2.87412023544,10.0629348755,0.0176883625625,-0.840112965889,1.19966066758e-11,0.542122980858
1423459718148473413,0,1423459718148318265,15.0886297226,-2.87241697311,10.0628995895,0.0177054712654,-0.840086065545,1.19966757563e-11,0.542164106857
1423459718168487273,0,1423459718168327749,15.0888471603,-2.87281179428,10.0628728867,0.0176921154999,-0.840089885204,1.19966690873e-11,0.542158624231
1423459718188490378,0,1423459718188322934,15.0894527435,-2.8718354702,10.0618906021,0.0176832433573,-0.840067493461,1.19971364026e-11,0.542193608718
1423459718208485167,0,1423459718208320982,15.0898456573,-2.8735499382,10.0608978271,0.0176573599221,-0.840080013921,1.19975342064e-11,0.542175052774
1423459718228463395,0,1423459718228327683,15.0896320343,-2.87387728691,10.0619726181,0.0176704869782,-0.840088901508,1.19975060535e-11,0.542160853855
1423459718228614957,0,1423459718228384123,15.0890922546,-2.87267303467,10.0620641708,0.0177271903915,-0.840074314459,1.19976611745e-11,0.542181605099
1423459718248537401,0,1423459718248330682,15.0896015167,-2.87137436867,10.0622835159,0.0177275542715,-0.840060508003,1.19975496249e-11,0.542202984789
1423459718268511465,0,1423459718268327148,15.0907144547,-2.87016749382,10.0605630875,0.017711834987,-0.840027089132,1.19976915779e-11,0.542255272381
1423459718288516508,0,1423459718288328702,15.0902891159,-2.87070727348,10.0615997314,0.0177026032049,-0.840041593254,1.19974590539e-11,0.54223310434
1423459718308448619,0,1423459718308322517,15.0897531509,-2.87194752693,10.0620994568,0.0176906387512,-0.840067326864,1.19972576084e-11,0.542193625596
1423459718328487085,0,1423459718328344379,15.0894813538,-2.87231826782,10.062130928,0.0177003540341,-0.840078211461,1.19972890573e-11,0.542176443693
1423459718328764263,0,1423459718328403167,15.088766098,-2.87264680862,10.0626440048,0.0176883579958,-0.840098978972,1.19969333926e-11,0.542144655531
1423459718348476085,0,1423459718348327221,15.0907011032,-2.8716738224,10.0602760315,0.0176637013741,-0.840054417579,1.1997349112e-11,0.542214504749
1423459718368470624,0,1423459718368322759,15.0908594131,-2.87271547318,10.0596170425,0.017640463659,-0.8400730682,1.19975846469e-11,0.542186364755
1423459718388513621,0,1423459718388343093,15.0897312164,-2.87301373482,10.0610132217,0.0176524867448,-0.84009069596,1.19973370317e-11,0.542158659687
1423459718408504336,0,1423459718408329133,15.0898275375,-2.87389612198,10.0615491867,0.0176326397741,-0.840088586435,1.19971800148e-11,0.542162574285
1423459718428482637,0,1423459718428322782,15.0896730423,-2.87502670288,10.060997963,0.0176196479514,-0.84010735229,1.19973086046e-11,0.54213391762
1423459718428684644,0,1423459718428369415,15.0900945663,-2.87393903732,10.0604305267,0.0176243449222,-0.840076176634,1.19974044648e-11,0.542182072664
1423459718448485847,0,1423459718448322251,15.0903701782,-2.87346220016,10.0603570938,0.0176285712027,-0.840072461235,1.19973985026e-11,0.542187691997
1423459718468489186,0,1423459718468322754,15.0900144577,-2.87360239029,10.0606451035,0.0176172331095,-0.840072266995,1.19973005019e-11,0.542188361479
1423459718488476889,0,1423459718488321946,15.088850975,-2.87420082092,10.0623865128,0.0176390749492,-0.84010308413,1.19967346509e-11,0.542139899906
1423459718508499982,0,1423459718508333027,15.0889310837,-2.87359857559,10.0623617172,0.0176556394877,-0.840084030642,1.19968931891e-11,0.542168884993
1423459718528519429,0,1423459718528342200,15.0895872116,-2.87145614624,10.0625181198,0.0176808422463,-0.840061070108,1.19967704903e-11,0.542203639149
1423459718528751799,0,1423459718528400876,15.0894956589,-2.87382149696,10.0612459183,0.017624926791,-0.840091690348,1.1997293693e-11,0.542158015494
1423459718548484560,0,1423459718548322678,15.0894203186,-2.87453317642,10.0603542328,0.0176243625244,-0.840101482899,1.19972515116e-11,0.542142859657
1423459718568476286,0,1423459718568322243,15.0890512466,-2.87518143654,10.0602731705,0.0176149197501,-0.840109636756,1.1997335549e-11,0.542130531175
1423459718588479266,0,1423459718588326558,15.0887517929,-2.87423038483,10.0607719421,0.0176262065074,-0.840097388893,1.19971252504e-11,0.542149143705
1423459718608485787,0,1423459718608320269,15.0892391205,-2.87583994865,10.0598106384,0.0175792825107,-0.840117161771,1.19973760245e-11,0.542120026677
1423459718628497215,0,1423459718628334441,15.0900688171,-2.87254691124,10.0603971481,0.0176566906127,-0.840068751818,1.19974515467e-11,0.542192524382
1423459718628636944,0,1423459718628383758,15.090593338,-2.8707113266,10.0603237152,0.0176699419689,-0.840050268191,1.19973265443e-11,0.54222073002
1423459718648723173,0,1423459718648325605,15.0892515182,-2.87073159218,10.0623073578,0.0176856835151,-0.840067309516,1.19971478547e-11,0.542193814131
1423459718668477867,0,1423459718668321880,15.0897254944,-2.86877965927,10.0615549088,0.0177216901766,-0.840020395572,1.19969062549e-11,0.542265319488
1423459718688496060,0,1423459718688324469,15.0887975693,-2.86961317062,10.0629444122,0.0177460127462,-0.840054080357,1.19971314762e-11,0.5422123395
1423459718708469314,0,1423459718708320809,15.0895986557,-2.8678791523,10.061835289,0.0177431797999,-0.840027191627,1.1996901994e-11,0.542254088871
1423459718728489108,0,1423459718728344579,15.0895080566,-2.87147331238,10.0608062744,0.0176845661018,-0.840062513992,1.19972258007e-11,0.542201280621
1423459718728662924,0,1423459718728400469,15.0906648636,-2.87196040154,10.0588912964,0.0176571053647,-0.840048191499,1.19975692307e-11,0.542224365544
1423459718748500411,0,1423459718748333626,15.0900382996,-2.87171697617,10.0598859787,0.0176667729149,-0.840046028258,1.19971597232e-11,0.542227402058
1423459718768484040,0,1423459718768323995,15.0890722275,-2.8727285862,10.0606107712,0.0176687296558,-0.840073715513,1.19971760767e-11,0.5421844414
1423459718788474414,0,1423459718788330368,15.0875368118,-2.87542724609,10.0629663467,0.0176808737097,-0.840155731175,1.19968392071e-11,0.542056947266
1423459718808517099,0,1423459718808328935,15.087223053,-2.87469339371,10.0635890961,0.0176954747453,-0.840129688935,1.19966893325e-11,0.542096832626
1423459718828491661,0,1423459718828339435,15.0900621414,-2.87325119972,10.0603713989,0.0176503061681,-0.840069464615,1.19972698185e-11,0.542191627853
1423459718828664354,0,1423459718828386420,15.0901966095,-2.87507677078,10.0602474213,0.0176206304587,-0.840105124147,1.19976296758e-11,0.542137338471
1423459718848469820,0,1423459718848322632,15.0900259018,-2.87263584137,10.0607433319,0.0176777183712,-0.84005591566,1.19976057358e-11,0.542211726946
1423459718868493989,0,1423459718868326514,15.0903568268,-2.87337684631,10.0600681305,0.0176246573179,-0.840066157824,1.19977714759e-11,0.542197585694
1423459718888664285,0,1423459718888346904,15.0893278122,-2.87256765366,10.0610752106,0.0176749600004,-0.840070409112,1.19975247379e-11,0.542189361315
1423459718908488418,0,1423459718908330025,15.0910224915,-2.87124633789,10.0593299866,0.0176521393963,-0.840036347022,1.1997658719e-11,0.542242876999
1423459718928474534,0,1423459718928330744,15.090177536,-2.87322878838,10.0594758987,0.0176300439779,-0.840062699634,1.19976535909e-11,0.542202768558
1423459718928686745,0,1423459718928388892,15.0895719528,-2.8723347187,10.0600557327,0.0176604892518,-0.840058968519,1.19977715572e-11,0.542207558532
1423459718948481454,0,1423459718948325540,15.0895357132,-2.87164759636,10.0610513687,0.0176789719531,-0.84005892538,1.19973930825e-11,0.542207023046
1423459718968493823,0,1423459718968326420,15.0886964798,-2.87320446968,10.0620164871,0.0176703346237,-0.840074533039,1.1997106078e-11,0.542183122398
1423459718988478219,0,1423459718988331274,15.0896520615,-2.87281036377,10.0614309311,0.0176500736626,-0.840061778479,1.19972557019e-11,0.542203544104
1423459719008491990,0,1423459719008334311,15.0899343491,-2.87152934074,10.0615606308,0.0176746904374,-0.84005102652,1.19971576074e-11,0.542219400391
1423459719028475859,0,1423459719028332650,15.0906000137,-2.87129807472,10.0608892441,0.0176512129461,-0.840037855896,1.19970475426e-11,0.542240569622
1423459719028725540,0,1423459719028393667,15.0899906158,-2.87241053581,10.0616264343,0.0176571604753,-0.840067546218,1.199707461e-11,0.542194377024
1423459719048538658,0,1423459719048334392,15.0888834,-2.87338495255,10.0625619888,0.0176765418121,-0.840104130539,1.19968967304e-11,0.542137058059
1423459719068526472,0,1423459719068323965,15.0894241333,-2.87321853638,10.0624923706,0.0176650960332,-0.840092039331,1.19969730262e-11,0.542156167387
1423459719088497794,0,1423459719088323622,15.0898351669,-2.87494444847,10.06204319,0.0176160710772,-0.840103343502,1.19972389566e-11,0.542140245948
1423459719108498916,0,1423459719108328964,15.0887041092,-2.87527346611,10.0630016327,0.0176204074555,-0.840112949009,1.19968675126e-11,0.542125219989
1423459719128506744,0,1423459719128339118,15.0890302658,-2.87461900711,10.061463356,0.017604893664,-0.840100724727,1.19969139389e-11,0.54214466707
1423459719128656684,0,1423459719128392582,15.0897312164,-2.87330937386,10.0607767105,0.0176106193203,-0.840075246813,1.19970811594e-11,0.542183959352
1423459719148484721,0,1423459719148325774,15.0901470184,-2.87488150597,10.0596122742,0.0175865904026,-0.840095760591,1.19975496984e-11,0.542152953395
1423459719168496110,0,1423459719168330266,15.0903549194,-2.8735730648,10.0597982407,0.017589444168,-0.840075088377,1.19973580717e-11,0.542184892212
1423459719188481676,0,1423459719188330861,15.0906085968,-2.87552070618,10.0590791702,0.0175609882371,-0.840098664848,1.19976405228e-11,0.542149282959
1423459719208493428,0,1423459719208327849,15.0908756256,-2.87358474731,10.0594577789,0.0176083354492,-0.84007372021,1.19976318841e-11,0.542186398884
1423459719228485183,0,1423459719228324418,15.0900192261,-2.87499594688,10.0601024628,0.0176267101995,-0.840100722331,1.19978318719e-11,0.542143961902
1423459719228660042,0,1423459719228371785,15.0886545181,-2.87652015686,10.0623073578,0.0176458033359,-0.8401315388,1.19974081526e-11,0.542095584872
1423459719248480419,0,1423459719248334371,15.0876169205,-2.87486410141,10.0642766953,0.0176717015724,-0.840130729151,1.19966630463e-11,0.542095996018
1423459719268484394,0,1423459719268321445,15.0881967545,-2.8757891655,10.0623044968,0.0176447139921,-0.84013399112,1.19969666722e-11,0.542091819743
1423459719288478650,0,1423459719288322067,15.0887145996,-2.87571644783,10.0624504089,0.0176317254552,-0.840135560981,1.19967647584e-11,0.542089809379
1423459719308487257,0,1423459719308319860,15.08872509,-2.87400865555,10.06300354,0.0176626130964,-0.840110417821,1.19966959097e-11,0.542127769042
1423459719328477399,0,1423459719328332001,15.0896635056,-2.87494421005,10.0617160797,0.0176387433314,-0.840103810223,1.19970056932e-11,0.542138785535
1423459719328523829,0,1423459719328382727,15.0906801224,-2.87361884117,10.0610218048,0.0176288781463,-0.84007481812,1.19972491655e-11,0.542184030211
1423459719348456902,0,1423459719348315520,15.0900802612,-2.87493491173,10.0617876053,0.0176075180116,-0.84008765536,1.19971172251e-11,0.542164833442
1423459719368471139,0,1423459719368326957,15.0895767212,-2.87293076515,10.0629167557,0.0176708464409,-0.840073314836,1.19969047062e-11,0.542184993233
1423459719388490830,0,1423459719388343956,15.0903425217,-2.87285423279,10.0611829758,0.0176339689109,-0.840064114041,1.19972441908e-11,0.542200449503
1423459719408459337,0,1423459719408323482,15.0898866653,-2.87476301193,10.0606365204,0.0176166911,-0.840091415442,1.19976879e-11,0.542158709139
1423459719428499730,0,1423459719428330203,15.0904951096,-2.87287664413,10.0605211258,0.0176265015332,-0.840058871057,1.19973630193e-11,0.542208815496
1423459719428682457,0,1423459719428385343,15.0895814896,-2.87444496155,10.0615510941,0.0176175006912,-0.840102092589,1.19970115028e-11,0.542142137909
1423459719448522241,0,1423459719448336741,15.0887365341,-2.87497496605,10.0620441437,0.0176194201689,-0.840108540902,1.19970996163e-11,0.542132083109
1423459719468481005,0,1423459719468327148,15.0886154175,-2.87620711327,10.0629043579,0.0176265815627,-0.84012837983,1.19972699648e-11,0.542101105908
1423459719488478978,0,1423459719488330462,15.0876951218,-2.87545585632,10.0641641617,0.0176563992358,-0.84013488251,1.19968296623e-11,0.542090057792
1423459719508501988,0,1423459719508338605,15.0887517929,-2.87797045708,10.0626535416,0.0176157449463,-0.840145481342,1.19973239377e-11,0.542074953959
1423459719528498499,0,1423459719528329032,15.0887145996,-2.8768093586,10.062505722,0.0176293338681,-0.840133422832,1.1997428914e-11,0.542093200869
1423459719528677033,0,1423459719528381133,15.0885972977,-2.87689113617,10.0619134903,0.0176212368581,-0.840138619822,1.19973421388e-11,0.542085409779
1423459719548492338,0,1423459719548323644,15.0887880325,-2.87687397003,10.0616817474,0.0176284237693,-0.840141163298,1.19974825558e-11,0.54208123414
1423459719568475618,0,1423459719568325928,15.0888547897,-2.87516140938,10.0617580414,0.017645306105,-0.840115269072,1.19974001813e-11,0.542120814805
1423459719588486427,0,1423459719588325035,15.0879201889,-2.87519788742,10.0631666183,0.0176561335288,-0.840128298377,1.19972276544e-11,0.542100270444
1423459719608494011,0,1423459719608325216,15.0898551941,-2.87314271927,10.0611724854,0.0176502643403,-0.840068586812,1.19975628391e-11,0.542192989277
1423459719628467736,0,1423459719628330811,15.0892448425,-2.87532448769,10.0611791611,0.0176229741811,-0.840101167885,1.19976396794e-11,0.542143392932
1423459719628740440,0,1423459719628389541,15.0891675949,-2.876080513,10.0609893799,0.0175810988729,-0.840115453812,1.1997529945e-11,0.542122614571
1423459719648479457,0,1423459719648329947,15.0885305405,-2.87640190125,10.0623130798,0.0176180552848,-0.84012359395,1.19973012864e-11,0.54210879998
1423459719668499752,0,1423459719668325391,15.0891685486,-2.87304019928,10.0619726181,0.0176513225586,-0.840077825022,1.19972628331e-11,0.542178640965
1423459719688464223,0,1423459719688324626,15.0897760391,-2.87188792229,10.0611200333,0.0176301611563,-0.840054801875,1.19973701259e-11,0.542215000959
1423459719708455140,0,1423459719708322590,15.0896968842,-2.87374258041,10.0605049133,0.0176028768607,-0.840072168971,1.19975139866e-11,0.542188979644
1423459719728489971,0,1423459719728326359,15.0897092819,-2.87307977676,10.060959816,0.0176388700618,-0.840063325859,1.19974510548e-11,0.542201511257
1423459719728696777,0,1423459719728378651,15.0916938782,-2.87237787247,10.0590705872,0.0175999353069,-0.840032575161,1.19977446175e-11,0.542250417193
1423459719748484341,0,1423459719748332217,15.0903158188,-2.873670578,10.0607995987,0.0176234514662,-0.84005876511,1.19976995253e-11,0.542209078788
1423459719768470487,0,1423459719768327185,15.0904788971,-2.87408161163,10.0598182678,0.0175960017587,-0.840065436504,1.19976301684e-11,0.542199634003
1423459719788481545,0,1423459719788330598,15.0905323029,-2.87615585327,10.059551239,0.0175383029026,-0.8401014026,1.19978461445e-11,0.542145774935
1423459719808463401,0,1423459719808323890,15.0897226334,-2.87640714645,10.0604991913,0.0175578996903,-0.840127011184,1.19974360952e-11,0.542105455826
1423459719828486091,0,1423459719828329724,15.0891008377,-2.87518429756,10.0616207123,0.0176162392363,-0.840118343648,1.19973247103e-11,0.542116995474
1423459719828538961,0,1423459719828385530,15.0896320343,-2.87414503098,10.0616407394,0.0176279730503,-0.840102481515,1.19973139516e-11,0.542141194817
1423459719848482896,0,1423459719848325981,15.0918521881,-2.87190556526,10.0594797134,0.0176348121797,-0.840029075102,1.19976081324e-11,0.542254706188
1423459719868463950,0,1423459719868325704,15.0922212601,-2.87230181694,10.0582141876,0.0175911183463,-0.840019564572,1.19980953079e-11,0.542270858235
1423459719888486237,0,1423459719888343956,15.0905447006,-2.87387013435,10.0605297089,0.0176110146346,-0.840051449827,1.19974110125e-11,0.542220816465
1423459719908456352,0,1423459719908325316,15.0912561417,-2.87335538864,10.0597839355,0.0176370350415,-0.840047638868,1.19977725791e-11,0.542225874915
1423459719928450112,0,1423459719928329214,15.0902385712,-2.87309408188,10.0615434647,0.0176307496499,-0.840065138688,1.19971138315e-11,0.542198966642
1423459719928604193,0,1423459719928384795,15.0895881653,-2.87346577644,10.0622272491,0.0176532475846,-0.840084027257,1.19972017108e-11,0.542168968124
1423459719948473140,0,1423459719948327924,15.0895490646,-2.87206792831,10.0628433228,0.0177063800042,-0.840066540537,1.19973444024e-11,0.542194330086
1423459719968457795,0,1423459719968324942,15.0888986588,-2.87400078773,10.0636692047,0.0176822134714,-0.84009703441,1.19970958582e-11,0.542147869223
1423459719988471360,0,1423459719988329796,15.0880060196,-2.87583136559,10.0635967255,0.0176658347018,-0.840122676721,1.19971026422e-11,0.542108666545
1423459720008475570,0,1423459720008337430,15.0884790421,-2.87650752068,10.0634126663,0.0176429474067,-0.840126146839,1.1997176361e-11,0.542104034116
1423459720028463392,0,1423459720028327499,15.0903692245,-2.87506604195,10.0605325699,0.0176168219459,-0.840085678382,1.19975200706e-11,0.542167594533
1423459720028559069,0,1423459720028377669,15.0899906158,-2.87611794472,10.0607538223,0.0176056511719,-0.840109567659,1.19975345051e-11,0.542130939327
1423459720048488520,0,1423459720048327855,15.0890817642,-2.87759637833,10.06153965,0.0176051885339,-0.840139445727,1.1997474131e-11,0.542084651204
1423459720068462760,0,1423459720068327601,15.089056015,-2.87809967995,10.0611667633,0.0175821257274,-0.840138394024,1.19975174931e-11,0.542087029675
1423459720088456717,0,1423459720088325814,15.0887470245,-2.87786102295,10.0617589951,0.0175932090267,-0.840135327959,1.19974746855e-11,0.542091421912
1423459720108513336,0,1423459720108327336,15.0902042389,-2.87647151947,10.0601959229,0.0175922985595,-0.840093684998,1.19977577956e-11,0.542155984434
1423459720128473876,0,1423459720128336067,15.0893573761,-2.87660813332,10.0615148544,0.0176084323244,-0.840115032249,1.19974167245e-11,0.542122380741
1423459720128582896,0,1423459720128394723,15.0893421173,-2.87745523453,10.0611505508,0.0176017555125,-0.840118729295,1.19974299218e-11,0.542116868296
1423459720148478613,0,1423459720148324073,15.0873441696,-2.87814164162,10.0632963181,0.0176253087039,-0.840155605976,1.19971308891e-11,0.54205895089
1423459720168477211,0,1423459720168328137,15.0893964767,-2.87484574318,10.0613327026,0.0176403438124,-0.840090460698,1.19974098091e-11,0.542159419465
1423459720188484435,0,1423459720188330872,15.0901060104,-2.87448596954,10.0608606339,0.0176194865291,-0.840088461792,1.19974478463e-11,0.542163195042
1423459720208461770,0,1423459720208325307,15.0893335342,-2.87657999992,10.0610666275,0.0175920556664,-0.840120404647,1.19975540103e-11,0.542114586847
1423459720228489963,0,1423459720228326063,15.0908508301,-2.87593960762,10.0594396591,0.0175561894508,-0.840089154248,1.19978517018e-11,0.542164175437
1423459720228722263,0,1423459720228387906,15.090672493,-2.87552022934,10.0594596863,0.0175624531207,-0.840088627153,1.19978989099e-11,0.54216478931
1423459720248475594,0,1423459720248336022,15.0898809433,-2.8757288456,10.0609607697,0.0176036540063,-0.840104534981,1.19976612621e-11,0.542138802956
1423459720268451448,0,1423459720268323194,15.0903120041,-2.87476730347,10.0607814789,0.0176142339277,-0.84007878007,1.19975536466e-11,0.542178367365
1423459720288480263,0,1423459720288333421,15.0900707245,-2.87372875214,10.0608663559,0.0176209530875,-0.840058216231,1.19974933489e-11,0.542210010379
1423459720308418205,0,1423459720308322981,15.0892486572,-2.87331271172,10.0625629425,0.017659948396,-0.840061553284,1.19968807672e-11,0.542203571471
1423459720328446077,0,1423459720328322962,15.0904569626,-2.87355732918,10.0606365204,0.0176340604603,-0.840051980611,1.19972826163e-11,0.542219245125
1423459720328707113,0,1423459720328370454,15.0893793106,-2.87185192108,10.0624361038,0.0177307742846,-0.840054361347,1.19969893071e-11,0.542212402684
1423459720348505843,0,1423459720348328369,15.0899896622,-2.87297582626,10.0616931915,0.017673709097,-0.840064914128,1.1997181872e-11,0.542197915947
1423459720368485971,0,1423459720368326520,15.0900249481,-2.87246584892,10.0614347458,0.0176635567543,-0.840056011592,1.19971892961e-11,0.542212039844
1423459720388477377,0,1423459720388341783,15.0900039673,-2.87408065796,10.0616788864,0.0176380118422,-0.840080722471,1.19973333934e-11,0.542174584678
1423459720408475498,0,1423459720408327076,15.0899543762,-2.87694954872,10.0611515045,0.0175818837444,-0.840124348035,1.19975763562e-11,0.542108805686
1423459720428497022,0,1423459720428329000,15.0904846191,-2.87369775772,10.061331749,0.0176526071188,-0.840080706521,1.19975001364e-11,0.542174134383
1423459720428509296,0,1423459720428393658,15.0905342102,-2.87129282951,10.0618038177,0.0177055573558,-0.840051980773,1.19972957832e-11,0.542216914931
1423459720448512954,0,1423459720448329353,15.0909109116,-2.8702185154,10.0613660812,0.0176871954061,-0.840032817011,1.19969999484e-11,0.542247203278
1423459720468469700,0,1423459720468326769,15.0918684006,-2.87050914764,10.0602817535,0.01765759086,-0.840020105372,1.19972403282e-11,0.542267860062
1423459720488487017,0,1423459720488326173,15.0915164948,-2.87271237373,10.0595798492,0.0176115461849,-0.840053984956,1.19973799251e-11,0.542216871557
1423459720508493549,0,1423459720508334661,15.091424942,-2.87249588966,10.0595521927,0.0176304510491,-0.840047378619,1.19976245511e-11,0.542226492225
1423459720528469484,0,1423459720528330037,15.0918340683,-2.87175989151,10.0594491959,0.0176403193783,-0.840037801544,1.19977896423e-11,0.542241008325
1423459720528638981,0,1423459720528385722,15.0924901962,-2.86968183517,10.0591230392,0.0176653227582,-0.840003807325,1.19977845836e-11,0.542292854509
1423459720548483466,0,1423459720548326420,15.0910024643,-2.87109351158,10.0605297089,0.0176817570486,-0.840033589999,1.19974895933e-11,0.54224618315
1423459720568458598,0,1423459720568326695,15.0915851593,-2.87060546875,10.0600070953,0.0176676375436,-0.840024700531,1.19975586135e-11,0.542260414451
1423459720588462171,0,1423459720588330325,15.0906000137,-2.87037205696,10.0610208511,0.017707935093,-0.840037133435,1.19972396527e-11,0.542239839448
1423459720608459444,0,1423459720608322717,15.0914678574,-2.87591481209,10.0579156876,0.017588194303,-0.840070833175,1.19980879401e-11,0.54219152582
1423459720628517473,0,1423459720628340391,15.0916147232,-2.87515974045,10.0588245392,0.0175776923608,-0.840058132956,1.19977697607e-11,0.542211543575
1423459720628546110,0,1423459720628398084,15.0918159485,-2.87357926369,10.0584106445,0.0175695294065,-0.84003491543,1.19976110692e-11,0.542247777768
1423459720648472267,0,1423459720648330924,15.0912437439,-2.87410068512,10.0585298538,0.017578454125,-0.8400534426,1.19979518394e-11,0.542218785663
1423459720668474980,0,1423459720668323464,15.0907440186,-2.87449002266,10.0589466095,0.0175773649166,-0.840062934607,1.19977421787e-11,0.542204114833
1423459720688498101,0,1423459720688331147,15.0905838013,-2.87383556366,10.059472084,0.0175872771522,-0.840062366661,1.19977682126e-11,0.54220467335
1423459720708497792,0,1423459720708328235,15.0902481079,-2.87409806252,10.0599775314,0.0176091956955,-0.840076240909,1.19978021154e-11,0.542182465308
1423459720728484129,0,1423459720728326585,15.0895347595,-2.87573075294,10.0606040955,0.017603141778,-0.840099951092,1.1997721283e-11,0.542145922768
1423459720728632455,0,1423459720728385603,15.0894651413,-2.87653803825,10.0607395172,0.0175994713037,-0.840107046366,1.19977475812e-11,0.542135047064
1423459720748501273,0,1423459720748336458,15.0891656876,-2.87529540062,10.0617961884,0.0176248435917,-0.840108939646,1.19974019757e-11,0.542131288909
1423459720768473360,0,1423459720768323544,15.0888118744,-2.87438154221,10.0625972748,0.0176689334135,-0.840102622688,1.19973451004e-11,0.542139642661
1423459720788459281,0,1423459720788325705,15.0893630981,-2.87379431725,10.061375618,0.0176381595786,-0.840087132618,1.19975340925e-11,0.542164647443
1423459720808497760,0,1423459720808328113,15.0898647308,-2.87070012093,10.061422348,0.0176651405877,-0.840055579633,1.19973419957e-11,0.542212657483
1423459720828590360,0,1423459720828329631,15.0896587372,-2.87114906311,10.0619897842,0.0176667439748,-0.840052322604,1.19971035266e-11,0.542217651359
1423459720828629419,0,1423459720828386913,15.0889816284,-2.87152338028,10.0627250671,0.0176985608766,-0.840065076951,1.19971605992e-11,0.542196853025
1423459720848489524,0,1423459720848324762,15.088558197,-2.87114405632,10.064031601,0.0177194464239,-0.840062329513,1.19967455656e-11,0.542200427658
1423459720868454359,0,1423459720868328023,15.0892906189,-2.87120676041,10.0628433228,0.0176821977498,-0.840055218163,1.19967596261e-11,0.542212661527
1423459720888678564,0,1423459720888340406,15.0887260437,-2.87402629852,10.0630664825,0.0176541248382,-0.840104181229,1.19968151092e-11,0.542137709958
1423459720908474421,0,1423459720908327637,15.0889348984,-2.87297010422,10.06300354,0.0176794311884,-0.8400864461,1.19966476037e-11,0.542164366952
1423459720928752871,0,1423459720928331623,15.0894079208,-2.87199783325,10.0627479553,0.0176910608805,-0.840078701741,1.19966784413e-11,0.542175987339
1423459720928836581,0,1423459720928388810,15.0897960663,-2.87072610855,10.0623445511,0.0176870200823,-0.840052211769,1.19967432325e-11,0.54221716205
1423459720948523012,0,1423459720948325133,15.0892820358,-2.87267541885,10.0628023148,0.017666284398,-0.840083686209,1.19966618811e-11,0.542169071933
1423459720968498189,0,1423459720968324797,15.0885372162,-2.87455272675,10.0629806519,0.017621721582,-0.840118590374,1.19966075358e-11,0.542116434944
1423459720988502986,0,1423459720988329640,15.0892133713,-2.8722782135,10.0632047653,0.0176650555386,-0.840082399467,1.19965016934e-11,0.542171105758
1423459721008479516,0,1423459721008330570,15.0896730423,-2.87257695198,10.0624198914,0.017658513946,-0.840082658438,1.19968642108e-11,0.542170917586
1423459721028490119,0,1423459721028331246,15.0906105042,-2.8717315197,10.0613164902,0.0176584086441,-0.840053467217,1.19971207593e-11,0.542216149539
1423459721028587122,0,1423459721028388127,15.0904130936,-2.86987066269,10.0616207123,0.0176890726576,-0.8400239323,1.19971222696e-11,0.54226090572
1423459721048521109,0,1423459721048327773,15.0904159546,-2.87151479721,10.060918808,0.0176810142174,-0.840048344518,1.19974477475e-11,0.542223349377
1423459721068461608,0,1423459721068319368,15.0903015137,-2.87123680115,10.0612707138,0.0176907719827,-0.840043312128,1.19973334727e-11,0.542230827541
1423459721088454459,0,1423459721088330131,15.0912284851,-2.87102937698,10.0595273972,0.0176727071666,-0.840029240403,1.19976986787e-11,0.542253216394
1423459721108524384,0,1423459721108327695,15.0897397995,-2.87285232544,10.0612020493,0.0176313198579,-0.84007516005,1.19973234363e-11,0.542183421018
1423459721128493150,0,1423459721128335159,15.0893583298,-2.87560081482,10.0601577759,0.0175877586809,-0.840113649879,1.19973640644e-11,0.542125194057
1423459721128508227,0,1423459721128385149,15.0892095566,-2.87322068214,10.0613880157,0.0176220950488,-0.840076652468,1.19969424316e-11,0.54218140852
1423459721148497740,0,1423459721148328096,15.0891857147,-2.87431764603,10.0615186691,0.0176010437408,-0.840102472939,1.19969615205e-11,0.542142083056
1423459721168477405,0,1423459721168327033,15.0897016525,-2.87362408638,10.0610876083,0.0176229632042,-0.840085732563,1.19971039965e-11,0.542167310996
1423459721188465418,0,1423459721188325634,15.0906667709,-2.87230324745,10.0605392456,0.0176408688359,-0.840063311519,1.19973208263e-11,0.542201468448
1423459721208484017,0,1423459721208324747,15.0907926559,-2.87156820297,10.0609331131,0.0176441718771,-0.840047655885,1.19972504213e-11,0.542225616363
1423459721228493809,0,1423459721228331562,15.0913448334,-2.87177968025,10.0598573685,0.0176244442634,-0.840042775171,1.1997241683e-11,0.54223381935
1423459721228577891,0,1423459721228390183,15.0915021896,-2.87109446526,10.0607948303,0.0176634398432,-0.84003853017,1.19975849346e-11,0.542239126882
1423459721248474112,0,1423459721248333742,15.0917482376,-2.87261819839,10.0595560074,0.0176459572811,-0.840049710096,1.19979875746e-11,0.542222375745
1423459721268491927,0,1423459721268327098,15.0905752182,-2.87359499931,10.0607719421,0.0176544869118,-0.840077800119,1.19977665872e-11,0.542178576521
1423459721288465875,0,1423459721288329621,15.0910329819,-2.87565660477,10.0589704514,0.0175646005788,-0.840095404106,1.19978352681e-11,0.542154218656
1423459721308460588,0,1423459721308319758,15.090473175,-2.87449669838,10.0600118637,0.0175901678914,-0.840085137424,1.19976615488e-11,0.542169298164
1423459721328500365,0,1423459721328331534,15.0892648697,-2.87239480019,10.0626163483,0.0176621032669,-0.840060930894,1.1997008156e-11,0.542204465579
1423459721328719877,0,1423459721328390971,15.0884542465,-2.87167239189,10.0639781952,0.0177080559633,-0.840064650289,1.19964937488e-11,0.542197204059
1423459721348456675,0,1423459721348326238,15.0884494781,-2.87240505219,10.0635528564,0.0176989301906,-0.840077725534,1.19965354715e-11,0.542177243096
1423459721368487687,0,1423459721368324596,15.088467598,-2.87201452255,10.0640516281,0.017715665324,-0.840072046407,1.19965128413e-11,0.542185495976
1423459721388508819,0,1423459721388343632,15.0887651443,-2.87313437462,10.0629453659,0.0176682177283,-0.840093236052,1.19964467672e-11,0.542154211292
1423459721408507921,0,1423459721408325919,15.0893201828,-2.87362241745,10.0617370605,0.0176509872514,-0.840090159944,1.19968344239e-11,0.542159539079
1423459721428500317,0,1423459721428329724,15.0895900726,-2.87405586243,10.0611124039,0.0176333076964,-0.840093553029,1.19967556545e-11,0.542154856678
1423459721428648214,0,1423459721428383372,15.0896015167,-2.87560582161,10.0602607727,0.0175961279573,-0.840105707335,1.19971072984e-11,0.542137230583
1423459721448499007,0,1423459721448327092,15.0895795822,-2.87581038475,10.0600223541,0.0175986527382,-0.840107001651,1.19973454848e-11,0.542135142928
1423459721468482953,0,1423459721468322770,15.0891752243,-2.87444782257,10.0616359711,0.0176353996569,-0.840094964576,1.19971159304e-11,0.542152601371
1423459721488469436,0,1423459721488327367,15.0892467499,-2.8746368885,10.0613288879,0.0176333766836,-0.840110477336,1.19971984632e-11,0.542128628554
1423459721508487677,0,1423459721508334817,15.0900297165,-2.87366628647,10.061085701,0.0176374695019,-0.840093970227,1.1997377696e-11,0.542154074832
1423459721528458659,0,1423459721528319194,15.0903263092,-2.87366342545,10.0606985092,0.0176262996981,-0.84009120907,1.19973517702e-11,0.542158716616
1423459721528654417,0,1423459721528363371,15.0903730392,-2.8738527298,10.0608110428,0.0176261867331,-0.840093783613,1.19974367697e-11,0.542154730936
1423459721548461503,0,1423459721548321441,15.0905017853,-2.87233328819,10.0609502792,0.0176457274585,-0.840067426405,1.19973982086e-11,0.542194934867
1423459721568460881,0,1423459721568322038,15.090634346,-2.87202954292,10.0606365204,0.017640702644,-0.8400596413,1.19974124414e-11,0.542207160289
1423459721588469363,0,1423459721588320181,15.091553688,-2.87059307098,10.0587930679,0.0176510679278,-0.840011009834,1.19977908295e-11,0.54228216194
1423459721608484269,0,1423459721608321675,15.0901908875,-2.87073135376,10.060710907,0.017657469285,-0.840042392447,1.19972651335e-11,0.542233337844
1423459721628525637,0,1423459721628339849,15.0890665054,-2.87394952774,10.0611257553,0.0176151603339,-0.840105677708,1.19973343458e-11,0.542136658426
1423459721628542243,0,1423459721628396753,15.0893106461,-2.87374663353,10.0604658127,0.0176287517947,-0.84008725949,1.19976052632e-11,0.542164756833
1423459721648468449,0,1423459721648324891,15.0887355804,-2.87287783623,10.0626916885,0.0176815228378,-0.840081046592,1.19969055298e-11,0.542172665215
1423459721668525540,0,1423459721668327831,15.0889911652,-2.87481331825,10.0620965958,0.0176485869013,-0.840110746893,1.19971162653e-11,0.542127715889
1423459721688500306,0,1423459721688330716,15.0894947052,-2.87466478348,10.0614995956,0.0176434866339,-0.84009564656,1.19973979145e-11,0.542151281481
1423459721708457286,0,1423459721708322838,15.0890665054,-2.87235975266,10.0625476837,0.0176808989971,-0.840077456151,1.19968491708e-11,0.542178248806
1423459721728499625,0,1423459721728329030,15.0895824432,-2.87205862999,10.0621013641,0.0176955561493,-0.840077048697,1.1997204131e-11,0.542178401954
1423459721728675033,0,1423459721728382996,15.0899372101,-2.87384724617,10.0614547729,0.0176691822293,-0.840089255872,1.19976836453e-11,0.542160347284
1423459721748585366,0,1423459721748333884,15.08867836,-2.87520480156,10.0633220673,0.0176845009067,-0.84013109598,1.19970784689e-11,0.542095010119
1423459721768455694,0,1423459721768316691,15.088722229,-2.87764358521,10.0626001358,0.0176269873052,-0.840145536673,1.19971899169e-11,0.542074502746
1423459721788473881,0,1423459721788327922,15.0900363922,-2.87545800209,10.0613460541,0.0176365676989,-0.840114277753,1.19973246926e-11,0.542122635383
1423459721808434716,0,1423459721808323916,15.0892658234,-2.87497615814,10.062497139,0.017640528934,-0.840122350559,1.19969676213e-11,0.542109996061
1423459721828486655,0,1423459721828323641,15.090212822,-2.87482142448,10.0613441467,0.0176160927835,-0.840095992187,1.19971948717e-11,0.542151636709
1423459721828626495,0,1423459721828374946,15.0909204483,-2.87332367897,10.0608358383,0.0176206951078,-0.84007087931,1.19972714126e-11,0.542190399066
1423459721848462377,0,1423459721848318406,15.0923156738,-2.87258481979,10.058303833,0.0176128611241,-0.840027686505,1.19978550637e-11,0.542257570743
1423459721868518964,0,1423459721868323130,15.0910072327,-2.87552165985,10.0600423813,0.0175586612626,-0.840100620256,1.199746273e-11,0.542146328273
1423459721888504000,0,1423459721888340334,15.0894832611,-2.87539672852,10.0622901917,0.0176321157602,-0.840103100973,1.19972709801e-11,0.542140100186
1423459721908470982,0,1423459721908327027,15.0896272659,-2.87552046776,10.0619306564,0.0176266495982,-0.840109726687,1.19974430651e-11,0.54213001056
1423459721928466193,0,1423459721928323477,15.0905017853,-2.8754529953,10.0614337921,0.0176086596729,-0.840096779348,1.19975204922e-11,0.542150658428
1423459721928516065,0,1423459721928369393,15.0898752213,-2.87590527534,10.0615940094,0.017597287218,-0.840113335646,1.19973761301e-11,0.542125371803
1423459721948488216,0,1423459721948325853,15.0914716721,-2.87367630005,10.0598945618,0.0176054409656,-0.840065272419,1.19977305052e-11,0.542199581818
1423459721968472829,0,1423459721968327318,15.0907373428,-2.87458205223,10.0607910156,0.0176188200037,-0.840096120354,1.19977387779e-11,0.542151349484
1423459721988464564,0,1423459721988325292,15.0911521912,-2.87268304825,10.0602645874,0.0176086694346,-0.840054022198,1.19973343441e-11,0.542216907288
1423459722008478023,0,1423459722008335795,15.0912876129,-2.87161540985,10.0605220795,0.0176342879249,-0.840050354808,1.19973870125e-11,0.542221756549
1423459722028803601,0,1423459722028335253,15.0914821625,-2.87150359154,10.0604152679,0.0176186147201,-0.840045031991,1.19974332221e-11,0.54223051246
1423459722029001540,0,1423459722028409502,15.0904684067,-2.8745880127,10.0611782074,0.0175863286754,-0.840094631531,1.19973892063e-11,0.542154711421
1423459722048453922,0,1423459722048322730,15.0905761719,-2.8755941391,10.0608778,0.0175772707252,-0.840101367326,1.1997492094e-11,0.542144567593
1423459722068475303,0,1423459722068327992,15.08897686,-2.87650585175,10.0620450974,0.0176045655313,-0.840133029978,1.1997135222e-11,0.542094614631
1423459722088501882,0,1423459722088331183,15.0903625488,-2.87675905228,10.0601425171,0.0175733600577,-0.840102769833,1.19975341836e-11,0.542142521054
1423459722108481117,0,1423459722108323369,15.0906610489,-2.87662506104,10.0587873459,0.0175431291102,-0.840093833692,1.19979420139e-11,0.542157347284
1423459722128495147,0,1423459722128341072,15.0914525986,-2.87683439255,10.058298111,0.0175357117268,-0.84009254493,1.19982764692e-11,0.542159584225
1423459722128651835,0,1423459722128398065,15.089972496,-2.87680053711,10.0604581833,0.0175604259666,-0.840108226913,1.19978080439e-11,0.542134483789
1423459722148482159,0,1423459722148330643,15.0904254913,-2.87306523323,10.0613012314,0.0176210339196,-0.840062634855,1.19973761397e-11,0.542203161818
1423459722168485027,0,1423459722168323548,15.0908517838,-2.87347197533,10.0608558655,0.0176212561161,-0.840072648828,1.199754045e-11,0.542187639129
1423459722188471402,0,1423459722188327589,15.0909452438,-2.87254095078,10.0609931946,0.0176496034945,-0.840057712383,1.1997656663e-11,0.542209859152
1423459722208472491,0,1423459722208325661,15.0908737183,-2.87215089798,10.0604991913,0.0176426408139,-0.840044824637,1.19974338016e-11,0.542230052493
1423459722228496504,0,1423459722228328684,15.0905437469,-2.87518405914,10.0606937408,0.0175921224612,-0.840095056792,1.19973183569e-11,0.542153864489
1423459722228582523,0,1423459722228380874,15.0908308029,-2.87338733673,10.060631752,0.0176236024723,-0.840061377407,1.19975364399e-11,0.542205026558
1423459722248506240,0,1423459722248335972,15.0910930634,-2.87303781509,10.0607805252,0.0176222810608,-0.84005354098,1.19975867768e-11,0.542217210625
1423459722268469986,0,1423459722268323237,15.0904464722,-2.87315225601,10.061457634,0.0176275306063,-0.840076623388,1.19973708815e-11,0.542181276883
1423459722288510827,0,1423459722288329566,15.0909814835,-2.87391781807,10.0601644516,0.0175838466715,-0.840072935294,1.19972258445e-11,0.542188409801
1423459722308474598,0,1423459722308327076,15.0898475647,-2.87589883804,10.0610713959,0.0176031863341,-0.840111649881,1.19973641543e-11,0.542127792651
1423459722328474701,0,1423459722328329456,15.0910997391,-2.87463140488,10.0600919724,0.0175931309042,-0.840081328795,1.19974562965e-11,0.542175103407
1423459722328716217,0,1423459722328404637,15.0903320312,-2.87425017357,10.0614433289,0.0176248905013,-0.840096964751,1.19973753359e-11,0.542149843726
1423459722348493409,0,1423459722348326666,15.0907745361,-2.87493920326,10.0606451035,0.0176258585672,-0.840097904014,1.19978594012e-11,0.5421483568
1423459722368471554,0,1423459722368325700,15.0909605026,-2.87468862534,10.06021595,0.017612168745,-0.840084958172,1.19978663836e-11,0.54216886167
1423459722388484277,0,1423459722388339645,15.0914669037,-2.874147892,10.0596389771,0.0176032614973,-0.840070460138,1.19979547924e-11,0.542191614826
1423459722408469377,0,1423459722408319431,15.0911445618,-2.87575769424,10.0596837997,0.0175780932731,-0.840089482255,1.19979138511e-11,0.54216295746
1423459722428488452,0,1423459722428323607,15.0912714005,-2.87413930893,10.0597753525,0.0175897780596,-0.840070894179,1.19979087991e-11,0.542191379922
1423459722428707066,0,1423459722428376864,15.0910139084,-2.8733716011,10.05996418,0.0176016424163,-0.840068158941,1.1997685964e-11,0.542195232843
1423459722448457294,0,1423459722448317611,15.0911693573,-2.8727710247,10.0602769852,0.0176192906874,-0.840058269015,1.19976315354e-11,0.542209982622
1423459722468473508,0,1423459722468327176,15.0899620056,-2.87331819534,10.0618095398,0.0176330387447,-0.840079468751,1.1997222837e-11,0.54217668903
1423459722488467197,0,1423459722488330088,15.089594841,-2.87283992767,10.0622472763,0.017664601464,-0.840078577499,1.19972662069e-11,0.542177042563
1423459722508495225,0,1423459722508334053,15.0907011032,-2.87077069283,10.0616817474,0.0176760008041,-0.840041910431,1.19972587709e-11,0.542233480814
1423459722528481890,0,1423459722528329788,15.0909528732,-2.87292957306,10.0607566833,0.0176454675466,-0.840064794448,1.19977397107e-11,0.542199021213
1423459722528591207,0,1423459722528386503,15.0900497437,-2.87559819221,10.0606489182,0.0175811350125,-0.840102872869,1.19975432955e-11,0.542142109311
1423459722548478315,0,1423459722548327724,15.0899295807,-2.8789305687,10.0599403381,0.0175403964732,-0.840118147278,1.19977787345e-11,0.542119759007
1423459722568462808,0,1423459722568322955,15.0923204422,-2.87256073952,10.0591745377,0.0176060605035,-0.840042568846,1.1997950817e-11,0.542234736217
1423459722588486290,0,1423459722588329466,15.0925531387,-2.87212824821,10.0590162277,0.017613970754,-0.840042955929,1.19982704967e-11,0.542233879639
1423459722608496351,0,1423459722608326685,15.093621254,-2.87101602554,10.0577173233,0.0175982216215,-0.840014155544,1.1998241314e-11,0.542279006676
1423459722628490181,0,1423459722628333993,15.0925397873,-2.87218236923,10.0580053329,0.0175893410649,-0.840029282726,1.19981584081e-11,0.542255861419
1423459722628622596,0,1423459722628382976,15.0922307968,-2.87442493439,10.0579805374,0.0175399200859,-0.840055073296,1.19981784877e-11,0.542217507126
1423459722648481826,0,1423459722648329920,15.0907430649,-2.87378978729,10.0607147217,0.0175951695469,-0.840077942831,1.19976360242e-11,0.542180283649
1423459722668486301,0,1423459722668323854,15.0907745361,-2.87386894226,10.0603933334,0.0176081899422,-0.840085218577,1.19977348699e-11,0.542168587411
1423459722688463565,0,1423459722688328319,15.0891389847,-2.87854504585,10.0613746643,0.0175752466278,-0.840180787869,1.19975171852e-11,0.542021544223
1423459722708491951,0,1423459722708327355,15.0907840729,-2.87520837784,10.059928894,0.0176007467063,-0.840095698783,1.1997916111e-11,0.542152589777
1423459722728482736,0,1423459722728327280,15.0914134979,-2.87188029289,10.0599966049,0.0176474320721,-0.84002799124,1.19980727258e-11,0.542255974679
1423459722728532113,0,1423459722728388182,15.0907669067,-2.87443804741,10.0593738556,0.0175844038148,-0.840086708569,1.19980344446e-11,0.542167050666
1423459722748471869,0,1423459722748336726,15.0903520584,-2.87270569801,10.0608615875,0.0176508330177,-0.840073174981,1.19974421997e-11,0.542185861832
1423459722768476677,0,1423459722768328115,15.0906572342,-2.87051510811,10.0612449646,0.0176933924901,-0.84003178014,1.19972664021e-11,0.542248607391
1423459722788440248,0,1423459722788324033,15.0900650024,-2.87215566635,10.0618228912,0.017675927853,-0.840055579258,1.19971546016e-11,0.542212306512
1423459722808464327,0,1423459722808327096,15.0899782181,-2.87244844437,10.0622005463,0.0176626242841,-0.840057629422,1.19971385058e-11,0.542209563686
1423459722828493454,0,1423459722828326647,15.0903301239,-2.87298226357,10.061841011,0.0176451003165,-0.840060487971,1.1997223876e-11,0.542205705415
1423459722828651270,0,1423459722828378674,15.0903863907,-2.8724386692,10.0622224808,0.0176277610854,-0.840057002898,1.19970343364e-11,0.542211668927
1423459722848461068,0,1423459722848323582,15.0901317596,-2.87260246277,10.0622682571,0.0176263841911,-0.840068191265,1.1996793015e-11,0.542194378988
1423459722868469725,0,1423459722868327065,15.0897283554,-2.87286400795,10.0620746613,0.0176195527631,-0.840080259466,1.1996769911e-11,0.542175902283
1423459722888518783,0,1423459722888351089,15.0900411606,-2.87270522118,10.0623254776,0.0176432701432,-0.840070053894,1.19969202147e-11,0.542190943827
1423459722908466559,0,1423459722908323266,15.0907382965,-2.87344694138,10.0609483719,0.0176080267642,-0.840072615137,1.19972738254e-11,0.542188121127
1423459722928482605,0,1423459722928325983,15.090631485,-2.87351727486,10.0608100891,0.0175955303439,-0.840078777599,1.19970953868e-11,0.542178978512
1423459722928681118,0,1423459722928378988,15.090423584,-2.87236905098,10.0611467361,0.017624380704,-0.840069032888,1.19968588203e-11,0.542193140115
1423459722948452776,0,1423459722948324736,15.0907258987,-2.8731071949,10.0605316162,0.017631750446,-0.840065079862,1.19972245147e-11,0.542199025241
1423459722968479302,0,1423459722968322030,15.0914878845,-2.87295746803,10.0594615936,0.0175954693022,-0.840048909106,1.19974695152e-11,0.542225257406
1423459722988500728,0,1423459722988331309,15.0918931961,-2.87198472023,10.0592412949,0.0176270352518,-0.840026337797,1.19977166564e-11,0.542259199494
1423459723008489020,0,1423459723008336977,15.0906209946,-2.87242531776,10.06092453,0.0176312356623,-0.840054373911,1.19972282551e-11,0.542215629064
1423459723028480034,0,1423459723028337031,15.0898952484,-2.87281036377,10.0621061325,0.0176583802195,-0.840071131195,1.1997316776e-11,0.542188782751
1423459723028626800,0,1423459723028391432,15.0900802612,-2.87177801132,10.0619878769,0.0176654280344,-0.840049567725,1.19971201182e-11,0.542221962315
1423459723048462037,0,1423459723048323928,15.0905561447,-2.87116885185,10.0612897873,0.0176749035861,-0.840039098404,1.19971935833e-11,0.542237873019
1423459723068466958,0,1423459723068322452,15.0892267227,-2.87426757812,10.0626049042,0.0176331845815,-0.840094448273,1.19969974419e-11,0.542153473457
1423459723088462538,0,1423459723088329070,15.0901536942,-2.87369561195,10.0611410141,0.0176481889906,-0.840075808949,1.19973450306e-11,0.542181866761
1423459723108473473,0,1423459723108328345,15.0902194977,-2.87153244019,10.0619249344,0.0176995979046,-0.840053737989,1.1997252537e-11,0.542214387051
1423459723128528075,0,1423459723128336478,15.0898256302,-2.87069439888,10.0632781982,0.0177219646076,-0.840057580599,1.19968437412e-11,0.542207703051
1423459723128623283,0,1423459723128384805,15.0894136429,-2.87093019485,10.0638999939,0.0177113427007,-0.840063602087,1.19967257431e-11,0.542198720755
1423459723148462821,0,1423459723148327442,15.0891199112,-2.87065672874,10.0635709763,0.0177177758985,-0.840065905375,1.19968573461e-11,0.542194941921
1423459723168472675,0,1423459723168327680,15.0887212753,-2.87121462822,10.0635204315,0.0177216136765,-0.840072750355,1.19969860076e-11,0.542184210873
1423459723188453126,0,1423459723188325821,15.0888881683,-2.87256073952,10.0623989105,0.0176915759479,-0.840085687511,1.19972638856e-11,0.542165146223
1423459723208480085,0,1423459723208329405,15.0889720917,-2.87387132645,10.0627202988,0.0176834183408,-0.840108632305,1.19974400475e-11,0.542129857731
1423459723228480820,0,1423459723228331368,15.0890579224,-2.87402415276,10.0615873337,0.0176503397725,-0.840096823279,1.19976575825e-11,0.54214923501
1423459723228568035,0,1423459723228392398,15.0890274048,-2.87407612801,10.0621099472,0.0176709375896,-0.84009741269,1.19974334654e-11,0.542147650697
1423459723248474426,0,1423459723248332644,15.0905179977,-2.87215685844,10.0606117249,0.0176549358045,-0.840057222646,1.19974133614e-11,0.542210444313
1423459723268471277,0,1423459723268326401,15.0916690826,-2.87178945541,10.0588569641,0.0176167854346,-0.840039744321,1.19977497311e-11,0.542238763676
1423459723288455233,0,1423459723288324816,15.0912370682,-2.87287521362,10.0597314835,0.0176233893405,-0.840058249198,1.199770099e-11,0.542209880122
1423459723308410047,0,1423459723308323576,15.0911693573,-2.87448573112,10.0593528748,0.0176001636712,-0.840071699351,1.19976847057e-11,0.542189795355
1423459723328477395,0,1423459723328331807,15.0910224915,-2.87531757355,10.0592660904,0.0175767530378,-0.840089860289,1.19977434731e-11,0.542162415142
1423459723328590494,0,1423459723328389833,15.0901565552,-2.87437295914,10.0612239838,0.0176363509249,-0.840098797947,1.19976576279e-11,0.542146630363
1423459723348477045,0,1423459723348328351,15.089761734,-2.87516546249,10.0614347458,0.017647019226,-0.840110362812,1.1997530743e-11,0.542128362114
1423459723368453109,0,1423459723368323026,15.0887746811,-2.87631988525,10.0625543594,0.017624621389,-0.840155003561,1.19969465169e-11,0.542059906941
1423459723388478957,0,1423459723388342882,15.0891389847,-2.87371182442,10.0634841919,0.0176894537347,-0.840100324041,1.19969995053e-11,0.542142535477
1423459723408473567,0,1423459723408323075,15.0897750854,-2.87419176102,10.0621948242,0.0176441404984,-0.840095869676,1.1997278048e-11,0.542150914469
1423459723428469766,0,1423459723428320967,15.0897579193,-2.87593650818,10.0617837906,0.0175946976902,-0.840123456502,1.19971421862e-11,0.542109771586
1423459723428541886,0,1423459723428369347,15.0890855789,-2.87563276291,10.0624456406,0.0176286709038,-0.840121951839,1.19969646102e-11,0.542110999705
1423459723448471382,0,1423459723448324077,15.0892953873,-2.87308645248,10.0628995895,0.0176653753718,-0.840097870616,1.19968116107e-11,0.542147122376
1423459723468469092,0,1423459723468326567,15.0887212753,-2.87298178673,10.0637102127,0.0176730822998,-0.840099083189,1.19967211588e-11,0.542144992218
1423459723488461942,0,1423459723488327265,15.0892419815,-2.8721780777,10.0623817444,0.0176377742073,-0.840085665979,1.19967028208e-11,0.542166932538
1423459723508451929,0,1423459723508329503,15.0891742706,-2.87310433388,10.0626497269,0.0176585493799,-0.840087583197,1.19969083052e-11,0.542163285544
1423459723528492573,0,1423459723528329210,15.0892076492,-2.87455630302,10.0623617172,0.017630401781,-0.840108279662,1.19969577663e-11,0.542132130921
1423459723528880858,0,1423459723528383204,15.0902681351,-2.8751013279,10.061047554,0.0175773414341,-0.840097348475,1.1997072759e-11,0.542150792818
1423459723548461160,0,1423459723548326422,15.0902881622,-2.87341475487,10.0618104935,0.0176200021208,-0.840077911545,1.19969872934e-11,0.542179525674
1423459723568468812,0,1423459723568326273,15.0906248093,-2.87336802483,10.0608406067,0.0176072110681,-0.840078750647,1.19971892413e-11,0.542178641067
1423459723588453674,0,1423459723588325797,15.0912103653,-2.87327122688,10.060333252,0.0176072245356,-0.840069327955,1.1997301327e-11,0.542193240343
1423459723608471943,0,1423459723608326599,15.0912284851,-2.87495017052,10.0596923828,0.0175644789111,-0.840084547196,1.1997536492e-11,0.54217104556
1423459723628488605,0,1423459723628342172,15.0903511047,-2.87437748909,10.0615196228,0.01759726553,-0.840092712638,1.1997379256e-11,0.54215732995
1423459723628766827,0,1423459723628400870,15.0894861221,-2.87430024147,10.0618238449,0.0176138520262,-0.840113195754,1.19972200447e-11,0.542125050644
1423459723648514713,0,1423459723648324622,15.0903625488,-2.87372970581,10.0606889725,0.0175942812243,-0.840097025303,1.19973106151e-11,0.542150744116
1423459723668482298,0,1423459723668330231,15.0900468826,-2.87228655815,10.061709404,0.0176352197444,-0.840080879985,1.19972503959e-11,0.542174431441
1423459723688481659,0,1423459723688331062,15.0906352997,-2.87095212936,10.0615510941,0.0176480532448,-0.840060608533,1.19973485129e-11,0.542205422517
1423459723708513264,0,1423459723708326100,15.0910415649,-2.87149882317,10.0605249405,0.017628295873,-0.840058144149,1.19973841815e-11,0.542209883379
1423459723728463738,0,1423459723728326065,15.0912361145,-2.8716673851,10.0610494614,0.017638252569,-0.840050013344,1.19974517441e-11,0.542222156617
1423459723728642939,0,1423459723728381950,15.0908107758,-2.87436056137,10.0608310699,0.0175894621968,-0.840095108807,1.19976573974e-11,0.542153870205
1423459723748481249,0,1423459723748338268,15.0904579163,-2.87511563301,10.0608844757,0.0175834452308,-0.84009223715,1.19975002135e-11,0.542158515136
1423459723768478743,0,1423459723768323578,15.0890607834,-2.87536096573,10.0624723434,0.0176054000112,-0.840115695264,1.1997283689e-11,0.542121451763
1423459723788472718,0,1423459723788329642,15.0902471542,-2.87396025658,10.0605115891,0.0175811858516,-0.840070450736,1.19974523017e-11,0.542192345671
1423459723808477271,0,1423459723808327280,15.0911149979,-2.87349414825,10.0602312088,0.0175717457825,-0.840048534813,1.19972573047e-11,0.542226606603
1423459723828471302,0,1423459723828329930,15.0911197662,-2.87417006493,10.060051918,0.0175696278417,-0.840065350543,1.19976722845e-11,0.542200622458
1423459723828536363,0,1423459723828383663,15.0912237167,-2.87571144104,10.0593910217,0.0175584911106,-0.840062112307,1.19981067772e-11,0.542206000387
1423459723848478758,0,1423459723848329291,15.0904769897,-2.87417316437,10.0611152649,0.0176082010441,-0.840065521173,1.19978306005e-11,0.54219910678
1423459723868470577,0,1423459723868327069,15.0908403397,-2.8744263649,10.06067276,0.0175904063517,-0.840067263355,1.19977175779e-11,0.542196985092
1423459723888569083,0,1423459723888349609,15.0903253555,-2.87323665619,10.0622625351,0.017653831241,-0.840068943418,1.19974496564e-11,0.542192320627
1423459723908480998,0,1423459723908327387,15.0896139145,-2.87419915199,10.0626306534,0.0176427109979,-0.840104392094,1.19974156772e-11,0.542137754757
1423459723928465011,0,1423459723928325720,15.0894079208,-2.87232732773,10.0632724762,0.0176665447981,-0.840080895118,1.199698232e-11,0.542173388182
1423459723928747257,0,1423459723928381434,15.0887966156,-2.87300086021,10.0642938614,0.017687775247,-0.840092398084,1.1996828907e-11,0.54215487205
1423459723948463219,0,1423459723948327079,15.0895195007,-2.87172889709,10.0636224747,0.0177017565934,-0.840062833995,1.19967340778e-11,0.54220022386
1423459723968472751,0,1423459723968327253,15.089756012,-2.87242722511,10.0626859665,0.0176721358633,-0.840073787055,1.19969314242e-11,0.542184219539
1423459723988481923,0,1423459723988328502,15.0887775421,-2.87424206734,10.0631408691,0.0176530937275,-0.840099245008,1.19969010816e-11,0.542145392693
1423459724008483563,0,1423459724008336771,15.0895338058,-2.87390065193,10.061955452,0.0176418893028,-0.840092924372,1.19972618243e-11,0.542155551628
1423459724028482753,0,1423459724028324740,15.0904064178,-2.8742377758,10.0605401993,0.0176134423363,-0.840083442451,1.19974857692e-11,0.542171168883
1423459724028537740,0,1423459724028376845,15.0906677246,-2.87297940254,10.06092453,0.017617083631,-0.840066559422,1.19974502564e-11,0.542197209607
1423459724048462971,0,1423459724048323180,15.0906972885,-2.87308883667,10.0609111786,0.0176154050879,-0.840081454277,1.19973518198e-11,0.54217418574
1423459724068471929,0,1423459724068326223,15.0905885696,-2.87399077415,10.0608472824,0.0176221166191,-0.840084963728,1.19977873381e-11,0.542168529816
1423459724088468855,0,1423459724088324761,15.0901212692,-2.87451720238,10.0612382889,0.0176292403332,-0.840090239185,1.19976661918e-11,0.542160123866
1423459724108465280,0,1423459724108323811,15.0910520554,-2.87232708931,10.0603542328,0.0176271911139,-0.840046871543,1.19976976019e-11,0.542227383801
1423459724128499572,0,1423459724128342165,15.0907516479,-2.87286400795,10.0604429245,0.0176249580769,-0.840061150869,1.19977792006e-11,0.542205333479
1423459724128559818,0,1423459724128398954,15.0906858444,-2.8720946312,10.0609951019,0.0176436752841,-0.840060033944,1.19976232043e-11,0.542206455229
1423459724148505009,0,1423459724148329793,15.0908107758,-2.87140369415,10.0610961914,0.0176319043889,-0.84005038274,1.19973350663e-11,0.542221790788
1423459724168453636,0,1423459724168326186,15.0899381638,-2.87317347527,10.0611391068,0.0176300561775,-0.840073211106,1.19973548916e-11,0.54218648185
1423459724188487178,0,1423459724188330447,15.0901737213,-2.87338399887,10.060962677,0.0176266359206,-0.840074423042,1.19974195785e-11,0.542184715255
1423459724208544237,0,1423459724208327606,15.090010643,-2.87382984161,10.0611419678,0.0176256351364,-0.840070548065,1.1997493971e-11,0.542190751728
1423459724228469884,0,1423459724228326815,15.090303421,-2.87300348282,10.0610656738,0.0176310789202,-0.840061501119,1.19975716545e-11,0.542204591823
1423459724228770890,0,1423459724228374484,15.0908784866,-2.8737347126,10.0600509644,0.0176034570955,-0.84005962531,1.19978650135e-11,0.542208395565
1423459724248509416,0,1423459724248336036,15.0917778015,-2.87230801582,10.0596017838,0.0176112422365,-0.840031276708,1.19977626188e-11,0.542252061591
1423459724268480153,0,1423459724268325726,15.0905790329,-2.8740568161,10.0609111786,0.0176166574356,-0.840079268382,1.1997549735e-11,0.542177532009
1423459724288488100,0,1423459724288327616,15.0906066895,-2.87504768372,10.0604515076,0.0175792007964,-0.840088971794,1.19975707796e-11,0.542163712517
1423459724308471129,0,1423459724308327700,15.0906515121,-2.87329912186,10.0612030029,0.0176255312691,-0.840061320705,1.19975102882e-11,0.542205051714
1423459724328508723,0,1423459724328329486,15.0905036926,-2.87291097641,10.0612688065,0.0176337045298,-0.840072095705,1.19972072934e-11,0.542188091424
1423459724328752706,0,1423459724328382497,15.0903730392,-2.87284040451,10.0611963272,0.0176276864017,-0.840072875822,1.19970985299e-11,0.542187078397
1423459724348497726,0,1423459724348325646,15.0914964676,-2.87498664856,10.0587396622,0.0175737770515,-0.840072780896,1.19977764356e-11,0.542188975504
1423459724368472310,0,1423459724368328061,15.0911769867,-2.87311720848,10.0604171753,0.0176110467378,-0.840053154064,1.19973254884e-11,0.542218175073
1423459724388459602,0,1423459724388339882,15.0914020538,-2.87325310707,10.0600376129,0.0176042206482,-0.840058707227,1.19975941354e-11,0.542209793187
1423459724408460467,0,1423459724408328170,15.0902423859,-2.87499141693,10.0609807968,0.0175924380897,-0.840088035365,1.19973689929e-11,0.542164734152
1423459724428473633,0,1423459724428330856,15.0906629562,-2.87380886078,10.0605239868,0.0176194201291,-0.840074401786,1.19976216277e-11,0.54218498273
1423459724428625298,0,1423459724428389047,15.0915374756,-2.87184000015,10.0596199036,0.0176133815292,-0.840042489154,1.19977198035e-11,0.542234621919
1423459724448465853,0,1423459724448323915,15.0921792984,-2.8688659668,10.0589971542,0.0176329071244,-0.840009909302,1.19976920572e-11,0.542284457514
