%time,field.header.seq,field.header.stamp,field.point.x,field.point.y,field.point.z,field.time_ref
1423459718072900639,940,1423459718026971101,0.394,-0.082,0.257,1423496194299999952
1423459718286529760,941,1423459718255706071,0.394,-0.082,0.257,1423496194599999904
1423459718500124774,942,1423459718486490964,0.394,-0.082,0.257,1423496194799999952
1423459718763735261,943,1423459718739253997,0.394,-0.082,0.257,1423496195099999904
1423459718977314268,944,1423459718959934949,0.394,-0.082,0.257,1423496195299999952
1423459719691629721,945,1423459719647264003,0.394,-0.082,0.257,1423496196000000000
1423459719905313831,946,1423459719889023065,0.394,-0.082,0.257,1423496196200000047
1423459720118964354,947,1423459720115757942,0.394,-0.082,0.257,1423496196400000095
1423459720382704835,948,1423459720349523067,0.394,-0.081,0.257,1423496196700000047
1423459720596342875,949,1423459720577250003,0.394,-0.081,0.257,1423496196900000095
1423459720860005647,950,1423459720827003002,0.394,-0.081,0.257,1423496197099999904
1423459721073736601,951,1423459721067735910,0.394,-0.082,0.257,1423496197400000095
1423459721337458984,952,1423459721296519994,0.394,-0.082,0.257,1423496197599999904
1423459721551118077,953,1423459721529237031,0.394,-0.082,0.257,1423496197799999952
1423459721814798916,954,1423459721768995046,0.394,-0.082,0.257,1423496198099999904
1423459722028421576,955,1423459722020771980,0.394,-0.081,0.257,1423496198299999952
1423459722242091743,956,1423459722226552963,0.394,-0.081,0.257,1423496198500000000
1423459722506008226,957,1423459722457307100,0.394,-0.081,0.257,1423496198799999952
1423459722719702095,958,1423459722701067924,0.394,-0.082,0.257,1423496199000000000
1423459722933353657,959,1423459722915853023,0.394,-0.082,0.257,1423496199200000047
1423459723197129644,960,1423459723149652957,0.394,-0.082,0.257,1423496199500000000
1423459723410851678,961,1423459723387392997,0.394,-0.081,0.257,1423496199700000047
1423459723624584739,962,1423459723618089914,0.394,-0.082,0.257,1423496199900000095
1423459723888391929,963,1423459723847929954,0.394,-0.081,0.257,1423496200200000047
1423459724102081389,964,1423459724076749086,0.394,-0.082,0.257,1423496200400000095
1423459724315726559,965,1423459724306487083,0.394,-0.082,0.257,1423496200599999904
1423459724579509595,966,1423459724540241003,0.394,-0.082,0.257,1423496200900000095
1423459724793210754,967,1423459724766974925,0.394,-0.081,0.257,1423496201099999904
1423459725006906851,968,1423459724996748924,0.394,-0.082,0.257,1423496201299999952
1423459725270795164,969,1423459725227519035,0.406,-0.086,0.25,1423496201500000000
1423459725484458566,970,1423459725456345081,0.41,-0.075,0.259,1423496201799999952
1423459725698157046,971,1423459725688079118,0.412,-0.079,0.252,1423496202000000000
1423459726162249788,972,1423459726152590990,0.44,-0.07,0.251,1423496202500000000
1423459726425979762,973,1423459726389288902,0.436,-0.065,0.257,1423496202700000047
1423459726639693528,974,1423459726627069950,0.463,-0.069,0.259,1423496202900000095
1423459726903401084,975,1423459726869820117,0.454,-0.065,0.254,1423496203200000047
1423459727117071102,976,1423459727106576919,0.472,-0.067,0.255,1423496203400000095
1423459727380837595,977,1423459727349325895,0.463,-0.061,0.247,1423496203700000047
1423459727594518565,978,1423459727588037967,0.482,-0.055,0.254,1423496203900000095
1423459727858285082,979,1423459727826797962,0.483,-0.059,0.245,1423496204099999904
1423459728322281938,980,1423459728307288885,0.498,-0.046,0.251,1423496204599999904
1423459728836329293,981,1423459728786803960,0.519,-0.042,0.252,1423496205099999904
1423459729050036982,982,1423459729028548002,0.518,-0.034,0.259,1423496205299999952
1423459729514059370,983,1423459729506004095,0.531,-0.032,0.255,1423496205799999952
1423459729777788303,984,1423459729753731966,0.55,-0.033,0.256,1423496206099999904
1423459729991460542,985,1423459729987524032,0.54,-0.028,0.249,1423496206299999952
1423459730255146969,986,1423459730227263927,0.567,-0.029,0.256,1423496206500000000
1423459730468836612,987,1423459730466968059,0.562,-0.027,0.247,1423496206799999952
1423459730782589629,988,1423459730740731000,0.575,-0.02,0.256,1423496207099999904
1423459730996391003,989,1423459730949532032,0.574,-0.021,0.251,1423496207299999952
1423459731460449809,990,1423459731430972099,0.599,-0.017,0.251,1423496207700000047
1423459732174881021,991,1423459732149337053,0.615,-0.001,0.256,1423496208500000000
1423459732388701305,992,1423459732387083053,0.637,-0.004,0.256,1423496208700000047
1423459732802639183,993,1423459732776649951,0.642,0.003,0.257,1423496209099999904
1423459733266744877,994,1423459733247009992,0.656,0.008,0.254,1423496209599999904
1423459733480442611,995,1423459733467767000,0.655,0.015,0.256,1423496209799999952
1423459733744260319,996,1423459733707484960,0.68,0.011,0.26,1423496210000000000
1423459733957873035,997,1423459733950275897,0.673,0.017,0.254,1423496210299999952
1423459734221683063,998,1423459734187091112,0.689,0.016,0.256,1423496210500000000
1423459734435428555,999,1423459734427788972,0.678,0.019,0.248,1423496210700000047
1423459734949496413,1000,1423459734907263994,0.703,0.022,0.246,1423496211200000047
1423459735163196943,1001,1423459735149064064,0.715,0.033,0.259,1423496211500000000
1423459735426934153,1002,1423459735389761924,0.716,0.028,0.255,1423496211700000047
1423459735890925168,1003,1423459735868246078,0.737,0.037,0.252,1423496212200000047
1423459736154653440,1004,1423459736107954978,0.739,0.041,0.251,1423496212400000095
1423459736368393111,1005,1423459736362685918,0.758,0.04,0.262,1423496212700000047
1423459736632091361,1006,1423459736588463068,0.75,0.05,0.258,1423496212900000095
1423459736845776759,1007,1423459736842212915,0.769,0.046,0.254,1423496213200000047
1423459737109543648,1008,1423459737067945003,0.761,0.053,0.255,1423496213400000095
1423459737573539165,1009,1423459737531408071,0.784,0.063,0.251,1423496213799999952
1423459737787190920,1010,1423459737760178089,0.797,0.065,0.254,1423496214099999904
1423459738000837877,1011,1423459737997955083,0.79,0.062,0.252,1423496214299999952
1423459738464836252,1012,1423459738457489013,0.811,0.066,0.247,1423496214799999952
1423459738728500485,1013,1423459738686279058,0.824,0.076,0.257,1423496215000000000
1423459738992186741,1014,1423459738950936079,0.822,0.071,0.253,1423496215299999952
1423459739205820923,1015,1423459739177740097,0.837,0.08,0.258,1423496215500000000
1423459739669858040,1016,1423459739638297080,0.845,0.088,0.26,1423496216000000000
1423459739883537935,1017,1423459739879059076,0.861,0.084,0.262,1423496216200000047
1423459740147257068,1018,1423459740115797042,0.855,0.095,0.256,1423496216400000095
1423459740360907677,1019,1423459740360534906,0.875,0.093,0.257,1423496216700000047
1423459740624643946,1020,1423459740598294019,0.866,0.101,0.248,1423496216900000095
1423459740888370508,1021,1423459740838041067,0.886,0.101,0.257,1423496217200000047
1423459741102051474,1022,1423459741078808069,0.888,0.1,0.248,1423496217400000095
1423459741365809639,1023,1423459741318594932,0.9,0.111,0.261,1423496217599999904
1423459741579451955,1024,1423459741559345006,0.902,0.109,0.256,1423496217900000095
1423459742043511278,1025,1423459742039906978,0.921,0.112,0.256,1423496218400000095
1423459742307297917,1026,1423459742278662919,0.928,0.123,0.261,1423496218599999904
1423459742520932094,1027,1423459742508373975,0.939,0.119,0.262,1423496218799999952
1423459742784734397,1028,1423459742761207103,0.935,0.125,0.257,1423496219099999904
1423459742998405850,1029,1423459742997912883,0.953,0.122,0.258,1423496219299999952
1423459743462398211,1030,1423459743458390951,0.97,0.129,0.26,1423496219799999952
1423459743726107313,1031,1423459743689184904,0.965,0.134,0.253,1423496220000000000
1423459744640652014,1032,1423459744617281913,0.996,0.145,0.248,1423496220900000095
1423459745104675684,1033,1423459745077852964,1.004,0.15,0.252,1423496221400000095
1423459745568660428,1034,1423459745540285110,1.025,0.154,0.251,1423496221900000095
1423459746032672460,1035,1423459745996861934,1.036,0.165,0.256,1423496222299999952
1423459746246319458,1036,1423459746228552103,1.046,0.169,0.258,1423496222500000000
1423459746459976782,1037,1423459746458327054,1.055,0.166,0.256,1423496222799999952
1423459746974067468,1038,1423459746941829919,1.076,0.171,0.261,1423496223299999952
1423459747187730619,1039,1423459747178534984,1.071,0.18,0.254,1423496223500000000
1423459747451453194,1040,1423459747426281929,1.086,0.187,0.254,1423496223700000047
1423459747665134583,1041,1423459747658075094,1.078,0.184,0.249,1423496224000000000
1423459748179279595,1042,1423459748139553070,1.102,0.188,0.248,1423496224500000000
1423459748393006139,1043,1423459748378334999,1.112,0.201,0.261,1423496224700000047
1423459748656744697,1044,1423459748618985891,1.117,0.197,0.258,1423496224900000095
1423459748870485161,1045,1423459748860682964,1.118,0.206,0.258,1423496225200000047
1423459749134225611,1046,1423459749098500967,1.128,0.205,0.25,1423496225400000095
1423459749347911953,1047,1423459749341198921,1.132,0.213,0.258,1423496225700000047
1423459749862032224,1048,1423459749818746089,1.147,0.214,0.255,1423496226099999904
1423459751025984304,1049,1423459750996577024,1.19,0.223,0.261,1423496227299999952
1423459751239660671,1050,1423459751228324890,1.187,0.233,0.251,1423496227500000000
1423459751503437557,1051,1423459751458065986,1.203,0.241,0.256,1423496227799999952
1423459751717253557,1052,1423459751690833091,1.204,0.233,0.249,1423496228000000000
1423459751930837652,1053,1423459751919568061,1.215,0.248,0.257,1423496228200000047
1423459752645176846,1054,1423459752611804962,1.232,0.251,0.251,1423496228900000095
1423459752858827610,1055,1423459752838538885,1.237,0.266,0.262,1423496229200000047
1423459753322830465,1056,1423459753303096055,1.247,0.269,0.257,1423496229599999904
1423459753586585826,1057,1423459753550918102,1.257,0.266,0.253,1423496229900000095
1423459753800337251,1058,1423459753778557062,1.26,0.28,0.259,1423496230099999904
1423459754014075743,1059,1423459754008414030,1.275,0.273,0.263,1423496230299999952
1423459754277815481,1060,1423459754241120100,1.273,0.282,0.255,1423496230599999904
1423459754491445416,1061,1423459754477899074,1.285,0.28,0.259,1423496230799999952
1423459754755074229,1062,1423459754739593029,1.285,0.29,0.258,1423496231099999904
1423459755219134768,1063,1423459755178257942,1.301,0.298,0.254,1423496231500000000
1423459755432969611,1064,1423459755409893989,1.311,0.306,0.252,1423496231700000047
1423459755646631225,1065,1423459755637706041,1.308,0.307,0.25,1423496232000000000
1423459756110684152,1066,1423459756108273983,1.326,0.309,0.25,1423496232400000095
1423459756875023317,1067,1423459756837500095,1.346,0.333,0.257,1423496233200000047
1423459757088608116,1068,1423459757078282117,1.357,0.325,0.258,1423496233400000095
1423459757502610406,1069,1423459757479898929,1.364,0.335,0.259,1423496233799999952
1423459757716211302,1070,1423459757708656072,1.369,0.345,0.258,1423496234000000000
1423459757979974220,1071,1423459757943434000,1.384,0.348,0.254,1423496234299999952
1423459758193562104,1072,1423459758179160118,1.379,0.352,0.254,1423496234500000000
1423459758457436210,1073,1423459758408005952,1.396,0.353,0.262,1423496234700000047
1423459758671150541,1074,1423459758639724016,1.392,0.359,0.256,1423496235000000000
1423459758934960652,1075,1423459758890494108,1.404,0.357,0.258,1423496235200000047
1423459759148674971,1076,1423459759119251966,1.404,0.366,0.249,1423496235400000095
1423459759612673576,1077,1423459759588701963,1.422,0.369,0.246,1423496235900000095
1423459759876450863,1078,1423459759829405069,1.432,0.383,0.259,1423496236099999904
1423459760090045331,1079,1423459760068264007,1.435,0.383,0.254,1423496236400000095
1423459760554122591,1080,1423459760550726890,1.451,0.386,0.253,1423496236900000095
1423459760817828688,1081,1423459760789515018,1.457,0.4,0.26,1423496237099999904
1423459761031396387,1082,1423459761028263092,1.469,0.398,0.262,1423496237299999952
1423459761295137261,1083,1423459761268008947,1.467,0.408,0.255,1423496237599999904
1423459761508716597,1084,1423459761498750925,1.481,0.415,0.252,1423496237799999952
1423459761772474375,1085,1423459761734536886,1.479,0.414,0.258,1423496238000000000
1423459762236501689,1086,1423459762198066949,1.491,0.423,0.251,1423496238500000000
1423459762450137225,1087,1423459762428895950,1.499,0.423,0.257,1423496238700000047
1423459762713817652,1088,1423459762669538021,1.498,0.43,0.248,1423496239000000000
1423459763178080274,1089,1423459763150053024,1.516,0.438,0.249,1423496239500000000
1423459763391839846,1090,1423459763388736009,1.521,0.455,0.261,1423496239700000047
1423459764156202145,1091,1423459764106991052,1.543,0.455,0.256,1423496240400000095
1423459764369859740,1092,1423459764350740909,1.547,0.469,0.257,1423496240700000047
1423459764833885441,1093,1423459764818226099,1.556,0.477,0.256,1423496241099999904
1423459765097551434,1094,1423459765058962106,1.569,0.474,0.258,1423496241400000095
1423459765311276322,1095,1423459765299638986,1.564,0.486,0.246,1423496241599999904
1423459765825388261,1096,1423459765778090953,1.586,0.491,0.246,1423496242099999904
1423459766039037297,1097,1423459766019860029,1.594,0.508,0.259,1423496242299999952
1423459766302671766,1098,1423459766259547948,1.597,0.504,0.254,1423496242599999904
1423459766766740255,1099,1423459766746026039,1.615,0.512,0.254,1423496243099999904
1423459766980428667,1100,1423459766978703975,1.619,0.527,0.262,1423496243299999952
1423459767244186208,1101,1423459767210447072,1.627,0.519,0.263,1423496243500000000
1423459767457903104,1102,1423459767439215898,1.627,0.533,0.256,1423496243799999952
1423459767671473637,1103,1423459767669922113,1.642,0.537,0.254,1423496244000000000
1423459767935173688,1104,1423459767900757074,1.643,0.543,0.259,1423496244200000047
1423459768399197199,1105,1423459768360327005,1.654,0.547,0.252,1423496244700000047
1423459769313957517,1106,1423459769309365987,1.682,0.563,0.246,1423496245599999904
1423459769577686651,1107,1423459769541127920,1.689,0.577,0.254,1423496245900000095
1423459769791362873,1108,1423459769777888059,1.685,0.577,0.256,1423496246099999904
1423459770305395470,1109,1423459770259331941,1.707,0.583,0.255,1423496246599999904
1423459770519033476,1110,1423459770499144077,1.708,0.599,0.258,1423496246799999952
1423459770782826493,1111,1423459770747852087,1.715,0.59,0.262,1423496247099999904
1423459770996498996,1112,1423459770987559080,1.718,0.603,0.254,1423496247299999952
1423459771260271006,1113,1423459771219264030,1.729,0.612,0.254,1423496247500000000
1423459771473960222,1114,1423459771460047006,1.721,0.613,0.247,1423496247799999952
1423459771737702621,1115,1423459771699832916,1.734,0.614,0.258,1423496248000000000
1423459771951404690,1116,1423459771930567979,1.737,0.623,0.249,1423496248200000047
1423459772165228125,1117,1423459772160331964,1.747,0.633,0.252,1423496248500000000
1423459772428899867,1118,1423459772389108896,1.74,0.632,0.245,1423496248700000047
1423459772892996589,1119,1423459772870532989,1.761,0.639,0.246,1423496249200000047
1423459773357041387,1120,1423459773356067895,1.766,0.654,0.251,1423496249700000047
1423459773820949540,1121,1423459773798679113,1.782,0.659,0.251,1423496250099999904
1423459774034729946,1122,1423459774029436111,1.789,0.672,0.253,1423496250299999952
1423459774298643505,1123,1423459774259162902,1.788,0.67,0.259,1423496250599999904
1423459774512255346,1124,1423459774498853921,1.797,0.68,0.254,1423496250799999952
1423459774776024612,1125,1423459774745682001,1.808,0.684,0.253,1423496251099999904
1423459774989699074,1126,1423459774979387998,1.806,0.69,0.257,1423496251299999952
1423459775253392166,1127,1423459775210231065,1.815,0.69,0.257,1423496251500000000
1423459775467105916,1128,1423459775438914060,1.822,0.702,0.258,1423496251799999952
1423459775680747899,1129,1423459775671725988,1.828,0.697,0.259,1423496252000000000
1423459775944602403,1130,1423459775901458978,1.826,0.71,0.245,1423496252200000047
1423459776408620446,1131,1423459776360003948,1.846,0.716,0.248,1423496252700000047
1423459776872624092,1132,1423459776828471899,1.842,0.724,0.245,1423496253099999904
1423459777336750829,1133,1423459777288044929,1.868,0.733,0.25,1423496253599999904
1423459777550586270,1134,1423459777530818939,1.873,0.745,0.251,1423496253799999952
1423459777764308442,1135,1423459777760622024,1.871,0.744,0.253,1423496254099999904
1423459778028049590,1136,1423459777998333930,1.883,0.757,0.256,1423496254299999952
1423459778241713561,1137,1423459778229181051,1.893,0.76,0.25,1423496254500000000
1423459778505458845,1138,1423459778468857049,1.891,0.764,0.257,1423496254799999952
1423459778969564075,1139,1423459778968338012,1.902,0.773,0.256,1423496255299999952
1423459779233350175,1140,1423459779224139928,1.913,0.782,0.253,1423496255500000000
1423459779447049609,1141,1423459779444840908,1.906,0.783,0.249,1423496255799999952
1423459779961102550,1142,1423459779919326066,1.925,0.79,0.252,1423496256200000047
1423459780174751188,1143,1423459780146167039,1.931,0.801,0.251,1423496256500000000
1423459780438493134,1144,1423459780388844966,1.925,0.798,0.249,1423496256700000047
1423459780652127304,1145,1423459780618567943,1.939,0.811,0.254,1423496256900000095
1423459781566729263,1146,1423459781539689064,1.959,0.83,0.256,1423496257900000095
1423459781780332118,1147,1423459781768416881,1.97,0.837,0.251,1423496258099999904
1423459782194217964,1148,1423459782180978059,1.966,0.841,0.254,1423496258500000000
1423459782458146257,1149,1423459782418757915,1.976,0.848,0.254,1423496258700000047
1423459782671928792,1150,1423459782649513959,1.98,0.846,0.25,1423496259000000000
1423459782885563923,1151,1423459782879245996,1.981,0.859,0.258,1423496259200000047
1423459783149442125,1152,1423459783108103036,1.977,0.855,0.244,1423496259400000095
1423459783413175283,1153,1423459783371794939,1.991,0.867,0.253,1423496259700000047
1423459783576846538,1154,1423459783569610118,2.001,0.869,0.252,1423496259900000095
1423459783840660680,1155,1423459783820331096,2.001,0.877,0.254,1423496260099999904
1423459784304642274,1156,1423459784289776086,2.013,0.883,0.248,1423496260599999904
1423459784568504518,1157,1423459784538548946,2.022,0.895,0.25,1423496260900000095
1423459784782151586,1158,1423459784768335103,2.015,0.893,0.242,1423496261099999904
1423459785246019166,1159,1423459785238909959,2.034,0.903,0.245,1423496261599999904
1423459785509751505,1160,1423459785479573965,2.04,0.915,0.25,1423496261799999952
1423459785723372887,1161,1423459785708390951,2.04,0.912,0.259,1423496262000000000
1423459785987111496,1162,1423459785951164960,2.048,0.924,0.253,1423496262299999952
1423459786200752419,1163,1423459786178864002,2.058,0.93,0.249,1423496262500000000
1423459786414378965,1164,1423459786409703016,2.057,0.935,0.256,1423496262700000047
1423459786928776590,1165,1423459786881150007,2.067,0.943,0.248,1423496263200000047
1423459787142261742,1166,1423459787108890056,2.078,0.95,0.252,1423496263400000095
1423459787355836134,1167,1423459787351680994,2.07,0.952,0.243,1423496263700000047
1423459787619630582,1168,1423459787588443040,2.082,0.954,0.254,1423496263900000095
1423459787833335157,1169,1423459787819164991,2.087,0.963,0.252,1423496264099999904
1423459788097210260,1170,1423459788059926033,2.098,0.973,0.25,1423496264400000095
1423459788311014991,1171,1423459788288674116,2.089,0.97,0.244,1423496264599999904
1423459788775119333,1172,1423459788753290891,2.108,0.98,0.245,1423496265099999904
1423459789038941959,1173,1423459788999027013,2.116,0.995,0.256,1423496265299999952
1423459789252918517,1174,1423459789228766918,2.118,0.992,0.258,1423496265500000000
1423459789466591468,1175,1423459789459430932,2.124,1.003,0.255,1423496265799999952
1423459789730307993,1176,1423459789690206050,2.132,1.005,0.246,1423496266000000000
1423459789944020418,1177,1423459789929018974,2.133,1.012,0.25,1423496266200000047
1423459790207652371,1178,1423459790169718980,2.14,1.012,0.256,1423496266500000000
1423459790421365601,1179,1423459790408471107,2.146,1.022,0.254,1423496266700000047
1423459790685257794,1180,1423459790640242099,2.151,1.029,0.246,1423496267000000000
1423459790898948331,1181,1423459790869959115,2.15,1.032,0.249,1423496267200000047
1423459791112586446,1182,1423459791098767995,2.157,1.03,0.255,1423496267400000095
1423459791376327875,1183,1423459791341500043,2.162,1.042,0.25,1423496267700000047
1423459791589916878,1184,1423459791570167064,2.171,1.051,0.251,1423496267900000095
1423459791853617602,1185,1423459791809009075,2.164,1.049,0.242,1423496268099999904
1423459792317643084,1186,1423459792278506994,2.184,1.061,0.25,1423496268599999904
1423459792531331739,1187,1423459792509238958,2.19,1.073,0.251,1423496268799999952
1423459792795024994,1188,1423459792756032943,2.186,1.072,0.246,1423496269099999904
1423459793008733025,1189,1423459792999722003,2.197,1.083,0.253,1423496269299999952
1423459793923515113,1190,1423459793917710065,2.218,1.103,0.25,1423496270200000047
1423459794187123948,1191,1423459794151458978,2.225,1.108,0.246,1423496270500000000
1423459794401040445,1192,1423459794389168977,2.214,1.111,0.239,1423496270700000047
1423459794865130627,1193,1423459794849693059,2.235,1.122,0.25,1423496271200000047
1423459795128832733,1194,1423459795084397077,2.245,1.13,0.251,1423496271400000095
1423459795342480559,1195,1423459795319111108,2.239,1.134,0.258,1423496271599999904
1423459795806402235,1196,1423459795798593997,2.256,1.139,0.248,1423496272099999904
1423459796070140397,1197,1423459796049379110,2.263,1.152,0.247,1423496272400000095
1423459796334048212,1198,1423459796289134025,2.26,1.154,0.246,1423496272599999904
1423459796547740194,1199,1423459796530838012,2.27,1.162,0.253,1423496272799999952
1423459796811400859,1200,1423459796768584966,2.276,1.162,0.248,1423496273099999904
1423459797025009982,1201,1423459797019324064,2.281,1.174,0.256,1423496273299999952
1423459797288695833,1202,1423459797249109029,2.286,1.171,0.256,1423496273599999904
1423459797502432285,1203,1423459797478816986,2.289,1.182,0.254,1423496273799999952
1423459797716049252,1204,1423459797708604097,2.3,1.189,0.25,1423496274000000000
1423459797979887531,1205,1423459797942368984,2.291,1.187,0.242,1423496274299999952
1423459798443848381,1206,1423459798408859014,2.312,1.201,0.248,1423496274700000047
1423459798657630967,1207,1423459798639636993,2.319,1.211,0.249,1423496275000000000
1423459798921310142,1208,1423459798892421960,2.313,1.211,0.242,1423496275200000047
1423459799185083174,1209,1423459799141134023,2.326,1.222,0.254,1423496275500000000
1423459799398674481,1210,1423459799379827022,2.333,1.222,0.25,1423496275700000047
1423459799612257683,1211,1423459799609546899,2.338,1.234,0.25,1423496275900000095
1423459799875926523,1212,1423459799839359045,2.334,1.231,0.247,1423496276200000047
1423459800089586092,1213,1423459800070060968,2.345,1.241,0.253,1423496276400000095
1423459800303267911,1214,1423459800299840927,2.354,1.247,0.247,1423496276599999904
1423459800566961721,1215,1423459800529628992,2.354,1.25,0.255,1423496276799999952
1423459801030923495,1216,1423459801009104967,2.364,1.258,0.25,1423496277299999952
1423459801244558963,1217,1423459801239834070,2.373,1.267,0.25,1423496277599999904
1423459801508266913,1218,1423459801490506887,2.369,1.27,0.248,1423496277799999952
1423459801721942088,1219,1423459801717324972,2.377,1.27,0.254,1423496278000000000
1423459801985556915,1220,1423459801960107088,2.385,1.277,0.245,1423496278299999952
1423459802199223818,1221,1423459802190757989,2.393,1.29,0.249,1423496278500000000
1423459802462857033,1222,1423459802429616928,2.386,1.289,0.242,1423496278700000047
1423459802926764062,1223,1423459802891149044,2.404,1.297,0.248,1423496279200000047
1423459803140476668,1224,1423459803119910001,2.409,1.311,0.257,1423496279400000095
1423459803354217148,1225,1423459803352602958,2.411,1.307,0.259,1423496279700000047
1423459803617935399,1226,1423459803589387893,2.418,1.32,0.253,1423496279900000095
1423459803831526454,1227,1423459803819186925,2.426,1.324,0.247,1423496280099999904
1423459804095238983,1228,1423459804059983015,2.427,1.332,0.256,1423496280400000095
1423459804308890730,1229,1423459804290688037,2.428,1.329,0.256,1423496280599999904
1423459804522487419,1230,1423459804520432949,2.436,1.339,0.25,1423496280799999952
1423459804786244163,1231,1423459804768201112,2.441,1.341,0.25,1423496281099999904
1423459805049906673,1232,1423459805010917901,2.442,1.348,0.255,1423496281299999952
1423459805263589180,1233,1423459805239619970,2.442,1.347,0.254,1423496281599999904
1423459805527435138,1234,1423459805479470968,2.442,1.347,0.254,1423496281799999952
1423459806191751410,1235,1423459806168643951,2.442,1.347,0.254,1423496282500000000
