%time,field.header.seq,field.header.stamp,field.pose.position.x,field.pose.position.y,field.pose.position.z,field.pose.orientation.x,field.pose.orientation.y,field.pose.orientation.z,field.pose.orientation.w
1423459718075148243,828,1423459718026971101,0.394,-0.082,0.257,0.0,0.0,0.0,1.0
1423459718288751587,829,1423459718255706071,0.394,-0.082,0.257,0.0,0.0,0.0,1.0
1423459718502451939,830,1423459718486490964,0.394,-0.082,0.257,0.0,0.0,0.0,1.0
1423459718766178155,831,1423459718739253997,0.394,-0.082,0.257,0.0,0.0,0.0,1.0
1423459718979791997,832,1423459718959934949,0.394,-0.082,0.257,0.0,0.0,0.0,1.0
1423459719694181098,833,1423459719647264003,0.394,-0.082,0.257,0.0,0.0,0.0,1.0
1423459719907858591,834,1423459719889023065,0.394,-0.082,0.257,0.0,0.0,0.0,1.0
1423459720121500814,835,1423459720115757942,0.394,-0.082,0.257,0.0,0.0,0.0,1.0
1423459720385284451,836,1423459720349523067,0.394,-0.081,0.257,0.0,0.0,0.0,1.0
1423459720598925025,837,1423459720577250003,0.394,-0.081,0.257,0.0,0.0,0.0,1.0
1423459720862608298,838,1423459720827003002,0.394,-0.081,0.257,0.0,0.0,0.0,1.0
1423459721076241230,839,1423459721067735910,0.394,-0.082,0.257,0.0,0.0,0.0,1.0
1423459721339907837,840,1423459721296519994,0.394,-0.082,0.257,0.0,0.0,0.0,1.0
1423459721553518085,841,1423459721529237031,0.394,-0.082,0.257,0.0,0.0,0.0,1.0
1423459721817254002,842,1423459721768995046,0.394,-0.082,0.257,0.0,0.0,0.0,1.0
1423459722030880408,843,1423459722020771980,0.394,-0.081,0.257,0.0,0.0,0.0,1.0
1423459722244535007,844,1423459722226552963,0.394,-0.081,0.257,0.0,0.0,0.0,1.0
1423459722458162544,845,1423459722457307100,0.394,-0.081,0.257,0.0,0.0,0.0,1.0
1423459722721893060,846,1423459722701067924,0.394,-0.082,0.257,0.0,0.0,0.0,1.0
1423459722935565800,847,1423459722915853023,0.394,-0.082,0.257,0.0,0.0,0.0,1.0
1423459723199203180,848,1423459723149652957,0.394,-0.082,0.257,0.0,0.0,0.0,1.0
1423459723412874749,849,1423459723387392997,0.394,-0.081,0.257,0.0,0.0,0.0,1.0
1423459723626515707,850,1423459723618089914,0.394,-0.082,0.257,0.0,0.0,0.0,1.0
1423459723890173408,851,1423459723847929954,0.394,-0.081,0.257,0.0,0.0,0.0,1.0
1423459724103741649,852,1423459724076749086,0.394,-0.082,0.257,0.0,0.0,0.0,1.0
1423459724317358573,853,1423459724306487083,0.394,-0.082,0.257,0.0,0.0,0.0,1.0
1423459724581031278,854,1423459724540241003,0.394,-0.082,0.257,0.0,0.0,0.0,1.0
1423459724794688048,855,1423459724766974925,0.394,-0.081,0.257,0.0,0.0,0.0,1.0
1423459725008282287,856,1423459724996748924,0.394,-0.082,0.257,0.0,0.0,0.0,1.0
1423459725272045593,857,1423459725227519035,0.406,-0.086,0.25,0.0,0.0,0.0,1.0
1423459725485685799,858,1423459725456345081,0.41,-0.075,0.259,0.0,0.0,0.0,1.0
1423459725699280752,859,1423459725688079118,0.412,-0.079,0.252,0.0,0.0,0.0,1.0
1423459726163281069,860,1423459726152590990,0.44,-0.07,0.251,0.0,0.0,0.0,1.0
1423459726426921649,861,1423459726389288902,0.436,-0.065,0.257,0.0,0.0,0.0,1.0
1423459726640597417,862,1423459726627069950,0.463,-0.069,0.259,0.0,0.0,0.0,1.0
1423459726904303767,863,1423459726869820117,0.454,-0.065,0.254,0.0,0.0,0.0,1.0
1423459727117962696,864,1423459727106576919,0.472,-0.067,0.255,0.0,0.0,0.0,1.0
1423459727381659520,865,1423459727349325895,0.463,-0.061,0.247,0.0,0.0,0.0,1.0
1423459727595323857,866,1423459727588037967,0.482,-0.055,0.254,0.0,0.0,0.0,1.0
1423459727859042779,867,1423459727826797962,0.483,-0.059,0.245,0.0,0.0,0.0,1.0
1423459728323110076,868,1423459728307288885,0.498,-0.046,0.251,0.0,0.0,0.0,1.0
1423459728787186121,869,1423459728786803960,0.519,-0.042,0.252,0.0,0.0,0.0,1.0
1423459729050910002,870,1423459729028548002,0.518,-0.034,0.259,0.0,0.0,0.0,1.0
1423459729514928552,871,1423459729506004095,0.531,-0.032,0.255,0.0,0.0,0.0,1.0
1423459729778684781,872,1423459729753731966,0.55,-0.033,0.256,0.0,0.0,0.0,1.0
1423459729992362542,873,1423459729987524032,0.54,-0.028,0.249,0.0,0.0,0.0,1.0
1423459730256164634,874,1423459730227263927,0.567,-0.029,0.256,0.0,0.0,0.0,1.0
1423459730469860834,875,1423459730466968059,0.562,-0.027,0.247,0.0,0.0,0.0,1.0
1423459730783774159,876,1423459730740731000,0.575,-0.02,0.256,0.0,0.0,0.0,1.0
1423459730997420981,877,1423459730949532032,0.574,-0.021,0.251,0.0,0.0,0.0,1.0
1423459731461544317,878,1423459731430972099,0.599,-0.017,0.251,0.0,0.0,0.0,1.0
1423459732175881527,879,1423459732149337053,0.615,-0.001,0.256,0.0,0.0,0.0,1.0
1423459732389568963,880,1423459732387083053,0.637,-0.004,0.256,0.0,0.0,0.0,1.0
1423459732803610406,881,1423459732776649951,0.642,0.003,0.257,0.0,0.0,0.0,1.0
1423459733267631473,882,1423459733247009992,0.656,0.008,0.254,0.0,0.0,0.0,1.0
1423459733481277096,883,1423459733467767000,0.655,0.015,0.256,0.0,0.0,0.0,1.0
1423459733745029950,884,1423459733707484960,0.68,0.011,0.26,0.0,0.0,0.0,1.0
1423459733958664569,885,1423459733950275897,0.673,0.017,0.254,0.0,0.0,0.0,1.0
1423459734222401828,886,1423459734187091112,0.689,0.016,0.256,0.0,0.0,0.0,1.0
1423459734436019229,887,1423459734427788972,0.678,0.019,0.248,0.0,0.0,0.0,1.0
1423459734949981230,888,1423459734907263994,0.703,0.022,0.246,0.0,0.0,0.0,1.0
1423459735163564888,889,1423459735149064064,0.715,0.033,0.259,0.0,0.0,0.0,1.0
1423459735427225116,890,1423459735389761924,0.716,0.028,0.255,0.0,0.0,0.0,1.0
1423459735891052508,891,1423459735868246078,0.737,0.037,0.252,0.0,0.0,0.0,1.0
1423459736154785718,892,1423459736107954978,0.739,0.041,0.251,0.0,0.0,0.0,1.0
1423459736368486731,893,1423459736362685918,0.758,0.04,0.262,0.0,0.0,0.0,1.0
1423459736632199873,894,1423459736588463068,0.75,0.05,0.258,0.0,0.0,0.0,1.0
1423459736846054476,895,1423459736842212915,0.769,0.046,0.254,0.0,0.0,0.0,1.0
1423459737109803656,896,1423459737067945003,0.761,0.053,0.255,0.0,0.0,0.0,1.0
1423459737574010469,897,1423459737531408071,0.784,0.063,0.251,0.0,0.0,0.0,1.0
1423459737787695176,898,1423459737760178089,0.797,0.065,0.254,0.0,0.0,0.0,1.0
1423459738001331765,899,1423459737997955083,0.79,0.062,0.252,0.0,0.0,0.0,1.0
1423459738465269886,900,1423459738457489013,0.811,0.066,0.247,0.0,0.0,0.0,1.0
1423459738728978980,901,1423459738686279058,0.824,0.076,0.257,0.0,0.0,0.0,1.0
1423459738992638505,902,1423459738950936079,0.822,0.071,0.253,0.0,0.0,0.0,1.0
1423459739206314101,903,1423459739177740097,0.837,0.08,0.258,0.0,0.0,0.0,1.0
1423459739670439577,904,1423459739638297080,0.845,0.088,0.26,0.0,0.0,0.0,1.0
1423459739884129763,905,1423459739879059076,0.861,0.084,0.262,0.0,0.0,0.0,1.0
1423459740147885602,906,1423459740115797042,0.855,0.095,0.256,0.0,0.0,0.0,1.0
1423459740361578214,907,1423459740360534906,0.875,0.093,0.257,0.0,0.0,0.0,1.0
1423459740625352180,908,1423459740598294019,0.866,0.101,0.248,0.0,0.0,0.0,1.0
1423459740839282321,909,1423459740838041067,0.886,0.101,0.257,0.0,0.0,0.0,1.0
1423459741103098043,910,1423459741078808069,0.888,0.1,0.248,0.0,0.0,0.0,1.0
1423459741366834764,911,1423459741318594932,0.9,0.111,0.261,0.0,0.0,0.0,1.0
1423459741580607524,912,1423459741559345006,0.902,0.109,0.256,0.0,0.0,0.0,1.0
1423459742044584941,913,1423459742039906978,0.921,0.112,0.256,0.0,0.0,0.0,1.0
1423459742308261448,914,1423459742278662919,0.928,0.123,0.261,0.0,0.0,0.0,1.0
1423459742521868827,915,1423459742508373975,0.939,0.119,0.262,0.0,0.0,0.0,1.0
1423459742785589860,916,1423459742761207103,0.935,0.125,0.257,0.0,0.0,0.0,1.0
1423459742999199602,917,1423459742997912883,0.953,0.122,0.258,0.0,0.0,0.0,1.0
1423459743463183821,918,1423459743458390951,0.97,0.129,0.26,0.0,0.0,0.0,1.0
1423459743726877478,919,1423459743689184904,0.965,0.134,0.253,0.0,0.0,0.0,1.0
1423459744641337788,920,1423459744617281913,0.996,0.145,0.248,0.0,0.0,0.0,1.0
1423459745105257998,921,1423459745077852964,1.004,0.15,0.252,0.0,0.0,0.0,1.0
1423459745569292428,922,1423459745540285110,1.025,0.154,0.251,0.0,0.0,0.0,1.0
1423459746033344191,923,1423459745996861934,1.036,0.165,0.256,0.0,0.0,0.0,1.0
1423459746246954994,924,1423459746228552103,1.046,0.169,0.258,0.0,0.0,0.0,1.0
1423459746460611475,925,1423459746458327054,1.055,0.166,0.256,0.0,0.0,0.0,1.0
1423459746974706078,926,1423459746941829919,1.076,0.171,0.261,0.0,0.0,0.0,1.0
1423459747188371436,927,1423459747178534984,1.071,0.18,0.254,0.0,0.0,0.0,1.0
1423459747452088352,928,1423459747426281929,1.086,0.187,0.254,0.0,0.0,0.0,1.0
1423459747665715910,929,1423459747658075094,1.078,0.184,0.249,0.0,0.0,0.0,1.0
1423459748179791761,930,1423459748139553070,1.102,0.188,0.248,0.0,0.0,0.0,1.0
1423459748393421849,931,1423459748378334999,1.112,0.201,0.261,0.0,0.0,0.0,1.0
1423459748657133307,932,1423459748618985891,1.117,0.197,0.258,0.0,0.0,0.0,1.0
1423459748870767960,933,1423459748860682964,1.118,0.206,0.258,0.0,0.0,0.0,1.0
1423459749134430849,934,1423459749098500967,1.128,0.205,0.25,0.0,0.0,0.0,1.0
1423459749348047692,935,1423459749341198921,1.132,0.213,0.258,0.0,0.0,0.0,1.0
1423459749862159141,936,1423459749818746089,1.147,0.214,0.255,0.0,0.0,0.0,1.0
1423459751025855408,937,1423459750996577024,1.19,0.223,0.261,0.0,0.0,0.0,1.0
1423459751239530890,938,1423459751228324890,1.187,0.233,0.251,0.0,0.0,0.0,1.0
1423459751503306924,939,1423459751458065986,1.203,0.241,0.256,0.0,0.0,0.0,1.0
1423459751717081273,940,1423459751690833091,1.204,0.233,0.249,0.0,0.0,0.0,1.0
1423459751930772025,941,1423459751919568061,1.215,0.248,0.257,0.0,0.0,0.0,1.0
1423459752645268427,942,1423459752611804962,1.232,0.251,0.251,0.0,0.0,0.0,1.0
1423459752858958109,943,1423459752838538885,1.237,0.266,0.262,0.0,0.0,0.0,1.0
1423459753322901274,944,1423459753303096055,1.247,0.269,0.257,0.0,0.0,0.0,1.0
1423459753586672502,945,1423459753550918102,1.257,0.266,0.253,0.0,0.0,0.0,1.0
1423459753800380195,946,1423459753778557062,1.26,0.28,0.259,0.0,0.0,0.0,1.0
1423459754014004169,947,1423459754008414030,1.275,0.273,0.263,0.0,0.0,0.0,1.0
1423459754277681641,948,1423459754241120100,1.273,0.282,0.255,0.0,0.0,0.0,1.0
1423459754491330043,949,1423459754477899074,1.285,0.28,0.259,0.0,0.0,0.0,1.0
1423459754755031671,950,1423459754739593029,1.285,0.29,0.258,0.0,0.0,0.0,1.0
1423459755219208454,951,1423459755178257942,1.301,0.298,0.254,0.0,0.0,0.0,1.0
1423459755432899980,952,1423459755409893989,1.311,0.306,0.252,0.0,0.0,0.0,1.0
1423459755646574954,953,1423459755637706041,1.308,0.307,0.25,0.0,0.0,0.0,1.0
1423459756110482147,954,1423459756108273983,1.326,0.309,0.25,0.0,0.0,0.0,1.0
1423459756874988068,955,1423459756837500095,1.346,0.333,0.257,0.0,0.0,0.0,1.0
1423459757088735990,956,1423459757078282117,1.357,0.325,0.258,0.0,0.0,0.0,1.0
1423459757502609588,957,1423459757479898929,1.364,0.335,0.259,0.0,0.0,0.0,1.0
1423459757716267061,958,1423459757708656072,1.369,0.345,0.258,0.0,0.0,0.0,1.0
1423459757979982335,959,1423459757943434000,1.384,0.348,0.254,0.0,0.0,0.0,1.0
1423459758193595719,960,1423459758179160118,1.379,0.352,0.254,0.0,0.0,0.0,1.0
1423459758457448065,961,1423459758408005952,1.396,0.353,0.262,0.0,0.0,0.0,1.0
1423459758671162350,962,1423459758639724016,1.392,0.359,0.256,0.0,0.0,0.0,1.0
1423459758934971249,963,1423459758890494108,1.404,0.357,0.258,0.0,0.0,0.0,1.0
1423459759148683989,964,1423459759119251966,1.404,0.366,0.249,0.0,0.0,0.0,1.0
1423459759612686033,965,1423459759588701963,1.422,0.369,0.246,0.0,0.0,0.0,1.0
1423459759876465816,966,1423459759829405069,1.432,0.383,0.259,0.0,0.0,0.0,1.0
1423459760090120920,967,1423459760068264007,1.435,0.383,0.254,0.0,0.0,0.0,1.0
1423459760554028631,968,1423459760550726890,1.451,0.386,0.253,0.0,0.0,0.0,1.0
1423459760817728838,969,1423459760789515018,1.457,0.4,0.26,0.0,0.0,0.0,1.0
1423459761031384599,970,1423459761028263092,1.469,0.398,0.262,0.0,0.0,0.0,1.0
1423459761295215744,971,1423459761268008947,1.467,0.408,0.255,0.0,0.0,0.0,1.0
1423459761508936199,972,1423459761498750925,1.481,0.415,0.252,0.0,0.0,0.0,1.0
1423459761772618511,973,1423459761734536886,1.479,0.414,0.258,0.0,0.0,0.0,1.0
1423459762236708608,974,1423459762198066949,1.491,0.423,0.251,0.0,0.0,0.0,1.0
1423459762450281541,975,1423459762428895950,1.499,0.423,0.257,0.0,0.0,0.0,1.0
1423459762713892658,976,1423459762669538021,1.498,0.43,0.248,0.0,0.0,0.0,1.0
1423459763177983216,977,1423459763150053024,1.516,0.438,0.249,0.0,0.0,0.0,1.0
1423459763391826534,978,1423459763388736009,1.521,0.455,0.261,0.0,0.0,0.0,1.0
1423459764156331298,979,1423459764106991052,1.543,0.455,0.256,0.0,0.0,0.0,1.0
1423459764369870011,980,1423459764350740909,1.547,0.469,0.257,0.0,0.0,0.0,1.0
1423459764833824541,981,1423459764818226099,1.556,0.477,0.256,0.0,0.0,0.0,1.0
1423459765097425029,982,1423459765058962106,1.569,0.474,0.258,0.0,0.0,0.0,1.0
1423459765311069900,983,1423459765299638986,1.564,0.486,0.246,0.0,0.0,0.0,1.0
1423459765825175761,984,1423459765778090953,1.586,0.491,0.246,0.0,0.0,0.0,1.0
1423459766038873721,985,1423459766019860029,1.594,0.508,0.259,0.0,0.0,0.0,1.0
1423459766302584775,986,1423459766259547948,1.597,0.504,0.254,0.0,0.0,0.0,1.0
1423459766766564671,987,1423459766746026039,1.615,0.512,0.254,0.0,0.0,0.0,1.0
1423459766980239179,988,1423459766978703975,1.619,0.527,0.262,0.0,0.0,0.0,1.0
1423459767243960743,989,1423459767210447072,1.627,0.519,0.263,0.0,0.0,0.0,1.0
1423459767457626224,990,1423459767439215898,1.627,0.533,0.256,0.0,0.0,0.0,1.0
1423459767671305951,991,1423459767669922113,1.642,0.537,0.254,0.0,0.0,0.0,1.0
1423459767935075228,992,1423459767900757074,1.643,0.543,0.259,0.0,0.0,0.0,1.0
1423459768399200905,993,1423459768360327005,1.654,0.547,0.252,0.0,0.0,0.0,1.0
1423459769314035217,994,1423459769309365987,1.682,0.563,0.246,0.0,0.0,0.0,1.0
1423459769577888070,995,1423459769541127920,1.689,0.577,0.254,0.0,0.0,0.0,1.0
1423459769791576751,996,1423459769777888059,1.685,0.577,0.256,0.0,0.0,0.0,1.0
1423459770305610291,997,1423459770259331941,1.707,0.583,0.255,0.0,0.0,0.0,1.0
1423459770519362999,998,1423459770499144077,1.708,0.599,0.258,0.0,0.0,0.0,1.0
1423459770782960103,999,1423459770747852087,1.715,0.59,0.262,0.0,0.0,0.0,1.0
1423459770996544297,1000,1423459770987559080,1.718,0.603,0.254,0.0,0.0,0.0,1.0
1423459771260361620,1001,1423459771219264030,1.729,0.612,0.254,0.0,0.0,0.0,1.0
1423459771474116953,1002,1423459771460047006,1.721,0.613,0.247,0.0,0.0,0.0,1.0
1423459771737843561,1003,1423459771699832916,1.734,0.614,0.258,0.0,0.0,0.0,1.0
1423459771951516261,1004,1423459771930567979,1.737,0.623,0.249,0.0,0.0,0.0,1.0
1423459772165228158,1005,1423459772160331964,1.747,0.633,0.252,0.0,0.0,0.0,1.0
1423459772429068929,1006,1423459772389108896,1.74,0.632,0.245,0.0,0.0,0.0,1.0
1423459772893075612,1007,1423459772870532989,1.761,0.639,0.246,0.0,0.0,0.0,1.0
1423459773357054269,1008,1423459773356067895,1.766,0.654,0.251,0.0,0.0,0.0,1.0
1423459773821077248,1009,1423459773798679113,1.782,0.659,0.251,0.0,0.0,0.0,1.0
1423459774034856042,1010,1423459774029436111,1.789,0.672,0.253,0.0,0.0,0.0,1.0
1423459774298564630,1011,1423459774259162902,1.788,0.67,0.259,0.0,0.0,0.0,1.0
1423459774512240298,1012,1423459774498853921,1.797,0.68,0.254,0.0,0.0,0.0,1.0
1423459774776036416,1013,1423459774745682001,1.808,0.684,0.253,0.0,0.0,0.0,1.0
1423459774989702459,1014,1423459774979387998,1.806,0.69,0.257,0.0,0.0,0.0,1.0
1423459775253401076,1015,1423459775210231065,1.815,0.69,0.257,0.0,0.0,0.0,1.0
1423459775467117139,1016,1423459775438914060,1.822,0.702,0.258,0.0,0.0,0.0,1.0
1423459775680656502,1017,1423459775671725988,1.828,0.697,0.259,0.0,0.0,0.0,1.0
1423459775944703515,1018,1423459775901458978,1.826,0.71,0.245,0.0,0.0,0.0,1.0
1423459776408709645,1019,1423459776360003948,1.846,0.716,0.248,0.0,0.0,0.0,1.0
1423459776872645128,1020,1423459776828471899,1.842,0.724,0.245,0.0,0.0,0.0,1.0
1423459777336980015,1021,1423459777288044929,1.868,0.733,0.25,0.0,0.0,0.0,1.0
1423459777550601393,1022,1423459777530818939,1.873,0.745,0.251,0.0,0.0,0.0,1.0
1423459777764199742,1023,1423459777760622024,1.871,0.744,0.253,0.0,0.0,0.0,1.0
1423459778027940275,1024,1423459777998333930,1.883,0.757,0.256,0.0,0.0,0.0,1.0
1423459778241650284,1025,1423459778229181051,1.893,0.76,0.25,0.0,0.0,0.0,1.0
1423459778505396486,1026,1423459778468857049,1.891,0.764,0.257,0.0,0.0,0.0,1.0
1423459778969388461,1027,1423459778968338012,1.902,0.773,0.256,0.0,0.0,0.0,1.0
1423459779233128933,1028,1423459779224139928,1.913,0.782,0.253,0.0,0.0,0.0,1.0
1423459779446684375,1029,1423459779444840908,1.906,0.783,0.249,0.0,0.0,0.0,1.0
1423459779960646426,1030,1423459779919326066,1.925,0.79,0.252,0.0,0.0,0.0,1.0
1423459780174345473,1031,1423459780146167039,1.931,0.801,0.251,0.0,0.0,0.0,1.0
1423459780438013326,1032,1423459780388844966,1.925,0.798,0.249,0.0,0.0,0.0,1.0
1423459780651739286,1033,1423459780618567943,1.939,0.811,0.254,0.0,0.0,0.0,1.0
1423459781566486261,1034,1423459781539689064,1.959,0.83,0.256,0.0,0.0,0.0,1.0
1423459781780109256,1035,1423459781768416881,1.97,0.837,0.251,0.0,0.0,0.0,1.0
1423459782194148859,1036,1423459782180978059,1.966,0.841,0.254,0.0,0.0,0.0,1.0
1423459782458007053,1037,1423459782418757915,1.976,0.848,0.254,0.0,0.0,0.0,1.0
1423459782671761055,1038,1423459782649513959,1.98,0.846,0.25,0.0,0.0,0.0,1.0
1423459782885693307,1039,1423459782879245996,1.981,0.859,0.258,0.0,0.0,0.0,1.0
1423459783149348582,1040,1423459783108103036,1.977,0.855,0.244,0.0,0.0,0.0,1.0
1423459783413117101,1041,1423459783371794939,1.991,0.867,0.253,0.0,0.0,0.0,1.0
1423459783576751664,1042,1423459783569610118,2.001,0.869,0.252,0.0,0.0,0.0,1.0
1423459783840511713,1043,1423459783820331096,2.001,0.877,0.254,0.0,0.0,0.0,1.0
1423459784304487534,1044,1423459784289776086,2.013,0.883,0.248,0.0,0.0,0.0,1.0
1423459784568183925,1045,1423459784538548946,2.022,0.895,0.25,0.0,0.0,0.0,1.0
1423459784781843917,1046,1423459784768335103,2.015,0.893,0.242,0.0,0.0,0.0,1.0
1423459785246052294,1047,1423459785238909959,2.034,0.903,0.245,0.0,0.0,0.0,1.0
1423459785509760171,1048,1423459785479573965,2.04,0.915,0.25,0.0,0.0,0.0,1.0
1423459785723552199,1049,1423459785708390951,2.04,0.912,0.259,0.0,0.0,0.0,1.0
1423459785987305195,1050,1423459785951164960,2.048,0.924,0.253,0.0,0.0,0.0,1.0
1423459786200874316,1051,1423459786178864002,2.058,0.93,0.249,0.0,0.0,0.0,1.0
1423459786414487671,1052,1423459786409703016,2.057,0.935,0.256,0.0,0.0,0.0,1.0
1423459786928782330,1053,1423459786881150007,2.067,0.943,0.248,0.0,0.0,0.0,1.0
1423459787142264402,1054,1423459787108890056,2.078,0.95,0.252,0.0,0.0,0.0,1.0
1423459787355967585,1055,1423459787351680994,2.07,0.952,0.243,0.0,0.0,0.0,1.0
1423459787619693115,1056,1423459787588443040,2.082,0.954,0.254,0.0,0.0,0.0,1.0
1423459787833418516,1057,1423459787819164991,2.087,0.963,0.252,0.0,0.0,0.0,1.0
1423459788097270832,1058,1423459788059926033,2.098,0.973,0.25,0.0,0.0,0.0,1.0
1423459788311089347,1059,1423459788288674116,2.089,0.97,0.244,0.0,0.0,0.0,1.0
1423459788775229739,1060,1423459788753290891,2.108,0.98,0.245,0.0,0.0,0.0,1.0
1423459789039205211,1061,1423459788999027013,2.116,0.995,0.256,0.0,0.0,0.0,1.0
1423459789252802163,1062,1423459789228766918,2.118,0.992,0.258,0.0,0.0,0.0,1.0
1423459789466509813,1063,1423459789459430932,2.124,1.003,0.255,0.0,0.0,0.0,1.0
1423459789730262127,1064,1423459789690206050,2.132,1.005,0.246,0.0,0.0,0.0,1.0
1423459789944092481,1065,1423459789929018974,2.133,1.012,0.25,0.0,0.0,0.0,1.0
1423459790207758351,1066,1423459790169718980,2.14,1.012,0.256,0.0,0.0,0.0,1.0
1423459790421462613,1067,1423459790408471107,2.146,1.022,0.254,0.0,0.0,0.0,1.0
1423459790685218849,1068,1423459790640242099,2.151,1.029,0.246,0.0,0.0,0.0,1.0
1423459790898909287,1069,1423459790869959115,2.15,1.032,0.249,0.0,0.0,0.0,1.0
1423459791112596888,1070,1423459791098767995,2.157,1.03,0.255,0.0,0.0,0.0,1.0
1423459791376370550,1071,1423459791341500043,2.162,1.042,0.25,0.0,0.0,0.0,1.0
1423459791590040060,1072,1423459791570167064,2.171,1.051,0.251,0.0,0.0,0.0,1.0
1423459791853698653,1073,1423459791809009075,2.164,1.049,0.242,0.0,0.0,0.0,1.0
1423459792317507762,1074,1423459792278506994,2.184,1.061,0.25,0.0,0.0,0.0,1.0
1423459792531324923,1075,1423459792509238958,2.19,1.073,0.251,0.0,0.0,0.0,1.0
1423459792795030842,1076,1423459792756032943,2.186,1.072,0.246,0.0,0.0,0.0,1.0
1423459793008675825,1077,1423459792999722003,2.197,1.083,0.253,0.0,0.0,0.0,1.0
1423459793923355110,1078,1423459793917710065,2.218,1.103,0.25,0.0,0.0,0.0,1.0
1423459794187300926,1079,1423459794151458978,2.225,1.108,0.246,0.0,0.0,0.0,1.0
1423459794400888489,1080,1423459794389168977,2.214,1.111,0.239,0.0,0.0,0.0,1.0
1423459794865000498,1081,1423459794849693059,2.235,1.122,0.25,0.0,0.0,0.0,1.0
1423459795128828396,1082,1423459795084397077,2.245,1.13,0.251,0.0,0.0,0.0,1.0
1423459795342560305,1083,1423459795319111108,2.239,1.134,0.258,0.0,0.0,0.0,1.0
1423459795806627851,1084,1423459795798593997,2.256,1.139,0.248,0.0,0.0,0.0,1.0
1423459796070279452,1085,1423459796049379110,2.263,1.152,0.247,0.0,0.0,0.0,1.0
1423459796334005453,1086,1423459796289134025,2.26,1.154,0.246,0.0,0.0,0.0,1.0
1423459796547666599,1087,1423459796530838012,2.27,1.162,0.253,0.0,0.0,0.0,1.0
1423459796811388917,1088,1423459796768584966,2.276,1.162,0.248,0.0,0.0,0.0,1.0
1423459797025183449,1089,1423459797019324064,2.281,1.174,0.256,0.0,0.0,0.0,1.0
1423459797288873257,1090,1423459797249109029,2.286,1.171,0.256,0.0,0.0,0.0,1.0
1423459797502349963,1091,1423459797478816986,2.289,1.182,0.254,0.0,0.0,0.0,1.0
1423459797716063480,1092,1423459797708604097,2.3,1.189,0.25,0.0,0.0,0.0,1.0
1423459797979777792,1093,1423459797942368984,2.291,1.187,0.242,0.0,0.0,0.0,1.0
1423459798443801950,1094,1423459798408859014,2.312,1.201,0.248,0.0,0.0,0.0,1.0
1423459798657545692,1095,1423459798639636993,2.319,1.211,0.249,0.0,0.0,0.0,1.0
1423459798921294137,1096,1423459798892421960,2.313,1.211,0.242,0.0,0.0,0.0,1.0
1423459799184986197,1097,1423459799141134023,2.326,1.222,0.254,0.0,0.0,0.0,1.0
1423459799398632245,1098,1423459799379827022,2.333,1.222,0.25,0.0,0.0,0.0,1.0
1423459799612399583,1099,1423459799609546899,2.338,1.234,0.25,0.0,0.0,0.0,1.0
1423459799876037414,1100,1423459799839359045,2.334,1.231,0.247,0.0,0.0,0.0,1.0
1423459800089641326,1101,1423459800070060968,2.345,1.241,0.253,0.0,0.0,0.0,1.0
1423459800303368646,1102,1423459800299840927,2.354,1.247,0.247,0.0,0.0,0.0,1.0
1423459800567102523,1103,1423459800529628992,2.354,1.25,0.255,0.0,0.0,0.0,1.0
1423459801031074332,1104,1423459801009104967,2.364,1.258,0.25,0.0,0.0,0.0,1.0
1423459801244718457,1105,1423459801239834070,2.373,1.267,0.25,0.0,0.0,0.0,1.0
1423459801508419887,1106,1423459801490506887,2.369,1.27,0.248,0.0,0.0,0.0,1.0
1423459801721953896,1107,1423459801717324972,2.377,1.27,0.254,0.0,0.0,0.0,1.0
1423459801985665403,1108,1423459801960107088,2.385,1.277,0.245,0.0,0.0,0.0,1.0
1423459802199290100,1109,1423459802190757989,2.393,1.29,0.249,0.0,0.0,0.0,1.0
1423459802463002305,1110,1423459802429616928,2.386,1.289,0.242,0.0,0.0,0.0,1.0
1423459802926840292,1111,1423459802891149044,2.404,1.297,0.248,0.0,0.0,0.0,1.0
1423459803140609852,1112,1423459803119910001,2.409,1.311,0.257,0.0,0.0,0.0,1.0
1423459803354396542,1113,1423459803352602958,2.411,1.307,0.259,0.0,0.0,0.0,1.0
1423459803618169720,1114,1423459803589387893,2.418,1.32,0.253,0.0,0.0,0.0,1.0
1423459803831897627,1115,1423459803819186925,2.426,1.324,0.247,0.0,0.0,0.0,1.0
1423459804095557537,1116,1423459804059983015,2.427,1.332,0.256,0.0,0.0,0.0,1.0
1423459804309274921,1117,1423459804290688037,2.428,1.329,0.256,0.0,0.0,0.0,1.0
1423459804522909010,1118,1423459804520432949,2.436,1.339,0.25,0.0,0.0,0.0,1.0
1423459804786582379,1119,1423459804768201112,2.441,1.341,0.25,0.0,0.0,0.0,1.0
1423459805050283783,1120,1423459805010917901,2.442,1.348,0.255,0.0,0.0,0.0,1.0
1423459805263872319,1121,1423459805239619970,2.442,1.347,0.254,0.0,0.0,0.0,1.0
1423459805527564827,1122,1423459805479470968,2.442,1.347,0.254,0.0,0.0,0.0,1.0
1423459806191758952,1123,1423459806168643951,2.442,1.347,0.254,0.0,0.0,0.0,1.0
